{
    "mentions": {
        "bhatkal": {
            "blogLinks": [
                "https://en.wikipedia.org/wiki/Shimoga_district"
            ],
            "locType": "town",
            "longitude": "74.5485295",
            "latitude": "13.9952114",
            "address": "Bhatkal, Bhatkala taluk, Uttara Kannada, Karnataka, 581320, India",
            "closest_to": "shimoga"
        },
        "renukamba": {
            "blogLinks": [
                "https://en.wikipedia.org/wiki/Shimoga_district"
            ],
            "locType": "restaurant",
            "longitude": "75.932718",
            "latitude": "14.4583725",
            "address": "Renukamba Family Dabha, SH76, K.B. Extension, Davanagere, Davanagere taluku, Davanagere district, Karnataka, 577005, India",
            "closest_to": "shimoga"
        },
        "dubare elephant camp": {
            "blogLinks": [
                "http://traveltriangle.com/blog/best-places-to-visit-in-karnataka/"
            ],
            "locType": "attraction",
            "longitude": "75.9066719",
            "latitude": "12.3716865",
            "address": "Dubare Elephant Camp, SH91, Dodda Bettageri, Somawarpet taluk, Kodagu, Karnataka, India",
            "closest_to": "shimoga"
        },
        "kali river": {
            "blogLinks": [
                "http://traveltriangle.com/blog/best-places-to-visit-in-karnataka/"
            ],
            "locType": "river",
            "longitude": "74.5802901",
            "latitude": "15.0145378",
            "address": "Kali, Joida taluk, Uttara Kannada, Karnataka, India",
            "closest_to": "shimoga"
        },
        "badami taluk": {
            "blogLinks": [
                "https://en.wikipedia.org/wiki/Badami"
            ],
            "locType": "primary",
            "longitude": "75.6395312",
            "latitude": "15.4389959",
            "address": "Pala Badami Road, Betageri, Gadag, Gadag taluk, Gadag district, Karnataka, 582102, India",
            "closest_to": "shimoga"
        },
        "panambur beach": {
            "blogLinks": [
                "http://traveltriangle.com/blog/best-places-to-visit-in-karnataka/"
            ],
            "locType": "beach",
            "longitude": "74.8034667207214",
            "latitude": "12.93907195",
            "address": "Panambur Beach, Panambur Beach Road, Gandhinagar, Panambur, Mangaluru taluk, Dakshina Kannada, Karnataka, 575013, India",
            "closest_to": "shimoga"
        },
        "kamalapura - hampi": {
            "blogLinks": [
                "http://samundarbaba.blogspot.in/2010/11/we-visited-hampi-badami-aihole-and.html"
            ],
            "locType": "primary",
            "longitude": "76.4601501",
            "latitude": "15.3237031",
            "address": "Hampi Kamalapura Road, Hampe, Hosapete taluk, Bellary district, Karnataka, 583239, India",
            "closest_to": "shimoga"
        },
        "agumbe": {
            "blogLinks": [
                "https://en.wikipedia.org/wiki/Shimoga_district"
            ],
            "locType": "village",
            "longitude": "75.0965525",
            "latitude": "13.5094998",
            "address": "Agumbe, Tirthahalli taluk, Shimoga district, Karnataka, 577411, India",
            "closest_to": "shimoga"
        },
        "sagar road": {
            "blogLinks": [
                "http://www.holidayiq.com/Shimoga-Sightseeing-748.html"
            ],
            "locType": "trunk",
            "longitude": "75.2002048",
            "latitude": "14.0904271",
            "address": "Sagar Road, Anandapura, Sagara taluk, Shimoga district, Karnataka, 577412, India",
            "closest_to": "shimoga"
        },
        "kargal": {
            "blogLinks": [
                "https://en.wikipedia.org/wiki/Shimoga_district"
            ],
            "locType": "village",
            "longitude": "75.9613152",
            "latitude": "12.627292",
            "address": "Kargal, Arakalagudu taluk, Hassan district, Karnataka, India",
            "closest_to": "shimoga"
        },
        "river netravati": {
            "blogLinks": [
                "http://traveltriangle.com/blog/best-places-to-visit-in-karnataka/"
            ],
            "locType": "river",
            "longitude": "75.1562182",
            "latitude": "12.8537655",
            "address": "Netravati, Bantwal taluk, Dakshina Kannada, Karnataka, India",
            "closest_to": "shimoga"
        },
        "st. aloysius chapel": {
            "blogLinks": [
                "http://traveltriangle.com/blog/best-places-to-visit-in-karnataka/"
            ],
            "locType": "place_of_worship",
            "longitude": "74.8453615",
            "latitude": "12.8737995",
            "address": "St. Aloysius Chapel, St Aloysius Internal Road, Dongerkeri, Mallikatte, Mangaluru, Mangaluru taluk, Dakshina Kannada, Karnataka, 575001, India",
            "closest_to": "shimoga"
        },
        "prabhudeva": {
            "blogLinks": [
                "https://en.wikipedia.org/wiki/Shimoga_district"
            ],
            "locType": "fuel",
            "longitude": "76.6669578",
            "latitude": "12.3927526",
            "address": "Sri Prabhudeva Service Station, Bangalore-Mysore Road, Mayannana Koppalu, Srirangapattana taluk, Mandya district, Karnataka, 571438, India",
            "closest_to": "shimoga"
        },
        "hampi bazaar": {
            "blogLinks": [
                "http://www.mapsofindia.com/karnataka/places-to-visit-in-hampi.html"
            ],
            "locType": "unclassified",
            "longitude": "76.4621571",
            "latitude": "15.3347585",
            "address": "Hampi Bazaar, Hampe, Hosapete taluk, Bellary district, Karnataka, 583239, India",
            "closest_to": "shimoga"
        },
        "vitthala": {
            "blogLinks": [
                "http://samundarbaba.blogspot.in/2010/11/we-visited-hampi-badami-aihole-and.html"
            ],
            "locType": "footway",
            "longitude": "76.4705005",
            "latitude": "15.3376716",
            "address": "Way to Vitthala Temple, Hampe, Hosapete taluk, Bellary district, Karnataka, 583239, India",
            "closest_to": "shimoga"
        },
        "lal bagh": {
            "blogLinks": [
                "https://www.tripoto.com/weekend-getaways/from-shimoga"
            ],
            "locType": "bus_stop",
            "longitude": "74.8386152",
            "latitude": "12.8859223",
            "address": "Lal Bagh Bus Stop, Mahatma Gandhi Road, Lalbagh, Ladyhill, Mangaluru, Mangaluru taluk, Dakshina Kannada, Karnataka, 575001, India",
            "closest_to": "shimoga"
        },
        "humcha": {
            "blogLinks": [
                "http://www.nivalink.com/destination/shimoga"
            ],
            "locType": "secondary",
            "longitude": "75.2098487",
            "latitude": "13.862013",
            "address": "Humcha Main Road, Huncha, Hosanagara taluk, Shimoga district, Karnataka, India",
            "closest_to": "shimoga"
        },
        "hosanagara taluk": {
            "blogLinks": [
                "https://en.wikipedia.org/wiki/Shimoga_district"
            ],
            "locType": "administrative",
            "longitude": "75.0686275463311",
            "latitude": "13.8498942",
            "address": "Hosanagara taluk, Shimoga district, Karnataka, India",
            "closest_to": "shimoga"
        },
        "anegondi": {
            "blogLinks": [
                "http://www.mapsofindia.com/karnataka/places-to-visit-in-hampi.html"
            ],
            "locType": "village",
            "longitude": "76.4924232",
            "latitude": "15.3509583",
            "address": "Anegundi, Gangavati taluku, Koppal district, Karnataka, India",
            "closest_to": "shimoga"
        },
        "linganamakki": {
            "blogLinks": [
                "https://en.wikipedia.org/wiki/Shimoga_district"
            ],
            "locType": "village",
            "longitude": "74.8292508",
            "latitude": "14.1731954",
            "address": "Linganamakki, Sagara taluk, Shimoga district, Karnataka, India",
            "closest_to": "shimoga"
        },
        "river varada": {
            "blogLinks": [
                "http://traveltriangle.com/blog/best-places-to-visit-in-karnataka/"
            ],
            "locType": "river",
            "longitude": "75.47206",
            "latitude": "14.8717792",
            "address": "Varada, Savanura taluk, Haveri district, Karnataka, India",
            "closest_to": "shimoga"
        },
        "jagara": {
            "blogLinks": [
                "https://en.wikipedia.org/wiki/Shimoga_district"
            ],
            "locType": "village",
            "longitude": "75.6731446",
            "latitude": "13.4436522",
            "address": "Jagara, Chikkamagaluru taluku, Chikkamagaluru district, Karnataka, India",
            "closest_to": "shimoga"
        },
        "shringeri": {
            "blogLinks": [
                "http://www.indiamike.com/india/karnataka-f38/udupi-agumbe-shringeri-murudeshwara-jog-falls-dharmasthala-t137208/"
            ],
            "locType": "village",
            "longitude": "75.0621168",
            "latitude": "14.7221214",
            "address": "Shringeri, Hanagal taluk, Haveri district, Karnataka, India",
            "closest_to": "shimoga"
        },
        "virupaksha temple": {
            "blogLinks": [
                "http://www.mapsofindia.com/karnataka/places-to-visit-in-hampi.html"
            ],
            "locType": "place_of_worship",
            "longitude": "76.4587777156223",
            "latitude": "15.3351754",
            "address": "Virupaksha Temple, Hampi Bazaar, Hampe, Hosapete taluk, Bellary district, Karnataka, 583239, India",
            "closest_to": "shimoga"
        },
        "tunga river": {
            "blogLinks": [
                "http://www.nivalink.com/destination/shimoga"
            ],
            "locType": "river",
            "longitude": "75.3221835",
            "latitude": "13.6632221",
            "address": "Tunga, Tirthahalli taluk, Shimoga district, Karnataka, India",
            "closest_to": "shimoga"
        },
        "nittur": {
            "blogLinks": [
                "https://en.wikipedia.org/wiki/Shimoga_district"
            ],
            "locType": "tertiary",
            "longitude": "75.7595937",
            "latitude": "14.3579814",
            "address": "Malebennur Nittur Road, Nitturu, Harihara taluku, Davanagere district, Karnataka, 577530, India",
            "closest_to": "shimoga"
        },
        "kundapura": {
            "blogLinks": [
                "http://www.nivalink.com/destination/shimoga"
            ],
            "locType": "town",
            "longitude": "74.6915722",
            "latitude": "13.6250993",
            "address": "Kundapura, \u0c95\u0cc1\u0c82\u0ca6\u0cbe\u0caa\u0cc1\u0cb0 \u0ca4\u0cbe\u0cb2\u0cc2\u0c95\u0cc1, Udupi district, Karnataka, 576200, India",
            "closest_to": "shimoga"
        },
        "mrugavadhe": {
            "blogLinks": [
                "https://en.wikipedia.org/wiki/Shimoga_district"
            ],
            "locType": "village",
            "longitude": "75.3895327",
            "latitude": "13.6519388",
            "address": "Mrugavadhe, Tirthahalli taluk, Shimoga district, Karnataka, India",
            "closest_to": "shimoga"
        },
        "bhadravathi": {
            "blogLinks": [
                "https://en.wikipedia.org/wiki/Shimoga_district"
            ],
            "locType": "town",
            "longitude": "75.7030138",
            "latitude": "13.8474574",
            "address": "Bhadravathi, Bhadravati taluk, Shimoga district, Karnataka, 577300, India",
            "closest_to": "shimoga"
        },
        "mangalore international airport": {
            "blogLinks": [
                "http://traveltriangle.com/blog/best-places-to-visit-in-karnataka/"
            ],
            "locType": "aerodrome",
            "longitude": "74.887492668144",
            "latitude": "12.95518575",
            "address": "Mangalore International Airport, Airport Entry Road, Gandhinagar, Kenjar, Mangaluru taluk, Dakshina Kannada, Karnataka, 575015, India",
            "closest_to": "shimoga"
        },
        "keladi": {
            "blogLinks": [
                "http://www.holidayiq.com/Shimoga-Sightseeing-748.html"
            ],
            "locType": "village",
            "longitude": "75.0165753",
            "latitude": "14.2214761",
            "address": "Keladi, Sagara taluk, Shimoga district, Karnataka, India",
            "closest_to": "shimoga"
        },
        "sorab taluk": {
            "blogLinks": [
                "https://en.wikipedia.org/wiki/Shimoga_district"
            ],
            "locType": "secondary",
            "longitude": "75.1114212",
            "latitude": "14.2779168",
            "address": "Sorab Ulavi Rd, Ulavi, Soraba taluk, Shimoga district, Karnataka, 577434, India",
            "closest_to": "shimoga"
        },
        "river gurupura": {
            "blogLinks": [
                "http://traveltriangle.com/blog/best-places-to-visit-in-karnataka/"
            ],
            "locType": "village",
            "longitude": "75.7161587",
            "latitude": "13.6686411",
            "address": "Gurupura, Tarikere taluku, Chikkamagaluru district, Karnataka, India",
            "closest_to": "shimoga"
        },
        "hosanagar": {
            "blogLinks": [
                "https://en.wikipedia.org/wiki/Shimoga_district"
            ],
            "locType": "marketplace",
            "longitude": "75.0631116",
            "latitude": "13.9166601",
            "address": "Hosanagar Santhe Market, Nehru Road, Kaluru, Hosanagara taluk, Shimoga district, Karnataka, 577418, India",
            "closest_to": "shimoga"
        },
        "jog falls": {
            "blogLinks": [
                "http://www.holidayiq.com/Shimoga-Sightseeing-748.html"
            ],
            "locType": "locality",
            "longitude": "74.8128715",
            "latitude": "14.2276106",
            "address": "Jog Falls, Joga - Kargal, Sagara taluk, Shimoga district, Karnataka, India",
            "closest_to": "shimoga"
        },
        "almatti dam": {
            "blogLinks": [
                "https://www.travelblog.org/Asia/India/Karnataka/Bangalore/Koramangala/blog-914055.html"
            ],
            "locType": "canal",
            "longitude": "75.9517801",
            "latitude": "16.3648934",
            "address": "Almatti Left Bank Canal, Basavana Bagevadi Taluku, Bijapur district, Karnataka, India",
            "closest_to": "badami"
        },
        "hosagadde": {
            "blogLinks": [
                "https://en.wikipedia.org/wiki/Shimoga_district"
            ],
            "locType": "locality",
            "longitude": "74.7527463",
            "latitude": "14.3274092",
            "address": "Hosagadde, Kelaginamane, Siddapura taluk, Uttara Kannada, Karnataka, India",
            "closest_to": "shimoga"
        },
        "sorab": {
            "blogLinks": [
                "https://en.wikipedia.org/wiki/Shimoga_district",
                "http://www.holidayiq.com/Shimoga-Sightseeing-748.html"
            ],
            "locType": "secondary",
            "longitude": "75.1114212",
            "latitude": "14.2779168",
            "address": "Sorab Ulavi Rd, Ulavi, Soraba taluk, Shimoga district, Karnataka, 577434, India",
            "closest_to": "shimoga"
        },
        "ubrani": {
            "blogLinks": [
                "https://en.wikipedia.org/wiki/Shimoga_district"
            ],
            "locType": "village",
            "longitude": "75.9159097",
            "latitude": "13.8519585",
            "address": "Ubrani, Channagiri taluku, Davanagere district, Karnataka, India",
            "closest_to": "shimoga"
        },
        "varaha": {
            "blogLinks": [
                "https://en.wikipedia.org/wiki/Shimoga_district",
                "https://en.wikipedia.org/wiki/Badami"
            ],
            "locType": "village",
            "longitude": "75.3718812",
            "latitude": "14.390777",
            "address": "Varaha, Hirekeruru taluk, Haveri district, Karnataka, India",
            "closest_to": "shimoga"
        },
        "hubli": {
            "blogLinks": [
                "https://en.wikipedia.org/wiki/Badami",
                "http://www.nivalink.com/destination/badami",
                "http://www.nivalink.com/destination/shimoga"
            ],
            "locType": "city",
            "longitude": "75.1379848",
            "latitude": "15.3518378",
            "address": "Hubballi - \u0cb9\u0cc1\u0cac\u0ccd\u0cac\u0cb3\u0ccd\u0cb3\u0cbf, Hubballi taluku, Dharwad district, Karnataka, 580020, India",
            "closest_to": "shimoga"
        },
        "channagiri": {
            "blogLinks": [
                "https://en.wikipedia.org/wiki/Shimoga_district"
            ],
            "locType": "town",
            "longitude": "75.925",
            "latitude": "14.0252",
            "address": "Channagiri, Channagiri taluku, Davanagere district, Karnataka, 577213, India",
            "closest_to": "shimoga"
        },
        "new delhi": {
            "blogLinks": [
                "https://en.wikipedia.org/wiki/Shimoga_district"
            ],
            "locType": "college",
            "longitude": "76.6142178649055",
            "latitude": "12.30911465",
            "address": "Regional Institute of Education, Chaduranga Road, Jayalakshmipuram, Mysuru, Mysuru taluk, Mysuru district, Karnataka, 570001, India",
            "closest_to": "shimoga"
        },
        "belgaum airport": {
            "blogLinks": [
                "http://traveltriangle.com/blog/best-places-to-visit-in-karnataka/"
            ],
            "locType": "aerodrome",
            "longitude": "74.6189763983851",
            "latitude": "15.8602827",
            "address": "Belgaum Airport, SH20, Balekundri, Belagavi taluku, Belgaum district, Karnataka, 591124, India",
            "closest_to": "badami"
        },
        "sogane": {
            "blogLinks": [
                "https://en.wikipedia.org/wiki/Shimoga_district"
            ],
            "locType": "village",
            "longitude": "75.6154786",
            "latitude": "13.871288",
            "address": "Sogane, Shivamogga taluku, Shimoga district, Karnataka, India",
            "closest_to": "shimoga"
        },
        "shivamogga": {
            "blogLinks": [
                "https://en.wikipedia.org/wiki/Shimoga_district"
            ],
            "locType": "city",
            "longitude": "75.569737",
            "latitude": "13.9311723",
            "address": "Shivamogga, Shivamogga taluku, Shimoga district, Karnataka, 577200, India",
            "closest_to": "shimoga"
        },
        "india": {
            "blogLinks": [
                "http://traveltriangle.com/blog/best-places-to-visit-in-karnataka/",
                "http://www.nivalink.com/destination/badami",
                "http://distancecalculator.globefeed.com/India_Distance_Calculator.asp?state=19",
                "http://www.nivalink.com/destination/shimoga",
                "http://www.distancecalculator.net/from-badami-to-shimoga",
                "https://www.travelblog.org/Asia/India/Karnataka/Bangalore/Koramangala/blog-914055.html",
                "https://en.wikipedia.org/wiki/Badami",
                "https://www.tripadvisor.com/ShowTopic-g297627-i2498-k6657230-Visiting_Hampi_Badami_Aihole_Pattadakal_Bijapur-Karnataka.html",
                "https://www.tripoto.com/weekend-getaways/from-shimoga",
                "http://www.distancesfrom.com/distance-from-shimoga-Karnataka-to-badami-banashankari-temple/DistanceHistory/4314508.aspx",
                "https://en.wikipedia.org/wiki/Shimoga_district",
                "http://www.karnatakatourism.org/",
                "http://www.holidayiq.com/Shimoga-Sightseeing-748.html",
                "http://www.mapsofindia.com/karnataka/places-to-visit-in-hampi.html",
                "http://samundarbaba.blogspot.in/2010/11/we-visited-hampi-badami-aihole-and.html"
            ],
            "locType": "administrative",
            "longitude": "75.7223521",
            "latitude": "14.5203896",
            "address": "Karnataka, India",
            "closest_to": "shimoga"
        },
        "panaji": {
            "blogLinks": [
                "https://www.tripoto.com/weekend-getaways/from-shimoga"
            ],
            "locType": "trunk",
            "longitude": "74.4876784",
            "latitude": "15.4422981",
            "address": "Belgaum - Panaji Highway, Londa, Khanapura taluku, Belgaum district, Karnataka, India",
            "closest_to": "shimoga"
        },
        "malnad": {
            "blogLinks": [
                "https://en.wikipedia.org/wiki/Shimoga_district"
            ],
            "locType": "hospital",
            "longitude": "75.7715495",
            "latitude": "13.3160351",
            "address": "Malnad Hospital, Mudigere-Kadur Road, Chikkamagaluru, Chikkamagaluru taluku, Chikkamagaluru district, Karnataka, 577101, India",
            "closest_to": "shimoga"
        },
        "river tunga": {
            "blogLinks": [
                "http://www.holidayiq.com/Shimoga-Sightseeing-748.html"
            ],
            "locType": "river",
            "longitude": "75.3221835",
            "latitude": "13.6632221",
            "address": "Tunga, Tirthahalli taluk, Shimoga district, Karnataka, India",
            "closest_to": "shimoga"
        },
        "navule": {
            "blogLinks": [
                "https://en.wikipedia.org/wiki/Shimoga_district"
            ],
            "locType": "village",
            "longitude": "75.575263",
            "latitude": "13.9549729",
            "address": "Navule, Shivamogga taluku, Shimoga district, Karnataka, India",
            "closest_to": "shimoga"
        },
        "malaprabha river": {
            "blogLinks": [
                "http://samundarbaba.blogspot.in/2010/11/we-visited-hampi-badami-aihole-and.html"
            ],
            "locType": "river",
            "longitude": "75.1982668",
            "latitude": "15.8914192",
            "address": "Malaprabha, Ramadurga taluku, Belgaum district, Karnataka, India",
            "closest_to": "badami"
        },
        "bhadra": {
            "blogLinks": [
                "https://en.wikipedia.org/wiki/Shimoga_district"
            ],
            "locType": "river",
            "longitude": "75.527118",
            "latitude": "13.4888356",
            "address": "Bhadra, Chikkamagaluru taluku, Chikkamagaluru district, Karnataka, India",
            "closest_to": "shimoga"
        },
        "bellary": {
            "blogLinks": [
                "http://www.mapsofindia.com/karnataka/places-to-visit-in-hampi.html",
                "http://samundarbaba.blogspot.in/2010/11/we-visited-hampi-badami-aihole-and.html"
            ],
            "locType": "county",
            "longitude": "76.8323648",
            "latitude": "15.2485413",
            "address": "Bellary, Bellary district, Karnataka, India",
            "closest_to": "shimoga"
        },
        "kapu": {
            "blogLinks": [
                "http://www.distancecalculator.net/from-badami-to-shimoga"
            ],
            "locType": "village",
            "longitude": "74.7470496",
            "latitude": "13.2309688",
            "address": "Kapu, Udupi taluku, Udupi district, Karnataka, India",
            "closest_to": "shimoga"
        },
        "aihole": {
            "blogLinks": [
                "https://www.travelblog.org/Asia/India/Karnataka/Bangalore/Koramangala/blog-914055.html",
                "https://en.wikipedia.org/wiki/Badami",
                "https://www.tripadvisor.com/ShowTopic-g297627-i2498-k6657230-Visiting_Hampi_Badami_Aihole_Pattadakal_Bijapur-Karnataka.html"
            ],
            "locType": "village",
            "longitude": "75.8819129",
            "latitude": "16.0192298",
            "address": "Aihole, Hunagunda taluku, Bagalkote district, Karnataka, India",
            "closest_to": "badami"
        },
        "mandya": {
            "blogLinks": [
                "https://en.wikipedia.org/wiki/Shimoga_district"
            ],
            "locType": "town",
            "longitude": "76.8937392",
            "latitude": "12.5217836",
            "address": "Mandya, Mandya taluk, Mandya district, Karnataka, 571401, India",
            "closest_to": "shimoga"
        },
        "bahubali": {
            "blogLinks": [
                "https://en.wikipedia.org/wiki/Badami"
            ],
            "locType": "place_of_worship",
            "longitude": "76.4846128",
            "latitude": "12.8540505",
            "address": "Bahubali Statue, SH8, Shravanabelagola, Channarayapattana taluk, Hassan district, Karnataka, 573135, India",
            "closest_to": "shimoga"
        },
        "marikamba": {
            "blogLinks": [
                "https://en.wikipedia.org/wiki/Shimoga_district"
            ],
            "locType": "place_of_worship",
            "longitude": "74.8103631279317",
            "latitude": "13.8626958",
            "address": "Marikamba Temple, NH766C;SH26, Halkal, \u0c95\u0cc1\u0c82\u0ca6\u0cbe\u0caa\u0cc1\u0cb0 \u0ca4\u0cbe\u0cb2\u0cc2\u0c95\u0cc1, Udupi district, Karnataka, 576220, India",
            "closest_to": "shimoga"
        },
        "davangere": {
            "blogLinks": [
                "https://en.wikipedia.org/wiki/Shimoga_district"
            ],
            "locType": "commercial",
            "longitude": "75.9197507909343",
            "latitude": "14.4664457",
            "address": "Davangere City Corporation Offices, K.B. Extension, Davanagere, Davanagere taluku, Davanagere district, Karnataka, 577000, India",
            "closest_to": "shimoga"
        },
        "mangalore station": {
            "blogLinks": [
                "http://traveltriangle.com/blog/best-places-to-visit-in-karnataka/"
            ],
            "locType": "boatyard",
            "longitude": "74.8227040793795",
            "latitude": "12.87337955",
            "address": "Bharti Shipyard Limited, Mangalore, Mangaluru, Mangaluru taluk, Dakshina Kannada, Karnataka, 575001, India",
            "closest_to": "shimoga"
        },
        "kubja": {
            "blogLinks": [
                "https://en.wikipedia.org/wiki/Shimoga_district"
            ],
            "locType": "river",
            "longitude": "74.8772445",
            "latitude": "13.6694233",
            "address": "Kubja, \u0c95\u0cc1\u0c82\u0ca6\u0cbe\u0caa\u0cc1\u0cb0 \u0ca4\u0cbe\u0cb2\u0cc2\u0c95\u0cc1, Udupi district, Karnataka, India",
            "closest_to": "shimoga"
        },
        "nagara": {
            "blogLinks": [
                "https://en.wikipedia.org/wiki/Shimoga_district"
            ],
            "locType": "village",
            "longitude": "75.0328554",
            "latitude": "13.8236828",
            "address": "Nagara, Hosanagara taluk, Shimoga district, Karnataka, India",
            "closest_to": "shimoga"
        },
        "sagara": {
            "blogLinks": [
                "http://www.holidayiq.com/Shimoga-Sightseeing-748.html"
            ],
            "locType": "town",
            "longitude": "75.0262551",
            "latitude": "14.1666594",
            "address": "Sagara, Sagara taluk, Shimoga district, Karnataka, 577400, India",
            "closest_to": "shimoga"
        },
        "lakkavalli": {
            "blogLinks": [
                "https://en.wikipedia.org/wiki/Shimoga_district"
            ],
            "locType": "village",
            "longitude": "75.1078097",
            "latitude": "14.5841018",
            "address": "Lakkavalli, Soraba taluk, Shimoga district, Karnataka, India",
            "closest_to": "shimoga"
        },
        "kstdc": {
            "blogLinks": [
                "http://samundarbaba.blogspot.in/2010/11/we-visited-hampi-badami-aihole-and.html"
            ],
            "locType": "hotel",
            "longitude": "76.6450877",
            "latitude": "12.3123719",
            "address": "Hotel Mayura Hoysala, Jhansi Lakshmibai Road, Mandi Mohalla, Mysuru, Mysuru taluk, Mysuru district, Karnataka, 570001, India",
            "closest_to": "shimoga"
        },
        "bagalkot district": {
            "blogLinks": [
                "https://en.wikipedia.org/wiki/Badami"
            ],
            "locType": "city",
            "longitude": "75.6967919",
            "latitude": "16.1853166",
            "address": "Bagalakote, Bagalakote taluk, Bagalkote district, Karnataka, India",
            "closest_to": "badami"
        },
        "venkataramana": {
            "blogLinks": [
                "https://en.wikipedia.org/wiki/Shimoga_district"
            ],
            "locType": "tertiary",
            "longitude": "76.6254678",
            "latitude": "12.2823847",
            "address": "P. Venkataramana Road, Kuvempunagara, Mysuru, Mysuru taluk, Mysuru district, Karnataka, 570001, India",
            "closest_to": "shimoga"
        },
        "varahi river": {
            "blogLinks": [
                "https://en.wikipedia.org/wiki/Shimoga_district"
            ],
            "locType": "river",
            "longitude": "74.9489117",
            "latitude": "13.6582668",
            "address": "Varahi, \u0c95\u0cc1\u0c82\u0ca6\u0cbe\u0caa\u0cc1\u0cb0 \u0ca4\u0cbe\u0cb2\u0cc2\u0c95\u0cc1, Udupi district, Karnataka, India",
            "closest_to": "shimoga"
        },
        "nehru": {
            "blogLinks": [
                "https://en.wikipedia.org/wiki/Shimoga_district"
            ],
            "locType": "stadium",
            "longitude": "75.1428430366112",
            "latitude": "15.3504494",
            "address": "Nehru Stadium, Koppikar Road, J C Nagar, Kamaripet, Hubballi - \u0cb9\u0cc1\u0cac\u0ccd\u0cac\u0cb3\u0ccd\u0cb3\u0cbf, Hubballi taluku, Dharwad district, Karnataka, 580020, India",
            "closest_to": "shimoga"
        },
        "melige": {
            "blogLinks": [
                "https://en.wikipedia.org/wiki/Shimoga_district"
            ],
            "locType": "village",
            "longitude": "75.2868444",
            "latitude": "13.6660298",
            "address": "Melige, Tirthahalli taluk, Shimoga district, Karnataka, India",
            "closest_to": "shimoga"
        },
        "urdu": {
            "blogLinks": [
                "https://en.wikipedia.org/wiki/Shimoga_district"
            ],
            "locType": "recreation_ground",
            "longitude": "75.636575371858",
            "latitude": "14.6180369",
            "address": "Urdu Ground, Ranebennur, Ranebennuru taluk, Haveri district, Karnataka, 581115, India",
            "closest_to": "shimoga"
        },
        "hosanagara": {
            "blogLinks": [
                "https://en.wikipedia.org/wiki/Shimoga_district"
            ],
            "locType": "town",
            "longitude": "75.0657952",
            "latitude": "13.916789",
            "address": "Hosanagara, Hosanagara taluk, Shimoga district, Karnataka, 577418, India",
            "closest_to": "shimoga"
        },
        "riversidedam28kundadrikundagiri hills": {
            "blogLinks": [
                "http://www.nivalink.com/destination/shimoga"
            ],
            "locType": "suburb",
            "longitude": "74.860152",
            "latitude": "12.8935998",
            "address": "Kadri Hills, Mangaluru, Mangaluru taluk, Dakshina Kannada, Karnataka, 575001, India",
            "closest_to": "shimoga"
        },
        "chikkamagaluru": {
            "blogLinks": [
                "https://en.wikipedia.org/wiki/Shimoga_district"
            ],
            "locType": "city",
            "longitude": "75.7738743",
            "latitude": "13.318014",
            "address": "Chikkamagaluru, Chikkamagaluru taluku, Chikkamagaluru district, Karnataka, 577101, India",
            "closest_to": "shimoga"
        },
        "haveri district": {
            "blogLinks": [
                "https://en.wikipedia.org/wiki/Shimoga_district"
            ],
            "locType": "administrative",
            "longitude": "75.3845674304742",
            "latitude": "14.714635",
            "address": "Haveri district, Karnataka, India",
            "closest_to": "shimoga"
        },
        "hampi": {
            "blogLinks": [
                "http://traveltriangle.com/blog/best-places-to-visit-in-karnataka/",
                "https://www.tripadvisor.in/ShowTopic-g297627-i2498-k1559687-Hampi_Bijapur_Badami_Aihole_Pattadakal-Karnataka.html",
                "http://www.nivalink.com/destination/badami",
                "http://www.nivalink.com/destination/shimoga",
                "http://www.indiamike.com/india/karnataka-f38/udupi-agumbe-shringeri-murudeshwara-jog-falls-dharmasthala-t137208/",
                "https://www.tripadvisor.com/ShowTopic-g297627-i2498-k6657230-Visiting_Hampi_Badami_Aihole_Pattadakal_Bijapur-Karnataka.html",
                "http://www.mapsofindia.com/karnataka/places-to-visit-in-hampi.html",
                "http://samundarbaba.blogspot.in/2010/11/we-visited-hampi-badami-aihole-and.html"
            ],
            "locType": "village",
            "longitude": "76.4606199",
            "latitude": "15.3359769",
            "address": "Hampe, Hosapete taluk, Bellary district, Karnataka, 583239, India",
            "closest_to": "shimoga"
        },
        "sringeri": {
            "blogLinks": [
                "https://www.tripoto.com/trip/karnataka-one-state-many-worlds-2-565ed43147a04"
            ],
            "locType": "town",
            "longitude": "75.2553718",
            "latitude": "13.4261724",
            "address": "Sringeri, Sringeri taluku, Chikkamagaluru district, Karnataka, 577592, India",
            "closest_to": "shimoga"
        },
        "shimoga city": {
            "blogLinks": [
                "https://en.wikipedia.org/wiki/Shimoga_district"
            ],
            "locType": "city",
            "longitude": "75.569737",
            "latitude": "13.9311723",
            "address": "Shivamogga, Shivamogga taluku, Shimoga district, Karnataka, 577200, India",
            "closest_to": "shimoga"
        },
        "gokarna": {
            "blogLinks": [
                "http://www.indiamike.com/india/karnataka-f38/udupi-agumbe-shringeri-murudeshwara-jog-falls-dharmasthala-t137208/"
            ],
            "locType": "town",
            "longitude": "74.3184418",
            "latitude": "14.5439629",
            "address": "Gokarna, Kumata taluk, Uttara Kannada, Karnataka, 581326, India",
            "closest_to": "shimoga"
        },
        "tunga": {
            "blogLinks": [
                "https://en.wikipedia.org/wiki/Shimoga_district",
                "http://www.nivalink.com/destination/shimoga"
            ],
            "locType": "river",
            "longitude": "75.3221835",
            "latitude": "13.6632221",
            "address": "Tunga, Tirthahalli taluk, Shimoga district, Karnataka, India",
            "closest_to": "shimoga"
        },
        "sharavati": {
            "blogLinks": [
                "https://en.wikipedia.org/wiki/Shimoga_district"
            ],
            "locType": "river",
            "longitude": "74.7647294",
            "latitude": "14.2360979",
            "address": "Sharavati, Sagara taluk, Shimoga district, Karnataka, India",
            "closest_to": "shimoga"
        },
        "bellary airport": {
            "blogLinks": [
                "http://traveltriangle.com/blog/best-places-to-visit-in-karnataka/"
            ],
            "locType": "aerodrome",
            "longitude": "76.8813908",
            "latitude": "15.1615409",
            "address": "Bellary Airport, Hosapete Road, Ballari, Bellary taluk, Bellary district, Karnataka, 583104, India",
            "closest_to": "shimoga"
        },
        "sagar": {
            "blogLinks": [
                "https://en.wikipedia.org/wiki/Shimoga_district"
            ],
            "locType": "town",
            "longitude": "75.0262551",
            "latitude": "14.1666594",
            "address": "Sagara, Sagara taluk, Shimoga district, Karnataka, 577400, India",
            "closest_to": "shimoga"
        },
        "horanadu": {
            "blogLinks": [
                "http://www.indiamike.com/india/karnataka-f38/udupi-agumbe-shringeri-murudeshwara-jog-falls-dharmasthala-t137208/"
            ],
            "locType": "town",
            "longitude": "75.3445161",
            "latitude": "13.2761199",
            "address": "Horanadu, Mudigere taluk, Chikkamagaluru district, Karnataka, 577181, India",
            "closest_to": "shimoga"
        },
        "hassan station": {
            "blogLinks": [
                "http://traveltriangle.com/blog/best-places-to-visit-in-karnataka/"
            ],
            "locType": "administrative",
            "longitude": "76.1745460751981",
            "latitude": "13.0315068",
            "address": "Hassan district, Karnataka, India",
            "closest_to": "shimoga"
        },
        "river kali": {
            "blogLinks": [
                "http://traveltriangle.com/blog/best-places-to-visit-in-karnataka/"
            ],
            "locType": "river",
            "longitude": "74.5802901",
            "latitude": "15.0145378",
            "address": "Kali, Joida taluk, Uttara Kannada, Karnataka, India",
            "closest_to": "shimoga"
        },
        "yellamma": {
            "blogLinks": [
                "https://en.wikipedia.org/wiki/Badami"
            ],
            "locType": "industrial",
            "longitude": "75.959986215",
            "latitude": "14.39927745",
            "address": "NTC - Yellamma Mills Area, Tolahunase, Davanagere taluku, Davanagere district, Karnataka, 577003, India",
            "closest_to": "shimoga"
        },
        "mastikatte": {
            "blogLinks": [
                "https://en.wikipedia.org/wiki/Shimoga_district"
            ],
            "locType": "village",
            "longitude": "74.4604101",
            "latitude": "14.6857168",
            "address": "Mastikatte, Ankola taluk, Uttara Kannada, Karnataka, India",
            "closest_to": "shimoga"
        },
        "gujarat": {
            "blogLinks": [
                "https://en.wikipedia.org/wiki/Shimoga_district"
            ],
            "locType": "yes",
            "longitude": "75.1370469",
            "latitude": "15.3595169",
            "address": "Gujarat Bhavan, Casualty and Emergency, Ashok Nagar, Vidyanagar, Hubballi - \u0cb9\u0cc1\u0cac\u0ccd\u0cac\u0cb3\u0ccd\u0cb3\u0cbf, Hubballi taluku, Dharwad district, Karnataka, 580020, India",
            "closest_to": "shimoga"
        },
        "pattadakal": {
            "blogLinks": [
                "http://traveltriangle.com/blog/best-places-to-visit-in-karnataka/",
                "https://www.tripadvisor.com/ShowTopic-g297627-i2498-k6657230-Visiting_Hampi_Badami_Aihole_Pattadakal_Bijapur-Karnataka.html",
                "https://www.travelblog.org/Asia/India/Karnataka/Bangalore/Koramangala/blog-914055.html",
                "http://samundarbaba.blogspot.in/2010/11/we-visited-hampi-badami-aihole-and.html",
                "http://www.nivalink.com/destination/badami"
            ],
            "locType": "attraction",
            "longitude": "75.815884048161",
            "latitude": "15.9506349",
            "address": "Pattadakal Temples, SH14, \u0cac\u0cbe\u0c9a\u0cbf\u0ca8\u0c97\u0cc1\u0ca1\u0ccd\u0ca1, Badami taluku, Bagalkote district, Karnataka, 587211, India",
            "closest_to": "badami"
        },
        "tannirbhavi beach": {
            "blogLinks": [
                "http://traveltriangle.com/blog/best-places-to-visit-in-karnataka/"
            ],
            "locType": "beach",
            "longitude": "74.8132559697314",
            "latitude": "12.8953559",
            "address": "Tannirbhavi Beach, Matadakani Road, Bokkapatna, Kudroli, Mangaluru, Mangaluru taluk, Dakshina Kannada, Karnataka, 575001, India",
            "closest_to": "shimoga"
        },
        "thirthahalli taluk": {
            "blogLinks": [
                "https://en.wikipedia.org/wiki/Shimoga_district"
            ],
            "locType": "trunk",
            "longitude": "75.0382054",
            "latitude": "13.4738839",
            "address": "Thirthahalli - Udupi Highway, Someshwara, Karkala taluk, Udupi district, Karnataka, 576129, India",
            "closest_to": "shimoga"
        },
        "margao": {
            "blogLinks": [
                "https://www.tripoto.com/weekend-getaways/from-shimoga"
            ],
            "locType": "bank",
            "longitude": "73.9583411",
            "latitude": "15.2740083",
            "address": "Karnataka bank, NH66, Aquem, Fatorda, Margao, South Goa, Goa, 403600, India",
            "closest_to": "badami"
        },
        "malaprabha": {
            "blogLinks": [
                "https://www.travelblog.org/Asia/India/Karnataka/Bangalore/Koramangala/blog-914055.html"
            ],
            "locType": "river",
            "longitude": "75.1982668",
            "latitude": "15.8914192",
            "address": "Malaprabha, Ramadurga taluku, Belgaum district, Karnataka, India",
            "closest_to": "badami"
        },
        "sagar taluk": {
            "blogLinks": [
                "https://en.wikipedia.org/wiki/Shimoga_district"
            ],
            "locType": "town",
            "longitude": "75.0262551",
            "latitude": "14.1666594",
            "address": "Sagara, Sagara taluk, Shimoga district, Karnataka, 577400, India",
            "closest_to": "shimoga"
        },
        "mangalore airport": {
            "blogLinks": [
                "http://traveltriangle.com/blog/best-places-to-visit-in-karnataka/"
            ],
            "locType": "aerodrome",
            "longitude": "74.887492668144",
            "latitude": "12.95518575",
            "address": "Mangalore International Airport, Airport Entry Road, Gandhinagar, Kenjar, Mangaluru taluk, Dakshina Kannada, Karnataka, 575015, India",
            "closest_to": "shimoga"
        },
        "bijapur": {
            "blogLinks": [
                "https://www.travelblog.org/Asia/India/Karnataka/Bangalore/Koramangala/blog-914055.html",
                "https://www.tripadvisor.com/ShowTopic-g297627-i2498-k6657230-Visiting_Hampi_Badami_Aihole_Pattadakal_Bijapur-Karnataka.html"
            ],
            "locType": "city",
            "longitude": "75.7175387",
            "latitude": "16.8269911",
            "address": "Vijayapura, Vijayapura taluk, Bijapur district, Karnataka, 586101, India",
            "closest_to": "badami"
        },
        "tungabhadra river": {
            "blogLinks": [
                "http://traveltriangle.com/blog/best-places-to-visit-in-karnataka/",
                "http://www.mapsofindia.com/karnataka/places-to-visit-in-hampi.html",
                "http://samundarbaba.blogspot.in/2010/11/we-visited-hampi-badami-aihole-and.html",
                "http://www.nivalink.com/destination/shimoga"
            ],
            "locType": "river",
            "longitude": "76.4931607",
            "latitude": "15.3446123",
            "address": "Tungabhadra, Gangavati taluku, Koppal district, Karnataka, India",
            "closest_to": "shimoga"
        },
        "karnataka": {
            "blogLinks": [
                "http://traveltriangle.com/blog/best-places-to-visit-in-karnataka/",
                "https://www.tripadvisor.in/ShowTopic-g297627-i2498-k1559687-Hampi_Bijapur_Badami_Aihole_Pattadakal-Karnataka.html",
                "http://www.nivalink.com/destination/badami",
                "http://distancecalculator.globefeed.com/India_Distance_Calculator.asp?state=19",
                "http://www.nivalink.com/destination/shimoga",
                "https://www.travelblog.org/Asia/India/Karnataka/Bangalore/Koramangala/blog-914055.html",
                "https://en.wikipedia.org/wiki/Badami",
                "https://www.tripoto.com/weekend-getaways/from-shimoga",
                "http://www.distancesfrom.com/distance-from-shimoga-Karnataka-to-badami-banashankari-temple/DistanceHistory/4314508.aspx",
                "https://en.wikipedia.org/wiki/Shimoga_district",
                "http://www.karnatakatourism.org/",
                "http://www.holidayiq.com/Shimoga-Sightseeing-748.html",
                "http://www.mapsofindia.com/karnataka/places-to-visit-in-hampi.html",
                "https://www.tripoto.com/trip/karnataka-one-state-many-worlds-2-565ed43147a04",
                "http://samundarbaba.blogspot.in/2010/11/we-visited-hampi-badami-aihole-and.html"
            ],
            "locType": "atm",
            "longitude": "76.6639936",
            "latitude": "12.3084901",
            "address": "Karnataka, Shalivahana Road, Nazarbad, Mysuru, Mysuru taluk, Mysuru district, Karnataka, 570001, India",
            "closest_to": "shimoga"
        },
        "davanagere district": {
            "blogLinks": [
                "https://en.wikipedia.org/wiki/Shimoga_district"
            ],
            "locType": "administrative",
            "longitude": "75.8904782659728",
            "latitude": "14.37090835",
            "address": "Davanagere district, Karnataka, India",
            "closest_to": "shimoga"
        },
        "chikmagalur": {
            "blogLinks": [
                "https://www.tripoto.com/trip/karnataka-one-state-many-worlds-2-565ed43147a04"
            ],
            "locType": "county",
            "longitude": "75.5",
            "latitude": "13.5",
            "address": "Chikmagalur, Chikkamagaluru district, Karnataka, India",
            "closest_to": "shimoga"
        },
        "mangalore": {
            "blogLinks": [
                "http://traveltriangle.com/blog/best-places-to-visit-in-karnataka/",
                "https://en.wikipedia.org/wiki/Shimoga_district"
            ],
            "locType": "city",
            "longitude": "74.8430082",
            "latitude": "12.8698101",
            "address": "Mangaluru, Mangaluru taluk, Dakshina Kannada, Karnataka, 575001, India",
            "closest_to": "shimoga"
        },
        "badami": {
            "blogLinks": [
                "http://traveltriangle.com/blog/best-places-to-visit-in-karnataka/",
                "http://www.nivalink.com/destination/badami",
                "https://www.travelblog.org/Asia/India/Karnataka/Bangalore/Koramangala/blog-914055.html",
                "https://en.wikipedia.org/wiki/Badami",
                "https://www.tripadvisor.com/ShowTopic-g297627-i2498-k6657230-Visiting_Hampi_Badami_Aihole_Pattadakal_Bijapur-Karnataka.html",
                "http://www.distancesfrom.com/distance-from-shimoga-Karnataka-to-badami-banashankari-temple/DistanceHistory/4314508.aspx",
                "http://samundarbaba.blogspot.in/2010/11/we-visited-hampi-badami-aihole-and.html"
            ],
            "locType": "town",
            "longitude": "75.6807865",
            "latitude": "15.9203874",
            "address": "Badami, Badami taluku, Bagalkote district, Karnataka, 587200, India",
            "closest_to": "shimoga"
        },
        "bhadra river": {
            "blogLinks": [
                "http://www.nivalink.com/destination/shimoga"
            ],
            "locType": "river",
            "longitude": "75.527118",
            "latitude": "13.4888356",
            "address": "Bhadra, Chikkamagaluru taluku, Chikkamagaluru district, Karnataka, India",
            "closest_to": "shimoga"
        },
        "bagalkot": {
            "blogLinks": [
                "http://samundarbaba.blogspot.in/2010/11/we-visited-hampi-badami-aihole-and.html",
                "https://en.wikipedia.org/wiki/Badami",
                "https://www.tripoto.com/trip/karnataka-one-state-many-worlds-2-565ed43147a04"
            ],
            "locType": "city",
            "longitude": "75.6967919",
            "latitude": "16.1853166",
            "address": "Bagalakote, Bagalakote taluk, Bagalkote district, Karnataka, India",
            "closest_to": "badami"
        },
        "bagalkot district of north karnataka": {
            "blogLinks": [
                "http://samundarbaba.blogspot.in/2010/11/we-visited-hampi-badami-aihole-and.html"
            ],
            "locType": "city",
            "longitude": "75.6967919",
            "latitude": "16.1853166",
            "address": "Bagalakote, Bagalakote taluk, Bagalkote district, Karnataka, India",
            "closest_to": "badami"
        },
        "udupi hotel": {
            "blogLinks": [
                "https://www.travelblog.org/Asia/India/Karnataka/Bangalore/Koramangala/blog-914055.html"
            ],
            "locType": "hotel",
            "longitude": "74.8346487",
            "latitude": "14.6157772",
            "address": "Udupi Hotel, Nataraj Raod, Sirsi, Shirasi taluk, Uttara Kannada, Karnataka, 581400, India",
            "closest_to": "shimoga"
        },
        "parvati": {
            "blogLinks": [
                "https://en.wikipedia.org/wiki/Shimoga_district"
            ],
            "locType": "village",
            "longitude": "75.7898501",
            "latitude": "16.0395701",
            "address": "Parvati, Badami taluku, Bagalkote district, Karnataka, India",
            "closest_to": "badami"
        },
        "samskara": {
            "blogLinks": [
                "https://en.wikipedia.org/wiki/Shimoga_district"
            ],
            "locType": "place_of_worship",
            "longitude": "75.6177217",
            "latitude": "12.6652402",
            "address": "Sarppa Samskara Yaga Shaala, Car Street, Kukke Subrahmanya, Sulya taluk, Dakshina Kannada, Karnataka, 574238, India",
            "closest_to": "shimoga"
        },
        "shimoga district of karnataka": {
            "blogLinks": [
                "http://www.holidayiq.com/Shimoga-Sightseeing-748.html"
            ],
            "locType": "administrative",
            "longitude": "75.1312533993886",
            "latitude": "14.0558284",
            "address": "Shimoga district, Karnataka, India",
            "closest_to": "shimoga"
        },
        "tungabhadra": {
            "blogLinks": [
                "https://en.wikipedia.org/wiki/Shimoga_district",
                "http://samundarbaba.blogspot.in/2010/11/we-visited-hampi-badami-aihole-and.html",
                "https://www.tripoto.com/trip/karnataka-one-state-many-worlds-2-565ed43147a04"
            ],
            "locType": "river",
            "longitude": "76.4931607",
            "latitude": "15.3446123",
            "address": "Tungabhadra, Gangavati taluku, Koppal district, Karnataka, India",
            "closest_to": "shimoga"
        },
        "harihara": {
            "blogLinks": [
                "https://en.wikipedia.org/wiki/Badami"
            ],
            "locType": "town",
            "longitude": "75.809288",
            "latitude": "14.5116874",
            "address": "Harihara, Harihara taluku, Davanagere district, Karnataka, 577600, India",
            "closest_to": "shimoga"
        },
        "thirthahalli": {
            "blogLinks": [
                "https://en.wikipedia.org/wiki/Shimoga_district"
            ],
            "locType": "trunk",
            "longitude": "74.9626368",
            "latitude": "13.4265327",
            "address": "Thirthahalli - Udupi Highway, Shivapura, Karkala taluk, Udupi district, Karnataka, India",
            "closest_to": "shimoga"
        },
        "chitradurga": {
            "blogLinks": [
                "http://traveltriangle.com/blog/best-places-to-visit-in-karnataka/"
            ],
            "locType": "town",
            "longitude": "76.4005122",
            "latitude": "14.2266443",
            "address": "Chitradurga, Chitradurga taluku, Chitradurga district, Karnataka, 577500, India",
            "closest_to": "shimoga"
        },
        "mangaladevi temple": {
            "blogLinks": [
                "http://traveltriangle.com/blog/best-places-to-visit-in-karnataka/"
            ],
            "locType": "place_of_worship",
            "longitude": "74.8452646984836",
            "latitude": "12.84923455",
            "address": "Shri Mangaladevi Temple, Mangala Devi Temple Road, Mulihitlu, Bolar, Mangaluru, Mangaluru taluk, Dakshina Kannada, Karnataka, 575001, India",
            "closest_to": "shimoga"
        },
        "subrahmanya temple": {
            "blogLinks": [
                "http://www.nivalink.com/destination/shimoga"
            ],
            "locType": "residential",
            "longitude": "76.2499985",
            "latitude": "13.3105901",
            "address": "Subrahmanya Temple Road, Lakshmi Puram, Arasikere, Arasikere taluku, Hassan district, Karnataka, 573103, India",
            "closest_to": "shimoga"
        },
        "kalaseshwara temple": {
            "blogLinks": [
                "http://www.nivalink.com/destination/shimoga"
            ],
            "locType": "place_of_worship",
            "longitude": "75.363446975",
            "latitude": "13.23228505",
            "address": "Kalaseshwara Temple, SH66, Kalasa, Mudigere taluk, Chikkamagaluru district, Karnataka, 577124, India",
            "closest_to": "shimoga"
        },
        "bhadravati river": {
            "blogLinks": [
                "https://www.tripoto.com/weekend-getaways/from-shimoga"
            ],
            "locType": "administrative",
            "longitude": "75.7674369420634",
            "latitude": "13.90493755",
            "address": "Bhadravati taluk, Shimoga district, Karnataka, India",
            "closest_to": "shimoga"
        },
        "koodli": {
            "blogLinks": [
                "https://en.wikipedia.org/wiki/Shimoga_district",
                "http://www.nivalink.com/destination/shimoga"
            ],
            "locType": "tertiary",
            "longitude": "74.7671",
            "latitude": "13.4868433",
            "address": "Koodli Road, Yadtadi, Udupi taluku, Udupi district, Karnataka, India",
            "closest_to": "shimoga"
        },
        "banavasi": {
            "blogLinks": [
                "https://en.wikipedia.org/wiki/Shimoga_district"
            ],
            "locType": "town",
            "longitude": "75.0129845",
            "latitude": "14.5389738",
            "address": "Banavasi, Shirasi taluk, Uttara Kannada, Karnataka, India",
            "closest_to": "shimoga"
        },
        "tyavarekoppa": {
            "blogLinks": [
                "https://en.wikipedia.org/wiki/Shimoga_district"
            ],
            "locType": "hamlet",
            "longitude": "75.504593",
            "latitude": "13.9749019",
            "address": "Tyavarekoppa, Shivamogga taluku, Shimoga district, Karnataka, India",
            "closest_to": "shimoga"
        },
        "chikmagalur district": {
            "blogLinks": [
                "https://en.wikipedia.org/wiki/Shimoga_district"
            ],
            "locType": "county",
            "longitude": "75.5",
            "latitude": "13.5",
            "address": "Chikmagalur, Chikkamagaluru district, Karnataka, India",
            "closest_to": "shimoga"
        },
        "kannada": {
            "blogLinks": [
                "https://en.wikipedia.org/wiki/Badami"
            ],
            "locType": "administrative",
            "longitude": "75.1008028650794",
            "latitude": "12.8114089",
            "address": "Dakshina Kannada, Karnataka, India",
            "closest_to": "shimoga"
        },
        "hubli airport": {
            "blogLinks": [
                "http://traveltriangle.com/blog/best-places-to-visit-in-karnataka/"
            ],
            "locType": "aerodrome",
            "longitude": "75.0860974",
            "latitude": "15.3598315",
            "address": "Hubli Airport, \u0c97\u0ccb\u0c95\u0cc1\u0cb2 \u0cb0\u0ccb\u0ca1\u0ccd, Padmaraj Nagar, Gokul, Hubballi taluku, Dharwad district, Karnataka, 580030, India",
            "closest_to": "shimoga"
        },
        "gangavati": {
            "blogLinks": [
                "https://en.wikipedia.org/wiki/Shimoga_district"
            ],
            "locType": "administrative",
            "longitude": "76.558686294086",
            "latitude": "15.52741825",
            "address": "Gangavati taluku, Koppal district, Karnataka, India",
            "closest_to": "shimoga"
        },
        "sharavathi dental": {
            "blogLinks": [
                "https://en.wikipedia.org/wiki/Shimoga_district"
            ],
            "locType": "hostel",
            "longitude": "75.9147675104246",
            "latitude": "14.45499085",
            "address": "Sharavathi Ladies Hostel, Dental College Road, K.T. Jambanna Nagara, Davanagere, Davanagere taluku, Davanagere district, Karnataka, 577000, India",
            "closest_to": "shimoga"
        }
    },
    "shimoga": {
        "icon": "https://nominatim.openstreetmap.org/images/mapicons/poi_place_city.p.20.png",
        "osm_type": "node",
        "boundingbox": [
            "13.7711723",
            "14.0911723",
            "75.409737",
            "75.729737"
        ],
        "display_name": "Shivamogga, Shivamogga taluku, Shimoga district, Karnataka, 577200, India",
        "class": "place",
        "osm_id": "245625473",
        "type": "city",
        "licence": "Data \u00a9 OpenStreetMap contributors, ODbL 1.0. http://www.openstreetmap.org/copyright",
        "lon": "75.569737",
        "lat": "13.9311723",
        "place_id": "639702",
        "importance": 0.55
    },
    "badami": {
        "icon": "https://nominatim.openstreetmap.org/images/mapicons/poi_place_town.p.20.png",
        "osm_type": "node",
        "boundingbox": [
            "15.8803874",
            "15.9603874",
            "75.6407865",
            "75.7207865"
        ],
        "display_name": "Badami, Badami taluku, Bagalkote district, Karnataka, 587200, India",
        "class": "place",
        "osm_id": "655135229",
        "type": "town",
        "licence": "Data \u00a9 OpenStreetMap contributors, ODbL 1.0. http://www.openstreetmap.org/copyright",
        "lon": "75.6807865",
        "lat": "15.9203874",
        "place_id": "6086961",
        "importance": 0.5
    }
}