{
    "badami": {
        "place_id": "6086961",
        "osm_id": "655135229",
        "icon": "https://nominatim.openstreetmap.org/images/mapicons/poi_place_town.p.20.png",
        "osm_type": "node",
        "licence": "Data \u00a9 OpenStreetMap contributors, ODbL 1.0. http://www.openstreetmap.org/copyright",
        "display_name": "Badami, Badami taluku, Bagalkote district, Karnataka, 587200, India",
        "type": "town",
        "lon": "75.6807865",
        "boundingbox": [
            "15.8803874",
            "15.9603874",
            "75.6407865",
            "75.7207865"
        ],
        "importance": 0.5,
        "lat": "15.9203874",
        "class": "place"
    },
    "mentions": {
        "badami": {
            "closest_to": "badami",
            "address": "Badami, Badami taluku, Bagalkote district, Karnataka, 587200, India",
            "longitude": "75.6807865",
            "latitude": "15.9203874",
            "blogLinks": [
                "https://www.travelblog.org/Asia/India/Karnataka/Bangalore/Koramangala/blog-914055.html",
                "http://www.mapsofindia.com/maps/karnataka/travel-to-badami.html",
                "http://wikitravel.org/en/Badami",
                "https://www.myoksha.com/hampi-heritage-tour/",
                "http://www.nivalink.com/destination/badami",
                "http://travel.india.com/badami/places-to-visit/historical-aihole/",
                "https://www.quora.com/What-are-the-best-places-to-visit-on-a-3-day-trip-in-and-around-Karnataka",
                "https://en.wikipedia.org/wiki/Pattadakal",
                "http://www.indiamike.com/india/karnataka-f38/udupi-agumbe-shringeri-murudeshwara-jog-falls-dharmasthala-t137208/"
            ],
            "locType": "town"
        },
        "horanadu": {
            "closest_to": "murudeshwara",
            "address": "Horanadu, Mudigere taluk, Chikkamagaluru district, Karnataka, 577181, India",
            "longitude": "75.3445161",
            "latitude": "13.2761199",
            "blogLinks": [
                "http://www.indiamike.com/india/karnataka-f38/udupi-agumbe-shringeri-murudeshwara-jog-falls-dharmasthala-t137208/"
            ],
            "locType": "town"
        },
        "veera narayana temple": {
            "closest_to": "murudeshwara",
            "address": "Veera Narayana Temple, Chikmagalur Javagal Road, Narasipura, Chikkamagaluru taluku, Chikkamagaluru district, Karnataka, India",
            "longitude": "75.9953525",
            "latitude": "13.2821212",
            "blogLinks": [
                "https://www.quora.com/What-are-the-best-places-to-visit-on-a-3-day-trip-in-and-around-Karnataka"
            ],
            "locType": "place_of_worship"
        },
        "coastal karnataka": {
            "closest_to": "murudeshwara",
            "address": "Bharat Petroleum Mangalore Coastal Installation, Baikampady, Mangaluru taluk, Dakshina Kannada, Karnataka, 575014, India",
            "longitude": "74.8137275833157",
            "latitude": "12.96014675",
            "blogLinks": [
                "http://www.nivalink.com/destination/murudeshwar"
            ],
            "locType": "industrial"
        },
        "harangi dam": {
            "closest_to": "murudeshwara",
            "address": "Harangi dam, Somawarpet taluk, Kodagu, Karnataka, India",
            "longitude": "75.9056999171375",
            "latitude": "12.4928663",
            "blogLinks": [
                "http://blog.indianluxurytrains.com/2014/09/best-places-to-visit-in-karnataka.html"
            ],
            "locType": "dam"
        },
        "belgaum": {
            "closest_to": "badami",
            "address": "Belgaum, Belgaum district, Karnataka, India",
            "longitude": "74.75",
            "latitude": "16.333333",
            "blogLinks": [
                "https://www.quora.com/What-are-the-best-places-to-visit-on-a-3-day-trip-in-and-around-Karnataka",
                "http://www.mapsofindia.com/maps/karnataka/travel-to-badami.html",
                "https://en.wikipedia.org/wiki/Pattadakal"
            ],
            "locType": "county"
        },
        "tungabhadra river": {
            "closest_to": "badami",
            "address": "Tungabhadra, Gangavati taluku, Koppal district, Karnataka, India",
            "longitude": "76.4931607",
            "latitude": "15.3446123",
            "blogLinks": [
                "http://www.mapsofindia.com/karnataka/places-to-visit-in-hampi.html"
            ],
            "locType": "river"
        },
        "chennakesava": {
            "closest_to": "murudeshwara",
            "address": "Chennakesava Temple, NH73, Navilahalli, Beluru taluk, Hassan district, Karnataka, India",
            "longitude": "75.8603311",
            "latitude": "13.1629239",
            "blogLinks": [
                "http://blog.indianluxurytrains.com/2014/09/best-places-to-visit-in-karnataka.html"
            ],
            "locType": "place_of_worship"
        },
        "panambur - panambur beach": {
            "closest_to": "murudeshwara",
            "address": "Panambur Beach, Panambur Beach Road, Gandhinagar, Panambur, Mangaluru taluk, Dakshina Kannada, Karnataka, 575013, India",
            "longitude": "74.8034667207214",
            "latitude": "12.93907195",
            "blogLinks": [
                "https://www.quora.com/What-are-the-best-places-to-visit-on-a-3-day-trip-in-and-around-Karnataka"
            ],
            "locType": "beach"
        },
        "amboli": {
            "closest_to": "murudeshwara",
            "address": "Amboli, Khanapura taluku, Belgaum district, Karnataka, India",
            "longitude": "74.4340839",
            "latitude": "15.6456171",
            "blogLinks": [
                "https://www.quora.com/What-are-the-best-places-to-visit-on-a-3-day-trip-in-and-around-Karnataka"
            ],
            "locType": "village"
        },
        "sirsi": {
            "closest_to": "murudeshwara",
            "address": "Sirsi, Shirasi taluk, Uttara Kannada, Karnataka, 581400, India",
            "longitude": "74.8388611",
            "latitude": "14.6192362",
            "blogLinks": [
                "https://www.quora.com/What-are-the-best-places-to-visit-on-a-3-day-trip-in-and-around-Karnataka"
            ],
            "locType": "town"
        },
        "kali": {
            "closest_to": "murudeshwara",
            "address": "Kali, Joida taluk, Uttara Kannada, Karnataka, India",
            "longitude": "74.5802901",
            "latitude": "15.0145378",
            "blogLinks": [
                "https://www.quora.com/What-are-the-best-places-to-visit-on-a-3-day-trip-in-and-around-Karnataka"
            ],
            "locType": "river"
        },
        "kali river": {
            "closest_to": "murudeshwara",
            "address": "Kali, Joida taluk, Uttara Kannada, Karnataka, India",
            "longitude": "74.5802901",
            "latitude": "15.0145378",
            "blogLinks": [
                "https://www.quora.com/What-are-the-best-places-to-visit-on-a-3-day-trip-in-and-around-Karnataka"
            ],
            "locType": "river"
        },
        "kapu": {
            "closest_to": "murudeshwara",
            "address": "Kapu, Udupi taluku, Udupi district, Karnataka, India",
            "longitude": "74.7470496",
            "latitude": "13.2309688",
            "blogLinks": [
                "http://www.buzzntravel.com/murudeshwara",
                "http://www.mapsofindia.com/maps/karnataka/travel-to-badami.html"
            ],
            "locType": "village"
        },
        "markandeya river": {
            "closest_to": "murudeshwara",
            "address": "Markandeya, Belagavi taluku, Belgaum district, Karnataka, India",
            "longitude": "74.5774895",
            "latitude": "15.9707453",
            "blogLinks": [
                "https://www.quora.com/What-are-the-best-places-to-visit-on-a-3-day-trip-in-and-around-Karnataka"
            ],
            "locType": "river"
        },
        "mullayanagiri range": {
            "closest_to": "murudeshwara",
            "address": "Mullayyanagiri, Chikkamagaluru, Chikkamagaluru taluku, Chikkamagaluru district, Karnataka, 577101, India",
            "longitude": "75.7214034",
            "latitude": "13.3909217",
            "blogLinks": [
                "https://www.quora.com/What-are-the-best-places-to-visit-on-a-3-day-trip-in-and-around-Karnataka"
            ],
            "locType": "peak"
        },
        "bijapur": {
            "closest_to": "badami",
            "address": "Vijayapura, Vijayapura taluk, Bijapur district, Karnataka, 586101, India",
            "longitude": "75.7175387",
            "latitude": "16.8269911",
            "blogLinks": [
                "http://blog.indianluxurytrains.com/2014/09/best-places-to-visit-in-karnataka.html",
                "https://www.travelblog.org/Asia/India/Karnataka/Bangalore/Koramangala/blog-914055.html",
                "http://www.mapsofindia.com/maps/karnataka/travel-to-badami.html",
                "http://wikitravel.org/en/Badami",
                "http://www.nivalink.com/destination/badami",
                "https://www.quora.com/What-are-the-best-places-to-visit-on-a-3-day-trip-in-and-around-Karnataka",
                "https://en.wikipedia.org/wiki/Pattadakal"
            ],
            "locType": "city"
        },
        "galaganatha temple": {
            "closest_to": "badami",
            "address": "Galaganatha Temple, SH14, \u0cac\u0cbe\u0c9a\u0cbf\u0ca8\u0c97\u0cc1\u0ca1\u0ccd\u0ca1, Badami taluku, Bagalkote district, Karnataka, 587211, India",
            "longitude": "75.8162171957903",
            "latitude": "15.95018615",
            "blogLinks": [
                "https://en.wikipedia.org/wiki/Pattadakal"
            ],
            "locType": "yes"
        },
        "uttara kannada": {
            "closest_to": "murudeshwara",
            "address": "Uttara Kannada, Karnataka, India",
            "longitude": "74.4729163045979",
            "latitude": "14.6726379",
            "blogLinks": [
                "https://www.quora.com/What-are-the-best-places-to-visit-on-a-3-day-trip-in-and-around-Karnataka"
            ],
            "locType": "administrative"
        },
        "bahmani": {
            "closest_to": "badami",
            "address": "Bahmani Fort, Alanda Road, Fort, Rauza, Kalaburagi, Gulbarga taluku, Kalaburagi district, Karnataka, 585101, India",
            "longitude": "76.8315008",
            "latitude": "17.3415485",
            "blogLinks": [
                "http://blog.indianluxurytrains.com/2014/09/best-places-to-visit-in-karnataka.html"
            ],
            "locType": "castle"
        },
        "malaprabha": {
            "closest_to": "murudeshwara",
            "address": "Malaprabha, Ramadurga taluku, Belgaum district, Karnataka, India",
            "longitude": "75.1982668",
            "latitude": "15.8914192",
            "blogLinks": [
                "https://en.wikipedia.org/wiki/Pattadakal",
                "https://www.travelblog.org/Asia/India/Karnataka/Bangalore/Koramangala/blog-914055.html"
            ],
            "locType": "river"
        },
        "bagalkot railway station": {
            "closest_to": "badami",
            "address": "Bagalkot, SH57, Vidyagiri, Bagalakote, Bagalakote taluk, Bagalkote district, Karnataka, India",
            "longitude": "75.7011281",
            "latitude": "16.1799662",
            "blogLinks": [
                "http://www.ticketgoose.com/bus-tickets/badami-to-murudeshwara"
            ],
            "locType": "station"
        },
        "tunga": {
            "closest_to": "murudeshwara",
            "address": "Tunga, Tirthahalli taluk, Shimoga district, Karnataka, India",
            "longitude": "75.3221835",
            "latitude": "13.6632221",
            "blogLinks": [
                "https://www.quora.com/What-are-the-best-places-to-visit-on-a-3-day-trip-in-and-around-Karnataka"
            ],
            "locType": "river"
        },
        "pattadakal": {
            "closest_to": "badami",
            "address": "Pattadakal Temples, SH14, \u0cac\u0cbe\u0c9a\u0cbf\u0ca8\u0c97\u0cc1\u0ca1\u0ccd\u0ca1, Badami taluku, Bagalkote district, Karnataka, 587211, India",
            "longitude": "75.815884048161",
            "latitude": "15.9506349",
            "blogLinks": [
                "http://blog.indianluxurytrains.com/2014/09/best-places-to-visit-in-karnataka.html",
                "https://www.travelblog.org/Asia/India/Karnataka/Bangalore/Koramangala/blog-914055.html",
                "https://www.myoksha.com/hampi-heritage-tour/",
                "http://www.nivalink.com/destination/badami",
                "http://travel.india.com/badami/places-to-visit/historical-aihole/",
                "https://en.wikipedia.org/wiki/Pattadakal"
            ],
            "locType": "attraction"
        },
        "yellapur": {
            "closest_to": "murudeshwara",
            "address": "Yellapura, Yallapura taluk, Uttara Kannada, Karnataka, 581359, India",
            "longitude": "74.7061458",
            "latitude": "14.9622518",
            "blogLinks": [
                "https://www.quora.com/What-are-the-best-places-to-visit-on-a-3-day-trip-in-and-around-Karnataka"
            ],
            "locType": "town"
        },
        "hampi": {
            "closest_to": "badami",
            "address": "Hampe, Hosapete taluk, Bellary district, Karnataka, 583239, India",
            "longitude": "76.4606199",
            "latitude": "15.3359769",
            "blogLinks": [
                "http://www.mapsofindia.com/karnataka/places-to-visit-in-hampi.html",
                "https://www.quora.com/What-are-the-best-places-to-visit-on-a-3-day-trip-in-and-around-Karnataka",
                "http://blog.indianluxurytrains.com/2014/09/best-places-to-visit-in-karnataka.html",
                "http://www.indiamike.com/india/karnataka-f38/udupi-agumbe-shringeri-murudeshwara-jog-falls-dharmasthala-t137208/",
                "https://www.myoksha.com/hampi-heritage-tour/"
            ],
            "locType": "village"
        },
        "gurupura": {
            "closest_to": "murudeshwara",
            "address": "Gurupura, Tarikere taluku, Chikkamagaluru district, Karnataka, India",
            "longitude": "75.7161587",
            "latitude": "13.6686411",
            "blogLinks": [
                "https://www.quora.com/What-are-the-best-places-to-visit-on-a-3-day-trip-in-and-around-Karnataka"
            ],
            "locType": "village"
        },
        "malpe": {
            "closest_to": "murudeshwara",
            "address": "Malpe, Udupi taluku, Udupi district, Karnataka, India",
            "longitude": "74.7036914",
            "latitude": "13.3507423",
            "blogLinks": [
                "https://www.quora.com/What-are-the-best-places-to-visit-on-a-3-day-trip-in-and-around-Karnataka"
            ],
            "locType": "village"
        },
        "kundapura": {
            "closest_to": "murudeshwara",
            "address": "Kundapura, \u0c95\u0cc1\u0c82\u0ca6\u0cbe\u0caa\u0cc1\u0cb0 \u0ca4\u0cbe\u0cb2\u0cc2\u0c95\u0cc1, Udupi district, Karnataka, 576200, India",
            "longitude": "74.6915722",
            "latitude": "13.6250993",
            "blogLinks": [
                "http://www.nivalink.com/destination/murudeshwar"
            ],
            "locType": "town"
        },
        "udupi hotel": {
            "closest_to": "murudeshwara",
            "address": "Udupi Hotel, Nataraj Raod, Sirsi, Shirasi taluk, Uttara Kannada, Karnataka, 581400, India",
            "longitude": "74.8346487",
            "latitude": "14.6157772",
            "blogLinks": [
                "https://www.travelblog.org/Asia/India/Karnataka/Bangalore/Koramangala/blog-914055.html"
            ],
            "locType": "hotel"
        },
        "kodachadri": {
            "closest_to": "murudeshwara",
            "address": "Kodachadri, \u0c95\u0cc1\u0c82\u0ca6\u0cbe\u0caa\u0cc1\u0cb0 \u0ca4\u0cbe\u0cb2\u0cc2\u0c95\u0cc1, Udupi district, Karnataka, India",
            "longitude": "74.8705395",
            "latitude": "13.8565758",
            "blogLinks": [
                "https://www.quora.com/What-are-the-best-places-to-visit-on-a-3-day-trip-in-and-around-Karnataka"
            ],
            "locType": "peak"
        },
        "mangalore": {
            "closest_to": "murudeshwara",
            "address": "Mangaluru, Mangaluru taluk, Dakshina Kannada, Karnataka, 575001, India",
            "longitude": "74.8430082",
            "latitude": "12.8698101",
            "blogLinks": [
                "https://www.quora.com/What-are-the-best-places-to-visit-on-a-3-day-trip-in-and-around-Karnataka",
                "http://www.nivalink.com/destination/murudeshwar",
                "http://www.mapsofindia.com/maps/karnataka/travel-to-badami.html",
                "http://www.nivalink.com/destination/badami"
            ],
            "locType": "city"
        },
        "vijayanagara": {
            "closest_to": "badami",
            "address": "Vijayanagara, Chikodi taluk, Belgaum district, Karnataka, India",
            "longitude": "74.7380455",
            "latitude": "16.3270486",
            "blogLinks": [
                "https://www.myoksha.com/hampi-heritage-tour/"
            ],
            "locType": "village"
        },
        "kannur": {
            "closest_to": "murudeshwara",
            "address": "Netravati bridge - Kannur Bypass Road (Proposed), Padil, Bajal, Mangaluru taluk, Dakshina Kannada, Karnataka, 575007, India",
            "longitude": "74.8858161",
            "latitude": "12.8487602",
            "blogLinks": [
                "http://www.nivalink.com/destination/murudeshwar"
            ],
            "locType": "construction"
        },
        "belgaum airport": {
            "closest_to": "murudeshwara",
            "address": "Belgaum Airport, SH20, Balekundri, Belagavi taluku, Belgaum district, Karnataka, 591124, India",
            "longitude": "74.6189763983851",
            "latitude": "15.8602827",
            "blogLinks": [
                "https://en.wikipedia.org/wiki/Pattadakal",
                "http://www.ticketgoose.com/bus-tickets/badami-to-murudeshwara"
            ],
            "locType": "aerodrome"
        },
        "anegondi": {
            "closest_to": "badami",
            "address": "Anegundi, Gangavati taluku, Koppal district, Karnataka, India",
            "longitude": "76.4924232",
            "latitude": "15.3509583",
            "blogLinks": [
                "http://www.mapsofindia.com/karnataka/places-to-visit-in-hampi.html"
            ],
            "locType": "village"
        },
        "jambulinga temple": {
            "closest_to": "badami",
            "address": "Jambulinga Temple, SH14, \u0cac\u0cbe\u0c9a\u0cbf\u0ca8\u0c97\u0cc1\u0ca1\u0ccd\u0ca1, Badami taluku, Bagalkote district, Karnataka, 587211, India",
            "longitude": "75.8160313484561",
            "latitude": "15.95023405",
            "blogLinks": [
                "http://www.mapsofindia.com/maps/karnataka/travel-to-badami.html",
                "https://en.wikipedia.org/wiki/Pattadakal"
            ],
            "locType": "yes"
        },
        "banavasi": {
            "closest_to": "murudeshwara",
            "address": "Banavasi, Shirasi taluk, Uttara Kannada, Karnataka, India",
            "longitude": "75.0129845",
            "latitude": "14.5389738",
            "blogLinks": [
                "https://www.quora.com/What-are-the-best-places-to-visit-on-a-3-day-trip-in-and-around-Karnataka"
            ],
            "locType": "town"
        },
        "mirjan fort": {
            "closest_to": "murudeshwara",
            "address": "Mirjana Fort, Edapally- Panvel Highway, Kimani, Kumata taluk, Uttara Kannada, Karnataka, 581344, India",
            "longitude": "74.4174838158512",
            "latitude": "14.48905715",
            "blogLinks": [
                "https://www.quora.com/What-are-the-best-places-to-visit-on-a-3-day-trip-in-and-around-Karnataka"
            ],
            "locType": "attraction"
        },
        "brahmagiri range": {
            "closest_to": "badami",
            "address": "Brahmagiri Betta, Molakalmuru taluku, Chitradurga district, Karnataka, India",
            "longitude": "76.8122474",
            "latitude": "14.8001586",
            "blogLinks": [
                "https://www.quora.com/What-are-the-best-places-to-visit-on-a-3-day-trip-in-and-around-Karnataka"
            ],
            "locType": "peak"
        },
        "pigeon island": {
            "closest_to": "murudeshwara",
            "address": "Netrani, Uttara Kannada, Karnataka, India",
            "longitude": "74.3272086675849",
            "latitude": "14.0174924",
            "blogLinks": [
                "http://www.nivalink.com/destination/murudeshwar"
            ],
            "locType": "island"
        },
        "nandi": {
            "closest_to": "murudeshwara",
            "address": "Nandi, Tarikere taluku, Chikkamagaluru district, Karnataka, India",
            "longitude": "75.8556266",
            "latitude": "13.6434094",
            "blogLinks": [
                "https://en.wikipedia.org/wiki/Pattadakal"
            ],
            "locType": "village"
        },
        "bagalkot": {
            "closest_to": "badami",
            "address": "Bagalakote, Bagalakote taluk, Bagalkote district, Karnataka, India",
            "longitude": "75.6967919",
            "latitude": "16.1853166",
            "blogLinks": [
                "http://blog.indianluxurytrains.com/2014/09/best-places-to-visit-in-karnataka.html",
                "http://www.ticketgoose.com/bus-tickets/badami-to-murudeshwara",
                "http://www.mapsofindia.com/maps/karnataka/travel-to-badami.html",
                "http://wikitravel.org/en/Badami",
                "https://www.myoksha.com/hampi-heritage-tour/",
                "http://travel.india.com/badami/places-to-visit/historical-aihole/",
                "https://en.wikipedia.org/wiki/Pattadakal"
            ],
            "locType": "city"
        },
        "kannada": {
            "closest_to": "murudeshwara",
            "address": "Dakshina Kannada, Karnataka, India",
            "longitude": "75.1008028650794",
            "latitude": "12.8114089",
            "blogLinks": [
                "https://www.quora.com/What-are-the-best-places-to-visit-on-a-3-day-trip-in-and-around-Karnataka"
            ],
            "locType": "administrative"
        },
        "mangalore international airport": {
            "closest_to": "murudeshwara",
            "address": "Mangalore International Airport, Airport Entry Road, Gandhinagar, Kenjar, Mangaluru taluk, Dakshina Kannada, Karnataka, 575015, India",
            "longitude": "74.887492668144",
            "latitude": "12.95518575",
            "blogLinks": [
                "http://www.ticketgoose.com/bus-tickets/badami-to-murudeshwara"
            ],
            "locType": "aerodrome"
        },
        "pattadakal-badami road": {
            "closest_to": "badami",
            "address": "Pattadakal Temples, SH14, \u0cac\u0cbe\u0c9a\u0cbf\u0ca8\u0c97\u0cc1\u0ca1\u0ccd\u0ca1, Badami taluku, Bagalkote district, Karnataka, 587211, India",
            "longitude": "75.815884048161",
            "latitude": "15.9506349",
            "blogLinks": [
                "https://en.wikipedia.org/wiki/Pattadakal"
            ],
            "locType": "attraction"
        },
        "malaprabha river": {
            "closest_to": "murudeshwara",
            "address": "Malaprabha, Ramadurga taluku, Belgaum district, Karnataka, India",
            "longitude": "75.1982668",
            "latitude": "15.8914192",
            "blogLinks": [
                "http://travel.india.com/badami/places-to-visit/historical-aihole/"
            ],
            "locType": "river"
        },
        "' island": {
            "closest_to": "murudeshwara",
            "address": "Isa, Shirasi taluk, Uttara Kannada, Karnataka, India",
            "longitude": "74.8834637",
            "latitude": "14.6799543",
            "blogLinks": [
                "http://www.nivalink.com/destination/murudeshwar"
            ],
            "locType": "village"
        },
        "uma maheshwara temple": {
            "closest_to": "murudeshwara",
            "address": "Uma-maheshwara temple, Om beach road, Gokarna, Kumata taluk, Uttara Kannada, Karnataka, 581326, India",
            "longitude": "74.3120254424635",
            "latitude": "14.5234594",
            "blogLinks": [
                "http://blog.indianluxurytrains.com/2014/09/best-places-to-visit-in-karnataka.html"
            ],
            "locType": "place_of_worship"
        },
        "hoysaleswara": {
            "closest_to": "murudeshwara",
            "address": "Hoysaleswara Temple, SH21, Halebidu, Beluru taluk, Hassan district, Karnataka, 573121, India",
            "longitude": "75.9941649",
            "latitude": "13.2127193",
            "blogLinks": [
                "http://blog.indianluxurytrains.com/2014/09/best-places-to-visit-in-karnataka.html"
            ],
            "locType": "place_of_worship"
        },
        "coorg": {
            "closest_to": "murudeshwara",
            "address": "Madikeri, Madikeri taluku, Kodagu, Karnataka, India",
            "longitude": "75.740031",
            "latitude": "12.4204003",
            "blogLinks": [
                "https://www.quora.com/What-are-the-best-places-to-visit-on-a-3-day-trip-in-and-around-Karnataka"
            ],
            "locType": "town"
        },
        "sangameshvara": {
            "closest_to": "murudeshwara",
            "address": "Sangameshvara, Hagari Bommanahalli taluk, Bellary district, Karnataka, India",
            "longitude": "76.158147",
            "latitude": "14.8574503",
            "blogLinks": [
                "https://en.wikipedia.org/wiki/Pattadakal"
            ],
            "locType": "village"
        },
        "madhukeshwara": {
            "closest_to": "murudeshwara",
            "address": "Madhukeshwara Temple, Kattinakere Road, Kattinakere Bus Stand, Soraba taluk, Shimoga district, Karnataka, India",
            "longitude": "75.1480027",
            "latitude": "14.3058996",
            "blogLinks": [
                "https://www.quora.com/What-are-the-best-places-to-visit-on-a-3-day-trip-in-and-around-Karnataka"
            ],
            "locType": "place_of_worship"
        },
        "almatti dam": {
            "closest_to": "badami",
            "address": "Almatti Left Bank Canal, Basavana Bagevadi Taluku, Bijapur district, Karnataka, India",
            "longitude": "75.9517801",
            "latitude": "16.3648934",
            "blogLinks": [
                "https://www.travelblog.org/Asia/India/Karnataka/Bangalore/Koramangala/blog-914055.html"
            ],
            "locType": "canal"
        },
        "sangameshwara": {
            "closest_to": "murudeshwara",
            "address": "Sangameshwara, Kalaghatagi taluku, Dharwad district, Karnataka, India",
            "longitude": "74.87651",
            "latitude": "15.184341",
            "blogLinks": [
                "https://www.quora.com/What-are-the-best-places-to-visit-on-a-3-day-trip-in-and-around-Karnataka"
            ],
            "locType": "village"
        },
        "kalaseshwara temple": {
            "closest_to": "murudeshwara",
            "address": "Kalaseshwara Temple, SH66, Kalasa, Mudigere taluk, Chikkamagaluru district, Karnataka, 577124, India",
            "longitude": "75.363446975",
            "latitude": "13.23228505",
            "blogLinks": [
                "http://www.nivalink.com/destination/murudeshwar"
            ],
            "locType": "place_of_worship"
        },
        "bijapur district": {
            "closest_to": "badami",
            "address": "Bijapur district, Karnataka, India",
            "longitude": "75.897147327785",
            "latitude": "16.81105965",
            "blogLinks": [
                "https://www.quora.com/What-are-the-best-places-to-visit-on-a-3-day-trip-in-and-around-Karnataka"
            ],
            "locType": "administrative"
        },
        "parvati": {
            "closest_to": "badami",
            "address": "Parvati, Badami taluku, Bagalkote district, Karnataka, India",
            "longitude": "75.7898501",
            "latitude": "16.0395701",
            "blogLinks": [
                "https://www.quora.com/What-are-the-best-places-to-visit-on-a-3-day-trip-in-and-around-Karnataka"
            ],
            "locType": "village"
        },
        "virupaksha temple": {
            "closest_to": "badami",
            "address": "Virupaksha Temple, Hampi Bazaar, Hampe, Hosapete taluk, Bellary district, Karnataka, 583239, India",
            "longitude": "76.4587777156223",
            "latitude": "15.3351754",
            "blogLinks": [
                "http://www.mapsofindia.com/karnataka/places-to-visit-in-hampi.html",
                "https://en.wikipedia.org/wiki/Pattadakal"
            ],
            "locType": "place_of_worship"
        },
        "halebid": {
            "closest_to": "murudeshwara",
            "address": "Halebidu, Beluru taluk, Hassan district, Karnataka, 573121, India",
            "longitude": "75.9918793",
            "latitude": "13.2167959",
            "blogLinks": [
                "http://blog.indianluxurytrains.com/2014/09/best-places-to-visit-in-karnataka.html"
            ],
            "locType": "village"
        },
        "banashankari": {
            "closest_to": "murudeshwara",
            "address": "Banashankari, Badami taluku, Bagalkote district, Karnataka, India",
            "longitude": "75.7046777",
            "latitude": "15.8876779",
            "blogLinks": [
                "http://wikitravel.org/en/Badami"
            ],
            "locType": "hamlet"
        },
        "papanatha": {
            "closest_to": "badami",
            "address": "Papanatha Temple, SH14, \u0cac\u0cbe\u0c9a\u0cbf\u0ca8\u0c97\u0cc1\u0ca1\u0ccd\u0ca1, Badami taluku, Bagalkote district, Karnataka, 587211, India",
            "longitude": "75.8164391839286",
            "latitude": "15.94762935",
            "blogLinks": [
                "http://blog.indianluxurytrains.com/2014/09/best-places-to-visit-in-karnataka.html"
            ],
            "locType": "yes"
        },
        "gulbarga": {
            "closest_to": "badami",
            "address": "Kalaburgi, Kalaburagi district, Karnataka, India",
            "longitude": "77.083333",
            "latitude": "17.166667",
            "blogLinks": [
                "https://www.quora.com/What-are-the-best-places-to-visit-on-a-3-day-trip-in-and-around-Karnataka"
            ],
            "locType": "county"
        },
        "murudeshwara beach": {
            "closest_to": "murudeshwara",
            "address": "Murudeshwara Beach, NH66, Manki, Honnavara taluku, Uttara Kannada, Karnataka, 581348, India",
            "longitude": "74.4864829532275",
            "latitude": "14.09717935",
            "blogLinks": [
                "http://www.ticketgoose.com/bus-tickets/badami-to-murudeshwara"
            ],
            "locType": "beach"
        },
        "hampi bazaar": {
            "closest_to": "badami",
            "address": "Hampi Bazaar, Hampe, Hosapete taluk, Bellary district, Karnataka, 583239, India",
            "longitude": "76.4621571",
            "latitude": "15.3347585",
            "blogLinks": [
                "http://www.mapsofindia.com/karnataka/places-to-visit-in-hampi.html"
            ],
            "locType": "unclassified"
        },
        "gokul garden": {
            "closest_to": "murudeshwara",
            "address": "Gokul Garden, Gokul Road / Airport Road, Renuka Nagar, Padmaraj Nagar, Gokul, Hubballi taluku, Dharwad district, Karnataka, 580030, India",
            "longitude": "75.1141861403246",
            "latitude": "15.35009745",
            "blogLinks": [
                "https://www.quora.com/What-are-the-best-places-to-visit-on-a-3-day-trip-in-and-around-Karnataka"
            ],
            "locType": "recreation_ground"
        },
        "gokak": {
            "closest_to": "murudeshwara",
            "address": "Gokak, Gokak taluku, Belgaum district, Karnataka, 591307, India",
            "longitude": "74.8224338",
            "latitude": "16.1693033",
            "blogLinks": [
                "https://www.quora.com/What-are-the-best-places-to-visit-on-a-3-day-trip-in-and-around-Karnataka"
            ],
            "locType": "town"
        },
        "netrani island": {
            "closest_to": "murudeshwara",
            "address": "Netrani, Uttara Kannada, Karnataka, India",
            "longitude": "74.3272086675849",
            "latitude": "14.0174924",
            "blogLinks": [
                "http://www.nivalink.com/destination/murudeshwar"
            ],
            "locType": "island"
        },
        "hassan": {
            "closest_to": "murudeshwara",
            "address": "Hassan, Hasana taluk, Hassan district, Karnataka, 573201, India",
            "longitude": "76.0992703",
            "latitude": "13.0070817",
            "blogLinks": [
                "http://blog.indianluxurytrains.com/2014/09/best-places-to-visit-in-karnataka.html"
            ],
            "locType": "town"
        },
        "murudeshwara": {
            "closest_to": "murudeshwara",
            "address": "Murudeshwara, Bhatkala taluk, Uttara Kannada, Karnataka, 581350, India",
            "longitude": "74.4883354",
            "latitude": "14.0959549",
            "blogLinks": [
                "http://www.ticketgoose.com/bus-tickets/badami-to-murudeshwara"
            ],
            "locType": "town"
        },
        "aihole": {
            "closest_to": "badami",
            "address": "Aihole, Hunagunda taluku, Bagalkote district, Karnataka, India",
            "longitude": "75.8819129",
            "latitude": "16.0192298",
            "blogLinks": [
                "https://en.wikipedia.org/wiki/Pattadakal",
                "https://www.myoksha.com/hampi-heritage-tour/",
                "https://www.travelblog.org/Asia/India/Karnataka/Bangalore/Koramangala/blog-914055.html",
                "http://travel.india.com/badami/places-to-visit/historical-aihole/"
            ],
            "locType": "village"
        },
        "chennakeshava": {
            "closest_to": "murudeshwara",
            "address": "Chennakeshava Temple, NH73, Arakere, Arasikere taluku, Hassan district, Karnataka, 573112, India",
            "longitude": "76.1294164",
            "latitude": "13.3748908",
            "blogLinks": [
                "https://www.quora.com/What-are-the-best-places-to-visit-on-a-3-day-trip-in-and-around-Karnataka"
            ],
            "locType": "place_of_worship"
        },
        "kudremukh national park": {
            "closest_to": "murudeshwara",
            "address": "Kudremukh National Park, SH66, Sringeri taluku, Chikkamagaluru district, Karnataka, India",
            "longitude": "75.1828713712862",
            "latitude": "13.25397485",
            "blogLinks": [
                "https://www.quora.com/What-are-the-best-places-to-visit-on-a-3-day-trip-in-and-around-Karnataka"
            ],
            "locType": "national_park"
        },
        "sakleshpur": {
            "closest_to": "murudeshwara",
            "address": "Sakaleshpura, Sakaleshapura taluk, Hassan district, Karnataka, 573134, India",
            "longitude": "75.7862318",
            "latitude": "12.9434349",
            "blogLinks": [
                "https://www.quora.com/What-are-the-best-places-to-visit-on-a-3-day-trip-in-and-around-Karnataka"
            ],
            "locType": "town"
        },
        "shringeri": {
            "closest_to": "murudeshwara",
            "address": "Shringeri, Hanagal taluk, Haveri district, Karnataka, India",
            "longitude": "75.0621168",
            "latitude": "14.7221214",
            "blogLinks": [
                "http://www.indiamike.com/india/karnataka-f38/udupi-agumbe-shringeri-murudeshwara-jog-falls-dharmasthala-t137208/"
            ],
            "locType": "village"
        },
        "varaha": {
            "closest_to": "murudeshwara",
            "address": "Varaha, Hirekeruru taluk, Haveri district, Karnataka, India",
            "longitude": "75.3718812",
            "latitude": "14.390777",
            "blogLinks": [
                "http://wikitravel.org/en/Badami"
            ],
            "locType": "village"
        },
        "papanatha temple": {
            "closest_to": "badami",
            "address": "Papanatha Temple, SH14, \u0cac\u0cbe\u0c9a\u0cbf\u0ca8\u0c97\u0cc1\u0ca1\u0ccd\u0ca1, Badami taluku, Bagalkote district, Karnataka, 587211, India",
            "longitude": "75.8164391839286",
            "latitude": "15.94762935",
            "blogLinks": [
                "https://en.wikipedia.org/wiki/Pattadakal"
            ],
            "locType": "yes"
        },
        "hubli junction": {
            "closest_to": "murudeshwara",
            "address": "Hubballi Junction, Gadag Road, Arihant Nagar, Kamaripet, Hubballi - \u0cb9\u0cc1\u0cac\u0ccd\u0cac\u0cb3\u0ccd\u0cb3\u0cbf, Hubballi taluku, Dharwad district, Karnataka, 580020, India",
            "longitude": "75.1489563",
            "latitude": "15.3505517",
            "blogLinks": [
                "http://wikitravel.org/en/Badami"
            ],
            "locType": "station"
        },
        "tagore beach": {
            "closest_to": "murudeshwara",
            "address": "Rabindranath Tagore Beach, NH66, Kodibag, Karwar, Karavara taluk, Uttara Kannada, Karnataka, 581300, India",
            "longitude": "74.126114099183",
            "latitude": "14.81741155",
            "blogLinks": [
                "https://www.quora.com/What-are-the-best-places-to-visit-on-a-3-day-trip-in-and-around-Karnataka"
            ],
            "locType": "beach"
        },
        "mookambika": {
            "closest_to": "murudeshwara",
            "address": "Mukambika Devasthana, NH766C;SH26, Halkal, \u0c95\u0cc1\u0c82\u0ca6\u0cbe\u0caa\u0cc1\u0cb0 \u0ca4\u0cbe\u0cb2\u0cc2\u0c95\u0cc1, Udupi district, Karnataka, 576220, India",
            "longitude": "74.8145296",
            "latitude": "13.8638043",
            "blogLinks": [
                "https://www.quora.com/What-are-the-best-places-to-visit-on-a-3-day-trip-in-and-around-Karnataka"
            ],
            "locType": "place_of_worship"
        },
        "hubli": {
            "closest_to": "murudeshwara",
            "address": "Hubballi - \u0cb9\u0cc1\u0cac\u0ccd\u0cac\u0cb3\u0ccd\u0cb3\u0cbf, Hubballi taluku, Dharwad district, Karnataka, 580020, India",
            "longitude": "75.1379848",
            "latitude": "15.3518378",
            "blogLinks": [
                "http://www.ticketgoose.com/bus-tickets/badami-to-murudeshwara",
                "http://www.mapsofindia.com/maps/karnataka/travel-to-badami.html",
                "http://www.nivalink.com/destination/murudeshwar",
                "http://wikitravel.org/en/Badami",
                "http://www.nivalink.com/destination/badami",
                "https://en.wikipedia.org/wiki/Pattadakal"
            ],
            "locType": "city"
        },
        "nagara": {
            "closest_to": "murudeshwara",
            "address": "Nagara, Hosanagara taluk, Shimoga district, Karnataka, India",
            "longitude": "75.0328554",
            "latitude": "13.8236828",
            "blogLinks": [
                "https://en.wikipedia.org/wiki/Pattadakal"
            ],
            "locType": "village"
        },
        "ganeshgudi": {
            "closest_to": "murudeshwara",
            "address": "Ganeshagudi, Joida taluk, Uttara Kannada, Karnataka, India",
            "longitude": "74.5335693",
            "latitude": "15.2815822",
            "blogLinks": [
                "https://www.quora.com/What-are-the-best-places-to-visit-on-a-3-day-trip-in-and-around-Karnataka"
            ],
            "locType": "village"
        },
        "bellary": {
            "closest_to": "badami",
            "address": "Bellary, Bellary district, Karnataka, India",
            "longitude": "76.8323648",
            "latitude": "15.2485413",
            "blogLinks": [
                "http://www.mapsofindia.com/karnataka/places-to-visit-in-hampi.html"
            ],
            "locType": "county"
        },
        "sykes point": {
            "closest_to": "murudeshwara",
            "address": "Sykes point, Ambikanagar road, Haliyala taluku, Uttara Kannada, Karnataka, India",
            "longitude": "74.6488754",
            "latitude": "15.0905368",
            "blogLinks": [
                "http://blog.indianluxurytrains.com/2014/09/best-places-to-visit-in-karnataka.html"
            ],
            "locType": "viewpoint"
        },
        "gadag": {
            "closest_to": "murudeshwara",
            "address": "Gadag, Gadag taluk, Gadag district, Karnataka, 582101, India",
            "longitude": "75.6300786",
            "latitude": "15.4263647",
            "blogLinks": [
                "http://wikitravel.org/en/Badami"
            ],
            "locType": "town"
        },
        "ananthapadmanabha": {
            "closest_to": "murudeshwara",
            "address": "Kudupu Ananthapadmanabha Temple, Solapur-Mangalore Highway, Shakthinagar, Kulashekara, Kudupu, Mangaluru taluk, Dakshina Kannada, Karnataka, 575007, India",
            "longitude": "74.8937899082456",
            "latitude": "12.9039019",
            "blogLinks": [
                "https://www.quora.com/What-are-the-best-places-to-visit-on-a-3-day-trip-in-and-around-Karnataka"
            ],
            "locType": "place_of_worship"
        },
        "kodagu": {
            "closest_to": "murudeshwara",
            "address": "Kodagu, Karnataka, India",
            "longitude": "75.6677235950852",
            "latitude": "12.38117345",
            "blogLinks": [
                "https://www.quora.com/What-are-the-best-places-to-visit-on-a-3-day-trip-in-and-around-Karnataka",
                "http://blog.indianluxurytrains.com/2014/09/best-places-to-visit-in-karnataka.html"
            ],
            "locType": "administrative"
        },
        "station road": {
            "closest_to": "badami",
            "address": "Station Road, Ballari, Bellary taluk, Bellary district, Karnataka, 583101, India",
            "longitude": "76.9220288",
            "latitude": "15.1442884",
            "blogLinks": [
                "http://www.mapsofindia.com/maps/karnataka/travel-to-badami.html"
            ],
            "locType": "trunk"
        },
        "karkala": {
            "closest_to": "murudeshwara",
            "address": "Karkala, Karkala taluk, Udupi district, Karnataka, 574104, India",
            "longitude": "74.9959586",
            "latitude": "13.2112826",
            "blogLinks": [
                "https://www.quora.com/What-are-the-best-places-to-visit-on-a-3-day-trip-in-and-around-Karnataka"
            ],
            "locType": "town"
        },
        "mandalpatti": {
            "closest_to": "murudeshwara",
            "address": "Mandalpatti road junction, Galibidu Road, Kalakeri Nidugane, Madikeri taluku, Kodagu, Karnataka, India",
            "longitude": "75.7307012",
            "latitude": "12.4486242",
            "blogLinks": [
                "https://www.quora.com/What-are-the-best-places-to-visit-on-a-3-day-trip-in-and-around-Karnataka"
            ],
            "locType": "attraction"
        },
        "kuppali": {
            "closest_to": "murudeshwara",
            "address": "Kuppali Road, Kuppalli, Tirthahalli taluk, Shimoga district, Karnataka, India",
            "longitude": "75.3158067",
            "latitude": "13.5998255",
            "blogLinks": [
                "https://www.quora.com/What-are-the-best-places-to-visit-on-a-3-day-trip-in-and-around-Karnataka"
            ],
            "locType": "tertiary"
        },
        "dakshina kannada": {
            "closest_to": "murudeshwara",
            "address": "Dakshina Kannada, Karnataka, India",
            "longitude": "75.1008028650794",
            "latitude": "12.8114089",
            "blogLinks": [
                "https://www.quora.com/What-are-the-best-places-to-visit-on-a-3-day-trip-in-and-around-Karnataka"
            ],
            "locType": "administrative"
        },
        "marikamba temple": {
            "closest_to": "murudeshwara",
            "address": "Marikamba Temple, NH766C;SH26, Halkal, \u0c95\u0cc1\u0c82\u0ca6\u0cbe\u0caa\u0cc1\u0cb0 \u0ca4\u0cbe\u0cb2\u0cc2\u0c95\u0cc1, Udupi district, Karnataka, 576220, India",
            "longitude": "74.8103631279317",
            "latitude": "13.8626958",
            "blogLinks": [
                "https://www.quora.com/What-are-the-best-places-to-visit-on-a-3-day-trip-in-and-around-Karnataka"
            ],
            "locType": "place_of_worship"
        },
        "gokarna": {
            "closest_to": "murudeshwara",
            "address": "Gokarna, Kumata taluk, Uttara Kannada, Karnataka, 581326, India",
            "longitude": "74.3184418",
            "latitude": "14.5439629",
            "blogLinks": [
                "http://www.indiamike.com/india/karnataka-f38/udupi-agumbe-shringeri-murudeshwara-jog-falls-dharmasthala-t137208/"
            ],
            "locType": "town"
        },
        "india": {
            "closest_to": "murudeshwara",
            "address": "Karnataka, India",
            "longitude": "75.7223521",
            "latitude": "14.5203896",
            "blogLinks": [
                "http://www.mapsofindia.com/karnataka/places-to-visit-in-hampi.html",
                "http://blog.indianluxurytrains.com/2014/09/best-places-to-visit-in-karnataka.html",
                "https://www.travelblog.org/Asia/India/Karnataka/Bangalore/Koramangala/blog-914055.html",
                "http://www.ticketgoose.com/bus-tickets/badami-to-murudeshwara",
                "http://www.nivalink.com/destination/murudeshwar",
                "https://www.myoksha.com/hampi-heritage-tour/",
                "http://www.nivalink.com/destination/badami",
                "https://www.quora.com/What-are-the-best-places-to-visit-on-a-3-day-trip-in-and-around-Karnataka",
                "https://en.wikipedia.org/wiki/Pattadakal"
            ],
            "locType": "administrative"
        },
        "sharavati": {
            "closest_to": "murudeshwara",
            "address": "Sharavati, Sagara taluk, Shimoga district, Karnataka, India",
            "longitude": "74.7647294",
            "latitude": "14.2360979",
            "blogLinks": [
                "https://www.quora.com/What-are-the-best-places-to-visit-on-a-3-day-trip-in-and-around-Karnataka"
            ],
            "locType": "river"
        }
    },
    "murudeshwara": {
        "place_id": "622093",
        "osm_id": "245626123",
        "icon": "https://nominatim.openstreetmap.org/images/mapicons/poi_place_town.p.20.png",
        "osm_type": "node",
        "licence": "Data \u00a9 OpenStreetMap contributors, ODbL 1.0. http://www.openstreetmap.org/copyright",
        "display_name": "Murudeshwara, Bhatkala taluk, Uttara Kannada, Karnataka, 581350, India",
        "type": "town",
        "lon": "74.4883354",
        "boundingbox": [
            "14.0559549",
            "14.1359549",
            "74.4483354",
            "74.5283354"
        ],
        "importance": 0.5,
        "lat": "14.0959549",
        "class": "place"
    }
}