{
    "mentions": {
        "bangalore chennai": {
            "locType": "trunk",
            "blogLinks": [
                "https://www.makemytrip.com/bus-tickets/bangalore-belgaum-booking.html"
            ],
            "longitude": "78.3144556",
            "closest_to": "mangalore",
            "latitude": "13.1522603",
            "address": "Bangalore Chennai Road, Bimapura, Mulubagilu taluk, Kolar district, Karnataka, 563131, India"
        },
        "kamat hotel": {
            "locType": "restaurant",
            "blogLinks": [
                "http://praveenpn.com/blog/2011/01/05/bangalore-to-goa-by-car/"
            ],
            "longitude": "75.0131542",
            "closest_to": "mangalore",
            "latitude": "15.4595482",
            "address": "Kamat Hotel, Subhas Road, Saidapur, Kamalapura, Dharwad, Dharawada taluku, Dharwad district, Karnataka, 580001, India"
        },
        "belgaum fort": {
            "locType": "locality",
            "blogLinks": [
                "https://www.keralaholidays.com/Destinations/Belgaum.htm",
                "http://www.tripfactory.com/places/belgaum-attractions-india",
                "http://www.nivalink.com/destination/belgaum"
            ],
            "longitude": "74.5255651",
            "closest_to": "mangalore",
            "latitude": "15.8581696",
            "address": "Belgaum Fort, Belagavi, Belagavi taluku, Belgaum district, Karnataka, 590001, India"
        },
        "kerala": {
            "locType": "restaurant",
            "blogLinks": [
                "http://wikitravel.org/en/Karnataka",
                "http://travel.india.com/explore/wildlife-sanctuaries-in-karnataka/",
                "https://www.yatra.com/india-tourism/karnataka"
            ],
            "longitude": "77.6382683",
            "closest_to": "mangalore",
            "latitude": "12.9726449",
            "address": "New Life Kerala Mess, Sai Baba Mandira Road, Mottappanapalaya, Indiranagar, Bengaluru, Bangalore Urban, Karnataka, 560001, India"
        },
        "hoysaleswara temple": {
            "locType": "place_of_worship",
            "blogLinks": [
                "http://www.mapsofindia.com/karnataka/tourism/"
            ],
            "longitude": "75.9941649",
            "closest_to": "mangalore",
            "latitude": "13.2127193",
            "address": "Hoysaleswara Temple, SH21, Halebidu, Beluru taluk, Hassan district, Karnataka, 573121, India"
        },
        "margao": {
            "locType": "bank",
            "blogLinks": [
                "http://praveenpn.com/blog/2011/01/05/bangalore-to-goa-by-car/"
            ],
            "longitude": "73.9583411",
            "closest_to": "mangalore",
            "latitude": "15.2740083",
            "address": "Karnataka bank, NH66, Aquem, Fatorda, Margao, South Goa, Goa, 403600, India"
        },
        "lakkavalli": {
            "locType": "village",
            "blogLinks": [
                "http://travel.india.com/explore/wildlife-sanctuaries-in-karnataka/"
            ],
            "longitude": "75.1078097",
            "closest_to": "mangalore",
            "latitude": "14.5841018",
            "address": "Lakkavalli, Soraba taluk, Shimoga district, Karnataka, India"
        },
        "river kali": {
            "locType": "river",
            "blogLinks": [
                "http://travel.india.com/explore/wildlife-sanctuaries-in-karnataka/"
            ],
            "longitude": "74.5802901",
            "closest_to": "mangalore",
            "latitude": "15.0145378",
            "address": "Kali, Joida taluk, Uttara Kannada, Karnataka, India"
        },
        "jog falls": {
            "locType": "locality",
            "blogLinks": [
                "http://www.holidayiq.com/Shimoga-Sightseeing-748.html"
            ],
            "longitude": "74.8128715",
            "closest_to": "mangalore",
            "latitude": "14.2276106",
            "address": "Jog Falls, Joga - Kargal, Sagara taluk, Shimoga district, Karnataka, India"
        },
        "kabini": {
            "locType": "river",
            "blogLinks": [
                "http://travel.india.com/explore/wildlife-sanctuaries-in-karnataka/"
            ],
            "longitude": "76.4152088",
            "closest_to": "mangalore",
            "latitude": "12.0140065",
            "address": "Kabini, Heggadadevanakote taluk, Mysuru district, Karnataka, India"
        },
        "kundapura": {
            "locType": "town",
            "blogLinks": [
                "http://www.nivalink.com/destination/dharmasthala"
            ],
            "longitude": "74.6915722",
            "closest_to": "mangalore",
            "latitude": "13.6250993",
            "address": "Kundapura, \u0c95\u0cc1\u0c82\u0ca6\u0cbe\u0caa\u0cc1\u0cb0 \u0ca4\u0cbe\u0cb2\u0cc2\u0c95\u0cc1, Udupi district, Karnataka, 576200, India"
        },
        "karnatak": {
            "locType": "government",
            "blogLinks": [
                "http://wikitravel.org/en/Karnataka"
            ],
            "longitude": "77.5866552",
            "closest_to": "mangalore",
            "latitude": "12.9661723",
            "address": "Karnatak State Tourism Development Corporation - KSTDC, Proposed Hudson Cricle - Minerva Circle Flyover, Ganigarpet, Kalasipalya, Bengaluru, Bangalore Urban, Karnataka, 560001, India"
        },
        "shimoga district": {
            "locType": "administrative",
            "blogLinks": [
                "http://wikitravel.org/en/Karnataka"
            ],
            "longitude": "75.1312533993886",
            "closest_to": "mangalore",
            "latitude": "14.0558284",
            "address": "Shimoga district, Karnataka, India"
        },
        "shivamogga": {
            "locType": "city",
            "blogLinks": [
                "http://wikitravel.org/en/Karnataka"
            ],
            "longitude": "75.569737",
            "closest_to": "mangalore",
            "latitude": "13.9311723",
            "address": "Shivamogga, Shivamogga taluku, Shimoga district, Karnataka, 577200, India"
        },
        "darbar street": {
            "locType": "hotel",
            "blogLinks": [
                "http://www.tripfactory.com/places/belgaum-attractions-india"
            ],
            "longitude": "76.9205038012125",
            "closest_to": "mangalore",
            "latitude": "15.13765995",
            "address": "Shahi Darbar Hotel, Bus Stand Road, Ballari, Bellary taluk, Bellary district, Karnataka, 583101, India"
        },
        "bangalore": {
            "locType": "city",
            "blogLinks": [
                "http://www.nivalink.com/destination/belgaum",
                "https://www.yatra.com/india-tourism/karnataka",
                "http://praveenpn.com/blog/2011/01/05/bangalore-to-goa-by-car/",
                "http://www.nivalink.com/destination/dharmasthala",
                "http://wikitravel.org/en/Karnataka",
                "http://travel.india.com/explore/wildlife-sanctuaries-in-karnataka/",
                "https://www.triphobo.com/places/belgaum-india/belgaum-airport",
                "https://www.makemytrip.com/bus-tickets/bangalore-belgaum-booking.html",
                "http://www.mapsofindia.com/karnataka/tourism/"
            ],
            "longitude": "77.5912997",
            "closest_to": "mangalore",
            "latitude": "12.9791198",
            "address": "Bengaluru, Bangalore Urban, Karnataka, 560001, India"
        },
        "saundatti": {
            "locType": "town",
            "blogLinks": [
                "http://www.tripfactory.com/places/belgaum-attractions-india"
            ],
            "longitude": "75.1174834",
            "closest_to": "mangalore",
            "latitude": "15.7671818",
            "address": "Savadatti, Savadatti taluku, Belgaum district, Karnataka, 591126, India"
        },
        "raichur": {
            "locType": "county",
            "blogLinks": [
                "https://www.yatra.com/india-tourism/karnataka"
            ],
            "longitude": "77.166667",
            "closest_to": "belgaum",
            "latitude": "16.083333",
            "address": "Raichur, Raichur district, Karnataka, India"
        },
        "emirates": {
            "locType": "restaurant",
            "blogLinks": [
                "https://www.yatra.com/india-tourism/karnataka"
            ],
            "longitude": "77.5572955",
            "closest_to": "mangalore",
            "latitude": "13.0192135",
            "address": "Emirates, Rahman Khan Road, Rajajinagar 1st Block, Yeshwantpur, Deewanarapalya, Bangalore Urban, Karnataka, 560022, India"
        },
        "halebid": {
            "locType": "village",
            "blogLinks": [
                "http://www.mapsofindia.com/karnataka/tourism/",
                "https://www.yatra.com/india-tourism/karnataka"
            ],
            "longitude": "75.9918793",
            "closest_to": "mangalore",
            "latitude": "13.2167959",
            "address": "Halebidu, Beluru taluk, Hassan district, Karnataka, 573121, India"
        },
        "ratnagiri highway": {
            "locType": "secondary",
            "blogLinks": [
                "http://www.nivalink.com/destination/belgaum"
            ],
            "longitude": "75.7727724",
            "closest_to": "mangalore",
            "latitude": "13.3292344",
            "address": "Ratnagiri Road, Basavannahalli, Chikkamagaluru, Chikkamagaluru taluku, Chikkamagaluru district, Karnataka, 577101, India"
        },
        "madiwala": {
            "locType": "primary",
            "blogLinks": [
                "https://www.makemytrip.com/bus-tickets/bangalore-belgaum-booking.html"
            ],
            "longitude": "77.6235862",
            "closest_to": "mangalore",
            "latitude": "12.9228755",
            "address": "Madiwala Sarajpura Road, Koramangala 2nd Block, Madivala, Bengaluru, Bangalore Urban, Karnataka, 560001, India"
        },
        "karwar": {
            "locType": "town",
            "blogLinks": [
                "http://praveenpn.com/blog/2011/01/05/bangalore-to-goa-by-car/",
                "http://www.tripfactory.com/places/belgaum-attractions-india"
            ],
            "longitude": "74.1319229",
            "closest_to": "mangalore",
            "latitude": "14.8120931",
            "address": "Karwar, Karavara taluk, Uttara Kannada, Karnataka, 581300, India"
        },
        "bellary": {
            "locType": "county",
            "blogLinks": [
                "https://www.yatra.com/india-tourism/karnataka"
            ],
            "longitude": "76.8323648",
            "closest_to": "mangalore",
            "latitude": "15.2485413",
            "address": "Bellary, Bellary district, Karnataka, India"
        },
        "bangalore east": {
            "locType": "city",
            "blogLinks": [
                "http://praveenpn.com/blog/2011/01/05/bangalore-to-goa-by-car/"
            ],
            "longitude": "77.5912997",
            "closest_to": "mangalore",
            "latitude": "12.9791198",
            "address": "Bengaluru, Bangalore Urban, Karnataka, 560001, India"
        },
        "garden": {
            "locType": "orchard",
            "blogLinks": [
                "http://www.mapsofindia.com/karnataka/tourism/"
            ],
            "longitude": "77.9285817637065",
            "closest_to": "mangalore",
            "latitude": "13.19253335",
            "address": "garden, N Hosahalli, Hosakote taluk, Bangalore Rural, Karnataka, India"
        },
        "pattadakal": {
            "locType": "attraction",
            "blogLinks": [
                "http://www.mapsofindia.com/karnataka/tourism/"
            ],
            "longitude": "75.815884048161",
            "closest_to": "mangalore",
            "latitude": "15.9506349",
            "address": "Pattadakal Temples, SH14, \u0cac\u0cbe\u0c9a\u0cbf\u0ca8\u0c97\u0cc1\u0ca1\u0ccd\u0ca1, Badami taluku, Bagalkote district, Karnataka, 587211, India"
        },
        "hyderabad": {
            "locType": "primary",
            "blogLinks": [
                "https://www.makemytrip.com/bus-tickets/bangalore-belgaum-booking.html"
            ],
            "longitude": "77.5344002",
            "closest_to": "belgaum",
            "latitude": "17.9003114",
            "address": "Hyderabad Road, Old City, Bidar, Bidar taluku, Bidar district, Karnataka, 585400, India"
        },
        "mangalore international airport": {
            "locType": "aerodrome",
            "blogLinks": [
                "http://wikitravel.org/en/Karnataka",
                "https://www.yatra.com/india-tourism/karnataka"
            ],
            "longitude": "74.887492668144",
            "closest_to": "mangalore",
            "latitude": "12.95518575",
            "address": "Mangalore International Airport, Airport Entry Road, Gandhinagar, Kenjar, Mangaluru taluk, Dakshina Kannada, Karnataka, 575015, India"
        },
        "kamalapura": {
            "locType": "village",
            "blogLinks": [
                "http://travel.india.com/explore/wildlife-sanctuaries-in-karnataka/"
            ],
            "longitude": "75.7316366",
            "closest_to": "mangalore",
            "latitude": "14.4449672",
            "address": "Kamalapura, Harihara taluku, Davanagere district, Karnataka, India"
        },
        "domlur layout": {
            "locType": "bus_stop",
            "blogLinks": [
                "http://wikitravel.org/en/Karnataka"
            ],
            "longitude": "77.6383041",
            "closest_to": "mangalore",
            "latitude": "12.961055",
            "address": "Domlur, HAL Airport Road, Domlur BDA Layout, Domlur, Bengaluru, Bangalore Urban, Karnataka, 560001, India"
        },
        "river tunga": {
            "locType": "river",
            "blogLinks": [
                "http://www.holidayiq.com/Shimoga-Sightseeing-748.html"
            ],
            "longitude": "75.3221835",
            "closest_to": "mangalore",
            "latitude": "13.6632221",
            "address": "Tunga, Tirthahalli taluk, Shimoga district, Karnataka, India"
        },
        "mumbai": {
            "locType": "restaurant",
            "blogLinks": [
                "http://praveenpn.com/blog/2011/01/05/bangalore-to-goa-by-car/",
                "https://www.makemytrip.com/bus-tickets/bangalore-belgaum-booking.html",
                "http://wikitravel.org/en/Karnataka",
                "http://www.nivalink.com/destination/belgaum"
            ],
            "longitude": "77.5718472",
            "closest_to": "mangalore",
            "latitude": "13.0002869",
            "address": "Mumbai Spice, 18/2, 10th Cross, Malleswaram, Vyalikaval, Malleswaram, Bengaluru, Bangalore Urban, Karnataka, 560003, India"
        },
        "dakshina kannada": {
            "locType": "administrative",
            "blogLinks": [
                "http://wikitravel.org/en/Karnataka"
            ],
            "longitude": "75.1008028650794",
            "closest_to": "mangalore",
            "latitude": "12.8114089",
            "address": "Dakshina Kannada, Karnataka, India"
        },
        "north bangalore": {
            "locType": "service",
            "blogLinks": [
                "http://praveenpn.com/blog/2011/01/05/bangalore-to-goa-by-car/"
            ],
            "longitude": "77.7660547",
            "closest_to": "mangalore",
            "latitude": "13.0217151",
            "address": "N, Chaithanya Samarpan, Kadugodi, Kannamangala, Bangalore Urban, Karnataka, 560066, India"
        },
        "bangalore railway": {
            "locType": "railway",
            "blogLinks": [
                "http://travel.india.com/explore/wildlife-sanctuaries-in-karnataka/"
            ],
            "longitude": "77.6182271274845",
            "closest_to": "mangalore",
            "latitude": "13.001147",
            "address": "Bangalore East Railway Station, Cox Town, Bengaluru, Bangalore Urban, Karnataka, 560001, India"
        },
        "kodagu": {
            "locType": "administrative",
            "blogLinks": [
                "http://www.mapsofindia.com/karnataka/tourism/"
            ],
            "longitude": "75.6677235950852",
            "closest_to": "mangalore",
            "latitude": "12.38117345",
            "address": "Kodagu, Karnataka, India"
        },
        "bandipur national park": {
            "locType": "national_park",
            "blogLinks": [
                "http://wikitravel.org/en/Karnataka",
                "http://travel.india.com/explore/wildlife-sanctuaries-in-karnataka/"
            ],
            "longitude": "76.4314968740264",
            "closest_to": "mangalore",
            "latitude": "11.76682425",
            "address": "Bandipur National Park, Kozhikode - Kollegal Highway, Gundlupet taluk, Chamarajanagar district, Karnataka, India"
        },
        "savanadurga": {
            "locType": "village",
            "blogLinks": [
                "http://wikitravel.org/en/Karnataka"
            ],
            "longitude": "77.2977719",
            "closest_to": "mangalore",
            "latitude": "12.9159605",
            "address": "Savandurga, Magadi taluku, Ramanagara district, Karnataka, India"
        },
        "belagavi": {
            "locType": "county",
            "blogLinks": [
                "http://wikitravel.org/en/Karnataka"
            ],
            "longitude": "74.75",
            "closest_to": "mangalore",
            "latitude": "16.333333",
            "address": "Belgaum, Belgaum district, Karnataka, India"
        },
        "kaikamba": {
            "locType": "village",
            "blogLinks": [
                "http://wikitravel.org/en/Karnataka"
            ],
            "longitude": "74.9367137",
            "closest_to": "mangalore",
            "latitude": "12.9660858",
            "address": "Kaikamba, Mangaluru taluk, Dakshina Kannada, Karnataka, India"
        },
        "hospet": {
            "locType": "town",
            "blogLinks": [
                "http://travel.india.com/explore/wildlife-sanctuaries-in-karnataka/"
            ],
            "longitude": "76.3870527",
            "closest_to": "mangalore",
            "latitude": "15.266079",
            "address": "Hosapete, Hosapete taluk, Bellary district, Karnataka, 583200, India"
        },
        "daroji": {
            "locType": "village",
            "blogLinks": [
                "http://travel.india.com/explore/wildlife-sanctuaries-in-karnataka/"
            ],
            "longitude": "76.6667172",
            "closest_to": "mangalore",
            "latitude": "15.2671318",
            "address": "Daroji, Sanduru taluk, Bellary district, Karnataka, India"
        },
        "bengal": {
            "locType": "industrial",
            "blogLinks": [
                "http://travel.india.com/explore/wildlife-sanctuaries-in-karnataka/"
            ],
            "longitude": "77.7517038151245",
            "closest_to": "mangalore",
            "latitude": "13.0492646",
            "address": "Bengal Lamps, Konadasapura, Bangalore Urban, Karnataka, 560066, India"
        },
        "uttara kannada": {
            "locType": "administrative",
            "blogLinks": [
                "http://www.tripfactory.com/places/belgaum-attractions-india",
                "http://travel.india.com/explore/wildlife-sanctuaries-in-karnataka/"
            ],
            "longitude": "74.4729163045979",
            "closest_to": "mangalore",
            "latitude": "14.6726379",
            "address": "Uttara Kannada, Karnataka, India"
        },
        "river sharavathi": {
            "locType": "river",
            "blogLinks": [
                "http://www.mapsofindia.com/karnataka/tourism/"
            ],
            "longitude": "77.5476521",
            "closest_to": "mangalore",
            "latitude": "12.967526",
            "address": "Vrishabavathi, Bengaluru, Bangalore Urban, Karnataka, 560001, India"
        },
        "hasan": {
            "locType": "town",
            "blogLinks": [
                "http://www.mapsofindia.com/karnataka/tourism/"
            ],
            "longitude": "76.0992703",
            "closest_to": "mangalore",
            "latitude": "13.0070817",
            "address": "Hassan, Hasana taluk, Hassan district, Karnataka, 573201, India"
        },
        "kali river": {
            "locType": "river",
            "blogLinks": [
                "http://travel.india.com/explore/wildlife-sanctuaries-in-karnataka/"
            ],
            "longitude": "74.5802901",
            "closest_to": "mangalore",
            "latitude": "15.0145378",
            "address": "Kali, Joida taluk, Uttara Kannada, Karnataka, India"
        },
        "gokarna": {
            "locType": "town",
            "blogLinks": [
                "http://www.mapsofindia.com/karnataka/tourism/"
            ],
            "longitude": "74.3184418",
            "closest_to": "mangalore",
            "latitude": "14.5439629",
            "address": "Gokarna, Kumata taluk, Uttara Kannada, Karnataka, 581326, India"
        },
        "cochin": {
            "locType": "confectionery",
            "blogLinks": [
                "http://wikitravel.org/en/Karnataka"
            ],
            "longitude": "74.8390919",
            "closest_to": "mangalore",
            "latitude": "12.8604752",
            "address": "Cochin Bakery, Old Kent Road, Pandeshwar, Attavar, Mangaluru, Mangaluru taluk, Dakshina Kannada, Karnataka, 575001, India"
        },
        "yellapur": {
            "locType": "town",
            "blogLinks": [
                "http://praveenpn.com/blog/2011/01/05/bangalore-to-goa-by-car/"
            ],
            "longitude": "74.7061458",
            "closest_to": "mangalore",
            "latitude": "14.9622518",
            "address": "Yellapura, Yallapura taluk, Uttara Kannada, Karnataka, 581359, India"
        },
        "chikballapura": {
            "locType": "primary",
            "blogLinks": [
                "http://wikitravel.org/en/Karnataka"
            ],
            "longitude": "78.0512848",
            "closest_to": "mangalore",
            "latitude": "13.1735609",
            "address": "Kolar Chikballapura Road, Medihala, Kolar taluk, Kolar district, Karnataka, India"
        },
        "bahubali": {
            "locType": "place_of_worship",
            "blogLinks": [
                "http://www.nivalink.com/destination/dharmasthala"
            ],
            "longitude": "76.4846128",
            "closest_to": "mangalore",
            "latitude": "12.8540505",
            "address": "Bahubali Statue, SH8, Shravanabelagola, Channarayapattana taluk, Hassan district, Karnataka, 573135, India"
        },
        "udupi": {
            "locType": "city",
            "blogLinks": [
                "http://www.mapsofindia.com/karnataka/tourism/"
            ],
            "longitude": "74.7473232",
            "closest_to": "mangalore",
            "latitude": "13.3419169",
            "address": "Udupi, Udupi taluku, Udupi district, Karnataka, 576101, India"
        },
        "chamarajanagara": {
            "locType": "town",
            "blogLinks": [
                "http://wikitravel.org/en/Karnataka"
            ],
            "longitude": "76.938865",
            "closest_to": "mangalore",
            "latitude": "11.9236956",
            "address": "Chamarajanagara, Chamarajanagara taluk, Chamarajanagar district, Karnataka, 571313, India"
        },
        "hampi": {
            "locType": "village",
            "blogLinks": [
                "http://wikitravel.org/en/Karnataka",
                "http://www.mapsofindia.com/karnataka/tourism/"
            ],
            "longitude": "76.4606199",
            "closest_to": "mangalore",
            "latitude": "15.3359769",
            "address": "Hampe, Hosapete taluk, Bellary district, Karnataka, 583239, India"
        },
        "bandipur": {
            "locType": "village",
            "blogLinks": [
                "http://travel.india.com/explore/wildlife-sanctuaries-in-karnataka/"
            ],
            "longitude": "76.6285739",
            "closest_to": "mangalore",
            "latitude": "11.6662708",
            "address": "Bandipur, Gundlupet taluk, Chamarajanagar district, Karnataka, India"
        },
        "khanapur": {
            "locType": "town",
            "blogLinks": [
                "http://www.tripfactory.com/places/belgaum-attractions-india"
            ],
            "longitude": "74.5088917",
            "closest_to": "mangalore",
            "latitude": "15.639879",
            "address": "Khanapur, Khanapura taluku, Belgaum district, Karnataka, 591302, India"
        },
        "badami of karnataka": {
            "locType": "administrative",
            "blogLinks": [
                "http://www.mapsofindia.com/karnataka/tourism/"
            ],
            "longitude": "75.6419100722642",
            "closest_to": "mangalore",
            "latitude": "15.98301895",
            "address": "Badami taluku, Bagalkote district, Karnataka, India"
        },
        "dharwad": {
            "locType": "city",
            "blogLinks": [
                "https://www.yatra.com/india-tourism/karnataka"
            ],
            "longitude": "75.0066516",
            "closest_to": "mangalore",
            "latitude": "15.4540505",
            "address": "Dharwad, Dharawada taluku, Dharwad district, Karnataka, 580001, India"
        },
        "mangalore": {
            "locType": "city",
            "blogLinks": [
                "https://www.yatra.com/india-tourism/karnataka",
                "http://praveenpn.com/blog/2011/01/05/bangalore-to-goa-by-car/",
                "http://www.nivalink.com/destination/dharmasthala",
                "http://wikitravel.org/en/Karnataka",
                "http://travel.india.com/explore/wildlife-sanctuaries-in-karnataka/",
                "http://www.ixigo.com/by-train-rail/mangalore-to-belgaum-by-train",
                "https://www.makemytrip.com/bus-tickets/bangalore-belgaum-booking.html",
                "http://www.mapsofindia.com/karnataka/tourism/",
                "http://www.karnatakatourism.org/"
            ],
            "longitude": "74.8430082",
            "closest_to": "mangalore",
            "latitude": "12.8698101",
            "address": "Mangaluru, Mangaluru taluk, Dakshina Kannada, Karnataka, 575001, India"
        },
        "amboli": {
            "locType": "village",
            "blogLinks": [
                "http://www.nivalink.com/destination/belgaum"
            ],
            "longitude": "74.4340839",
            "closest_to": "mangalore",
            "latitude": "15.6456171",
            "address": "Amboli, Khanapura taluku, Belgaum district, Karnataka, India"
        },
        "ooty-mysore": {
            "locType": "primary",
            "blogLinks": [
                "http://travel.india.com/explore/wildlife-sanctuaries-in-karnataka/"
            ],
            "longitude": "76.6586807",
            "closest_to": "mangalore",
            "latitude": "12.2774807",
            "address": "Ooty Road, Vidyaranyapuram, Mysuru, Mysuru taluk, Mysuru district, Karnataka, 570001, India"
        },
        "gokak": {
            "locType": "town",
            "blogLinks": [
                "http://www.nivalink.com/destination/belgaum"
            ],
            "longitude": "74.8224338",
            "closest_to": "mangalore",
            "latitude": "16.1693033",
            "address": "Gokak, Gokak taluku, Belgaum district, Karnataka, 591307, India"
        },
        "tumakuru": {
            "locType": "county",
            "blogLinks": [
                "http://wikitravel.org/en/Karnataka"
            ],
            "longitude": "77.0002445",
            "closest_to": "mangalore",
            "latitude": "13.4999406",
            "address": "Tumakuru, Tumkur district, Karnataka, India"
        },
        "kudremukh": {
            "locType": "village",
            "blogLinks": [
                "http://travel.india.com/explore/wildlife-sanctuaries-in-karnataka/"
            ],
            "longitude": "75.2523304",
            "closest_to": "mangalore",
            "latitude": "13.2144007",
            "address": "Kudremukha, Mudigere taluk, Chikkamagaluru district, Karnataka, India"
        },
        "anshi national park": {
            "locType": "national_park",
            "blogLinks": [
                "http://wikitravel.org/en/Karnataka",
                "http://www.tripfactory.com/places/belgaum-attractions-india",
                "http://travel.india.com/explore/wildlife-sanctuaries-in-karnataka/"
            ],
            "longitude": "74.3934408094182",
            "closest_to": "mangalore",
            "latitude": "14.9994424",
            "address": "Anshi National Park, SH46, Bidoli, Joida taluk, Uttara Kannada, Karnataka, India"
        },
        "chennakesava temple": {
            "locType": "place_of_worship",
            "blogLinks": [
                "http://www.mapsofindia.com/karnataka/tourism/"
            ],
            "longitude": "75.8603311",
            "closest_to": "mangalore",
            "latitude": "13.1629239",
            "address": "Chennakesava Temple, NH73, Navilahalli, Beluru taluk, Hassan district, Karnataka, India"
        },
        "state of karnataka": {
            "locType": "yes",
            "blogLinks": [
                "https://www.makemytrip.com/bus-tickets/bangalore-belgaum-booking.html"
            ],
            "longitude": "77.5804711120667",
            "closest_to": "mangalore",
            "latitude": "12.97300875",
            "address": "State Bank of Mysore, Kempe Gowda Road, Balepet, Gandhinagar, Bengaluru, Bangalore Urban, Karnataka, 560001, India"
        },
        "silent valley": {
            "locType": "hotel",
            "blogLinks": [
                "http://travel.india.com/explore/wildlife-sanctuaries-in-karnataka/"
            ],
            "longitude": "76.5819054",
            "closest_to": "mangalore",
            "latitude": "12.3459371",
            "address": "Silent Shores Resort, Krishnaraja Sagara Road, Kurgalli, Bastipura, Srirangapattana taluk, Mandya district, Karnataka, 570027, India"
        },
        "ragihalli": {
            "locType": "village",
            "blogLinks": [
                "http://travel.india.com/explore/wildlife-sanctuaries-in-karnataka/"
            ],
            "longitude": "77.5745803",
            "closest_to": "mangalore",
            "latitude": "12.7386426",
            "address": "Ragihalli, Bangalore Urban, Karnataka, India"
        },
        "chitradurga": {
            "locType": "town",
            "blogLinks": [
                "https://www.yatra.com/india-tourism/karnataka"
            ],
            "longitude": "76.4005122",
            "closest_to": "mangalore",
            "latitude": "14.2266443",
            "address": "Chitradurga, Chitradurga taluku, Chitradurga district, Karnataka, 577500, India"
        },
        "honnavar": {
            "locType": "town",
            "blogLinks": [
                "http://praveenpn.com/blog/2011/01/05/bangalore-to-goa-by-car/"
            ],
            "longitude": "74.4446716",
            "closest_to": "mangalore",
            "latitude": "14.2810827",
            "address": "Honnavar, Honnavara taluku, Uttara Kannada, Karnataka, 581334, India"
        },
        "kalaseshwara temple": {
            "locType": "place_of_worship",
            "blogLinks": [
                "http://www.nivalink.com/destination/dharmasthala"
            ],
            "longitude": "75.363446975",
            "closest_to": "mangalore",
            "latitude": "13.23228505",
            "address": "Kalaseshwara Temple, SH66, Kalasa, Mudigere taluk, Chikkamagaluru district, Karnataka, 577124, India"
        },
        "chamarajanagar": {
            "locType": "station",
            "blogLinks": [
                "http://wikitravel.org/en/Karnataka"
            ],
            "longitude": "76.9331345",
            "closest_to": "mangalore",
            "latitude": "11.9346624",
            "address": "Chamarajanagar, Nanjangudu-Chamarajanagar Road, Kadahalli, Chamarajanagara taluk, Chamarajanagar district, Karnataka, 571313, India"
        },
        "keladi": {
            "locType": "village",
            "blogLinks": [
                "http://www.holidayiq.com/Shimoga-Sightseeing-748.html"
            ],
            "longitude": "75.0165753",
            "closest_to": "mangalore",
            "latitude": "14.2214761",
            "address": "Keladi, Sagara taluk, Shimoga district, Karnataka, India"
        },
        "panaji": {
            "locType": "trunk",
            "blogLinks": [
                "https://www.makemytrip.com/bus-tickets/bangalore-belgaum-booking.html"
            ],
            "longitude": "74.4876784",
            "closest_to": "mangalore",
            "latitude": "15.4422981",
            "address": "Belgaum - Panaji Highway, Londa, Khanapura taluku, Belgaum district, Karnataka, India"
        },
        "dharmasthala": {
            "locType": "village",
            "blogLinks": [
                "http://www.nivalink.com/destination/dharmasthala"
            ],
            "longitude": "75.3813122",
            "closest_to": "mangalore",
            "latitude": "12.9519571",
            "address": "Dharmasthala, Beltangadi taluk, Dakshina Kannada, Karnataka, 574216, India"
        },
        "bayalu": {
            "locType": "bus_stop",
            "blogLinks": [
                "http://wikitravel.org/en/Karnataka"
            ],
            "longitude": "76.9556812",
            "closest_to": "mangalore",
            "latitude": "13.3132761",
            "address": "Bayalu Anjaneya Temple Stop, NH73, Singonahalli, Gubbi taluk, Tumkur district, Karnataka, 572216, India"
        },
        "dharmasthala of karnataka": {
            "locType": "village",
            "blogLinks": [
                "http://www.nivalink.com/destination/dharmasthala"
            ],
            "longitude": "75.3813122",
            "closest_to": "mangalore",
            "latitude": "12.9519571",
            "address": "Dharmasthala, Beltangadi taluk, Dakshina Kannada, Karnataka, 574216, India"
        },
        "ballari": {
            "locType": "city",
            "blogLinks": [
                "http://travel.india.com/explore/wildlife-sanctuaries-in-karnataka/"
            ],
            "longitude": "76.9125211",
            "closest_to": "mangalore",
            "latitude": "15.1467299",
            "address": "Ballari, Bellary taluk, Bellary district, Karnataka, India"
        },
        "belgaum": {
            "locType": "county",
            "blogLinks": [
                "https://www.makemytrip.com/bus-tickets/bangalore-belgaum-booking.html",
                "https://www.keralaholidays.com/Destinations/Belgaum.htm",
                "http://www.tripfactory.com/places/belgaum-attractions-india",
                "http://www.nivalink.com/destination/belgaum",
                "http://www.ixigo.com/by-train-rail/mangalore-to-belgaum-by-train"
            ],
            "longitude": "74.75",
            "closest_to": "mangalore",
            "latitude": "16.333333",
            "address": "Belgaum, Belgaum district, Karnataka, India"
        },
        "shimoga district of karnataka": {
            "locType": "administrative",
            "blogLinks": [
                "http://www.holidayiq.com/Shimoga-Sightseeing-748.html"
            ],
            "longitude": "75.1312533993886",
            "closest_to": "mangalore",
            "latitude": "14.0558284",
            "address": "Shimoga district, Karnataka, India"
        },
        "ghataprabha river": {
            "locType": "river",
            "blogLinks": [
                "http://www.tripfactory.com/places/belgaum-attractions-india"
            ],
            "longitude": "74.9165235",
            "closest_to": "mangalore",
            "latitude": "16.2124344",
            "address": "Ghataprabha, Gokak taluku, Belgaum district, Karnataka, India"
        },
        "brahmagiri": {
            "locType": "peak",
            "blogLinks": [
                "http://wikitravel.org/en/Karnataka"
            ],
            "longitude": "75.490746",
            "closest_to": "mangalore",
            "latitude": "12.3868578",
            "address": "Brahmagiri, Madikeri taluku, Kodagu, Karnataka, India"
        },
        "cubbon park": {
            "locType": "station",
            "blogLinks": [
                "http://www.mapsofindia.com/karnataka/tourism/",
                "https://www.yatra.com/india-tourism/karnataka"
            ],
            "longitude": "77.5977565",
            "closest_to": "mangalore",
            "latitude": "12.9808487",
            "address": "Cubbon Park, Cubbon Road, Tasker Town, Shivajinagar, Bengaluru, Bangalore Urban, Karnataka, 560001, India"
        },
        "netrani island": {
            "locType": "island",
            "blogLinks": [
                "http://wikitravel.org/en/Karnataka"
            ],
            "longitude": "74.3272086675849",
            "closest_to": "mangalore",
            "latitude": "14.0174924",
            "address": "Netrani, Uttara Kannada, Karnataka, India"
        },
        "brindavan gardens": {
            "locType": "garden",
            "blogLinks": [
                "https://www.makemytrip.com/bus-tickets/bangalore-belgaum-booking.html"
            ],
            "longitude": "76.5741029405883",
            "closest_to": "mangalore",
            "latitude": "12.4208084",
            "address": "Brindavan Gardens, Krishnaraja Sagara Road, Krushnarajasagara, Srirangapattana taluk, Mandya district, Karnataka, India"
        },
        "bombay": {
            "locType": "cafe",
            "blogLinks": [
                "http://wikitravel.org/en/Karnataka"
            ],
            "longitude": "77.5500256",
            "closest_to": "mangalore",
            "latitude": "12.9632318",
            "address": "Bombay tea hotel, Hosahalli Main Road, Rajajinagar 6th Block, Goripalya, Bengaluru, Bangalore Urban, Karnataka, 560001, India"
        },
        "yellamma": {
            "locType": "industrial",
            "blogLinks": [
                "https://www.keralaholidays.com/Destinations/Belgaum.htm"
            ],
            "longitude": "75.959986215",
            "closest_to": "mangalore",
            "latitude": "14.39927745",
            "address": "NTC - Yellamma Mills Area, Tolahunase, Davanagere taluku, Davanagere district, Karnataka, 577003, India"
        },
        "hong kong": {
            "locType": "restaurant",
            "blogLinks": [
                "https://www.yatra.com/india-tourism/karnataka"
            ],
            "longitude": "77.6768991",
            "closest_to": "mangalore",
            "latitude": "13.020749",
            "address": "Hong Kong Noodles, Kalkere Main road, Ramamurthy Nagar, Varanasi, Bangalore Urban, Karnataka, 600042, India"
        },
        "bankapura": {
            "locType": "town",
            "blogLinks": [
                "http://praveenpn.com/blog/2011/01/05/bangalore-to-goa-by-car/"
            ],
            "longitude": "75.2639298",
            "closest_to": "mangalore",
            "latitude": "14.9217443",
            "address": "Bankapura, Shiggaon taluk, Haveri district, Karnataka, 581202, India"
        },
        "middle east": {
            "locType": "school",
            "blogLinks": [
                "https://www.yatra.com/india-tourism/karnataka"
            ],
            "longitude": "77.3394684",
            "closest_to": "mangalore",
            "latitude": "13.1487605",
            "address": "Government Middle And Primary School, NH48, Dodderi, Nelamangala taluk, Bangalore Rural, Karnataka, India"
        },
        "belgaum railway station": {
            "locType": "station",
            "blogLinks": [
                "https://www.makemytrip.com/bus-tickets/bangalore-belgaum-booking.html"
            ],
            "longitude": "74.509065",
            "closest_to": "mangalore",
            "latitude": "15.8489677",
            "address": "Belgaum, Belgaum - Panaji Highway, Cantonment, Belagavi, Belagavi taluku, Belgaum district, Karnataka, 590001, India"
        },
        "venkatappa art gallery": {
            "locType": "museum",
            "blogLinks": [
                "http://www.mapsofindia.com/karnataka/tourism/"
            ],
            "longitude": "77.5952077",
            "closest_to": "mangalore",
            "latitude": "12.9742592",
            "address": "Venkatappa Art Gallery, Kasturba Road, Shantala Nagar, MacIvor Town, Bengaluru, Bangalore Urban, Karnataka, 560001, India"
        },
        "dubai": {
            "locType": "gift",
            "blogLinks": [
                "https://www.yatra.com/india-tourism/karnataka"
            ],
            "longitude": "77.6067717",
            "closest_to": "mangalore",
            "latitude": "12.9737065",
            "address": "Dubai Plaza, Rest House Road, Shantala Nagar, Ashok Nagar, Bengaluru, Bangalore Urban, Karnataka, 560001, India"
        },
        "india": {
            "locType": "administrative",
            "blogLinks": [
                "https://www.yatra.com/india-tourism/karnataka",
                "http://praveenpn.com/blog/2011/01/05/bangalore-to-goa-by-car/",
                "https://www.keralaholidays.com/Destinations/Belgaum.htm",
                "http://www.tripfactory.com/places/belgaum-attractions-india",
                "http://wikitravel.org/en/Karnataka",
                "http://travel.india.com/explore/wildlife-sanctuaries-in-karnataka/",
                "https://www.makemytrip.com/bus-tickets/bangalore-belgaum-booking.html",
                "http://www.mapsofindia.com/karnataka/tourism/",
                "http://www.holidayiq.com/Shimoga-Sightseeing-748.html"
            ],
            "longitude": "75.7223521",
            "closest_to": "mangalore",
            "latitude": "14.5203896",
            "address": "Karnataka, India"
        },
        "bankapur": {
            "locType": "town",
            "blogLinks": [
                "http://praveenpn.com/blog/2011/01/05/bangalore-to-goa-by-car/"
            ],
            "longitude": "75.2639298",
            "closest_to": "mangalore",
            "latitude": "14.9217443",
            "address": "Bankapura, Shiggaon taluk, Haveri district, Karnataka, 581202, India"
        },
        "hoysala": {
            "locType": "administrative",
            "blogLinks": [
                "http://www.mapsofindia.com/karnataka/tourism/"
            ],
            "longitude": "77.6375990817051",
            "closest_to": "mangalore",
            "latitude": "12.97813815",
            "address": "Hoysala Nagar, Bengaluru, Bangalore Urban, Karnataka, 560001, India"
        },
        "ranganathittu bird sanctuary": {
            "locType": "attraction",
            "blogLinks": [
                "https://www.yatra.com/india-tourism/karnataka"
            ],
            "longitude": "76.6553081",
            "closest_to": "mangalore",
            "latitude": "12.4238524",
            "address": "Ranganathittu Bird Sanctuary, SH154, Palahalli, Srirangapattana taluk, Mandya district, Karnataka, 571438, India"
        },
        "kamalapur": {
            "locType": "yes",
            "blogLinks": [
                "http://travel.india.com/explore/wildlife-sanctuaries-in-karnataka/"
            ],
            "longitude": "75.003629911571",
            "closest_to": "mangalore",
            "latitude": "15.4456282",
            "address": "Kamalapur Nursing Home, Station Road, Kalyana nagar, Gandhinagar, Dharwad, Dharawada taluku, Dharwad district, Karnataka, 580001, India"
        },
        "kudremukh national park": {
            "locType": "national_park",
            "blogLinks": [
                "http://travel.india.com/explore/wildlife-sanctuaries-in-karnataka/"
            ],
            "longitude": "75.1828713712862",
            "closest_to": "mangalore",
            "latitude": "13.25397485",
            "address": "Kudremukh National Park, SH66, Sringeri taluku, Chikkamagaluru district, Karnataka, India"
        },
        "hosur": {
            "locType": "village",
            "blogLinks": [
                "https://www.makemytrip.com/bus-tickets/bangalore-belgaum-booking.html"
            ],
            "longitude": "75.1035836",
            "closest_to": "mangalore",
            "latitude": "14.6526995",
            "address": "Hosur, Hanagal taluk, Haveri district, Karnataka, India"
        },
        "hosapete": {
            "locType": "town",
            "blogLinks": [
                "http://wikitravel.org/en/Karnataka"
            ],
            "longitude": "76.3870527",
            "closest_to": "mangalore",
            "latitude": "15.266079",
            "address": "Hosapete, Hosapete taluk, Bellary district, Karnataka, 583200, India"
        },
        "makalidurga": {
            "locType": "peak",
            "blogLinks": [
                "http://wikitravel.org/en/Karnataka"
            ],
            "longitude": "77.5032241",
            "closest_to": "mangalore",
            "latitude": "13.4330139",
            "address": "Makalidurga, Doddaballapura taluk, Bangalore Rural, Karnataka, India"
        },
        "mandovi river": {
            "locType": "car",
            "blogLinks": [
                "http://www.nivalink.com/destination/belgaum"
            ],
            "longitude": "77.6190505",
            "closest_to": "mangalore",
            "latitude": "12.9965335",
            "address": "Mandovi Motors, Wheeler Road Flyover, MSO Colony, Cox Town, Bengaluru, Bangalore Urban, Karnataka, 560001, India"
        },
        "moyar": {
            "locType": "viewpoint",
            "blogLinks": [
                "http://travel.india.com/explore/wildlife-sanctuaries-in-karnataka/"
            ],
            "longitude": "76.631118",
            "closest_to": "mangalore",
            "latitude": "11.6161121",
            "address": "Moyar Gorge, Gundlupet - Coimbatore Highway, Bandipur, Gundlupet taluk, Chamarajanagar district, Karnataka, India"
        },
        "bangalore international": {
            "locType": "school",
            "blogLinks": [
                "http://travel.india.com/explore/wildlife-sanctuaries-in-karnataka/"
            ],
            "longitude": "77.6467233975225",
            "closest_to": "mangalore",
            "latitude": "13.0471784",
            "address": "Bangalore International School, Hennur Bagalur Road, Poojappa Layout, Agara, Geddalahalli, Bangalore Urban, Karnataka, 560 077, India"
        },
        "maharashtra": {
            "locType": "bank",
            "blogLinks": [
                "http://wikitravel.org/en/Karnataka",
                "http://www.nivalink.com/destination/belgaum",
                "https://www.yatra.com/india-tourism/karnataka"
            ],
            "longitude": "77.5856013",
            "closest_to": "mangalore",
            "latitude": "12.9049455",
            "address": "Bank of Maharashtra, 24th Main, K R Layout, Puttenahalli, Bengaluru, Bangalore Urban, Karnataka, 560001, India"
        },
        "sagara": {
            "locType": "town",
            "blogLinks": [
                "http://www.holidayiq.com/Shimoga-Sightseeing-748.html"
            ],
            "longitude": "75.0262551",
            "closest_to": "mangalore",
            "latitude": "14.1666594",
            "address": "Sagara, Sagara taluk, Shimoga district, Karnataka, 577400, India"
        },
        "maharastra": {
            "locType": "atm",
            "blogLinks": [
                "http://praveenpn.com/blog/2011/01/05/bangalore-to-goa-by-car/"
            ],
            "longitude": "77.606263",
            "closest_to": "mangalore",
            "latitude": "12.9132591",
            "address": "Maharastra Bank, 7th Main Road, BTM Layout 2nd Stage, BTM Layout, Bengaluru, Bangalore Urban, Karnataka, 560001, India"
        },
        "southern india": {
            "locType": "commercial",
            "blogLinks": [
                "http://wikitravel.org/en/Karnataka",
                "https://www.yatra.com/india-tourism/karnataka"
            ],
            "longitude": "77.6227757667762",
            "closest_to": "mangalore",
            "latitude": "12.92588785",
            "address": "Survey Of India - Southern Zone, Madivala, Bengaluru, Bangalore Urban, Karnataka, 560001, India"
        },
        "ganesha temple": {
            "locType": "place_of_worship",
            "blogLinks": [
                "http://www.tripfactory.com/places/belgaum-attractions-india"
            ],
            "longitude": "77.5598029",
            "closest_to": "mangalore",
            "latitude": "13.0683712",
            "address": "Ganesha temple, Vidyaranyapura Road, BEL Colony, Doddabomasandra, Bengaluru, Bangalore Urban, Karnataka, 560097, India"
        },
        "polali": {
            "locType": "village",
            "blogLinks": [
                "http://wikitravel.org/en/Karnataka"
            ],
            "longitude": "74.9556474",
            "closest_to": "mangalore",
            "latitude": "12.9329153",
            "address": "Polali, Bantwal taluk, Dakshina Kannada, Karnataka, India"
        },
        "goa": {
            "locType": "restaurant",
            "blogLinks": [
                "http://praveenpn.com/blog/2011/01/05/bangalore-to-goa-by-car/",
                "https://www.makemytrip.com/bus-tickets/bangalore-belgaum-booking.html",
                "http://wikitravel.org/en/Karnataka",
                "http://travel.india.com/explore/wildlife-sanctuaries-in-karnataka/",
                "http://www.nivalink.com/destination/belgaum"
            ],
            "longitude": "77.6200027",
            "closest_to": "mangalore",
            "latitude": "12.9750047",
            "address": "Carnival De Goa, Bhaskaran Road, Gupta Layout, Halasuru, Bengaluru, Bangalore Urban, Karnataka, 560001, India"
        },
        "udipi": {
            "locType": "restaurant",
            "blogLinks": [
                "http://www.nivalink.com/destination/dharmasthala"
            ],
            "longitude": "77.652888",
            "closest_to": "mangalore",
            "latitude": "12.9530588",
            "address": "Udipi Park, 2nd Cross Road, Muniyappa Layout, Murugeshpalaya, Belure Ambedkar Nagar, Bangalore Urban, Karnataka, 560067, India"
        },
        "jamboti": {
            "locType": "village",
            "blogLinks": [
                "https://www.keralaholidays.com/Destinations/Belgaum.htm",
                "http://www.tripfactory.com/places/belgaum-attractions-india"
            ],
            "longitude": "74.3676891",
            "closest_to": "mangalore",
            "latitude": "15.6898767",
            "address": "Jamboti, Khanapura taluku, Belgaum district, Karnataka, India"
        },
        "singapore": {
            "locType": "neighbourhood",
            "blogLinks": [
                "https://www.yatra.com/india-tourism/karnataka"
            ],
            "longitude": "77.5483703",
            "closest_to": "mangalore",
            "latitude": "12.8861812",
            "address": "Singapore Gardens, Vajrahalli, Bengaluru, Bangalore Urban, Karnataka, 560001, India"
        },
        "bannerghatta national park": {
            "locType": "national_park",
            "blogLinks": [
                "https://www.makemytrip.com/bus-tickets/bangalore-belgaum-booking.html"
            ],
            "longitude": "77.5722783830694",
            "closest_to": "mangalore",
            "latitude": "12.77900335",
            "address": "Bannerghatta National Park, Anekal Road, Begihalli, Bangalore Urban, Karnataka, 560076, India"
        },
        "sagar road": {
            "locType": "trunk",
            "blogLinks": [
                "http://www.holidayiq.com/Shimoga-Sightseeing-748.html"
            ],
            "longitude": "75.2002048",
            "closest_to": "mangalore",
            "latitude": "14.0904271",
            "address": "Sagar Road, Anandapura, Sagara taluk, Shimoga district, Karnataka, 577412, India"
        },
        "dandeli": {
            "locType": "town",
            "blogLinks": [
                "http://travel.india.com/explore/wildlife-sanctuaries-in-karnataka/"
            ],
            "longitude": "74.6236037",
            "closest_to": "mangalore",
            "latitude": "15.2490284",
            "address": "Dandeli, Haliyala taluku, Uttara Kannada, Karnataka, 581325, India"
        },
        "hubli": {
            "locType": "city",
            "blogLinks": [
                "http://www.nivalink.com/destination/belgaum",
                "https://www.yatra.com/india-tourism/karnataka",
                "http://praveenpn.com/blog/2011/01/05/bangalore-to-goa-by-car/",
                "http://wikitravel.org/en/Karnataka",
                "http://travel.india.com/explore/wildlife-sanctuaries-in-karnataka/",
                "https://www.makemytrip.com/bus-tickets/bangalore-belgaum-booking.html"
            ],
            "longitude": "75.1379848",
            "closest_to": "mangalore",
            "latitude": "15.3518378",
            "address": "Hubballi - \u0cb9\u0cc1\u0cac\u0ccd\u0cac\u0cb3\u0ccd\u0cb3\u0cbf, Hubballi taluku, Dharwad district, Karnataka, 580020, India"
        },
        "tamil nadu": {
            "locType": "bank",
            "blogLinks": [
                "http://travel.india.com/explore/wildlife-sanctuaries-in-karnataka/",
                "https://www.yatra.com/india-tourism/karnataka"
            ],
            "longitude": "76.9514152",
            "closest_to": "mangalore",
            "latitude": "11.0025894",
            "address": "KARNATAKA BANK, Diwan Bhadur Road, Five Corner, RS Puram, Coimbatore, Coimbatore district, Tamil Nadu, 641001, India"
        },
        "bangalore palace": {
            "locType": "attraction",
            "blogLinks": [
                "https://www.yatra.com/india-tourism/karnataka"
            ],
            "longitude": "77.5920094892276",
            "closest_to": "mangalore",
            "latitude": "12.9985963",
            "address": "Bangalore Palace, Jayamahal Road, Jayamahal Extension, Jayamahal, Bengaluru, Bangalore Urban, Karnataka, 560001, India"
        },
        "vyasanakere": {
            "locType": "village",
            "blogLinks": [
                "http://travel.india.com/explore/wildlife-sanctuaries-in-karnataka/"
            ],
            "longitude": "76.3553916",
            "closest_to": "mangalore",
            "latitude": "15.1954023",
            "address": "Vyasanakere, Hosapete taluk, Bellary district, Karnataka, India"
        },
        "karnataka": {
            "locType": "atm",
            "blogLinks": [
                "http://www.nivalink.com/destination/belgaum",
                "https://www.yatra.com/india-tourism/karnataka",
                "http://www.tripfactory.com/places/belgaum-attractions-india",
                "http://www.nivalink.com/destination/dharmasthala",
                "http://wikitravel.org/en/Karnataka",
                "http://travel.india.com/explore/wildlife-sanctuaries-in-karnataka/",
                "https://www.triphobo.com/places/belgaum-india/belgaum-airport",
                "https://www.makemytrip.com/bus-tickets/bangalore-belgaum-booking.html",
                "http://www.mapsofindia.com/karnataka/tourism/",
                "http://www.holidayiq.com/Shimoga-Sightseeing-748.html",
                "http://www.karnatakatourism.org/"
            ],
            "longitude": "76.6639936",
            "closest_to": "mangalore",
            "latitude": "12.3084901",
            "address": "Karnataka, Shalivahana Road, Nazarbad, Mysuru, Mysuru taluk, Mysuru district, Karnataka, 570001, India"
        },
        "karavali": {
            "locType": "restaurant",
            "blogLinks": [
                "http://wikitravel.org/en/Karnataka"
            ],
            "longitude": "77.5535559",
            "closest_to": "mangalore",
            "latitude": "12.9306311",
            "address": "Karavali Lunch Home, 45, Kathriguppe Main Road, Seven Hills Layout, Kathriguppe, Bengaluru, Bangalore Urban, Karnataka, 560085, India"
        },
        "coastal karnataka": {
            "locType": "industrial",
            "blogLinks": [
                "http://www.nivalink.com/destination/dharmasthala"
            ],
            "longitude": "74.8137275833157",
            "closest_to": "mangalore",
            "latitude": "12.96014675",
            "address": "Bharat Petroleum Mangalore Coastal Installation, Baikampady, Mangaluru taluk, Dakshina Kannada, Karnataka, 575014, India"
        },
        "kudremukha": {
            "locType": "peak",
            "blogLinks": [
                "http://wikitravel.org/en/Karnataka"
            ],
            "longitude": "75.2748196",
            "closest_to": "mangalore",
            "latitude": "13.1255691",
            "address": "Kudremukha, Mudigere taluk, Chikkamagaluru district, Karnataka, India"
        },
        "pune": {
            "locType": "trunk",
            "blogLinks": [
                "https://www.makemytrip.com/bus-tickets/bangalore-belgaum-booking.html"
            ],
            "longitude": "76.9479122",
            "closest_to": "belgaum",
            "latitude": "17.8199745",
            "address": "Pune - Machilipatnam Highway, Kaudiyala, Basavakalyana taluku, Bidar district, Karnataka, India"
        },
        "hubli-karwar": {
            "locType": "trunk",
            "blogLinks": [
                "http://praveenpn.com/blog/2011/01/05/bangalore-to-goa-by-car/"
            ],
            "longitude": "76.36038",
            "closest_to": "mangalore",
            "latitude": "15.2639568",
            "address": "Hubli-Karwar Road, Amaravati, Hosapete taluk, Bellary district, Karnataka, 583225, India"
        },
        "nandi hills": {
            "locType": "hotel",
            "blogLinks": [
                "https://www.makemytrip.com/bus-tickets/bangalore-belgaum-booking.html",
                "http://www.mapsofindia.com/karnataka/tourism/",
                "http://wikitravel.org/en/Karnataka"
            ],
            "longitude": "77.7194741670394",
            "closest_to": "mangalore",
            "latitude": "13.268142",
            "address": "Nandi Upahara, Nandhi Hills Road, Kottige Thimmanahalli, Devanahalli taluk, Bangalore Rural, Karnataka, India"
        },
        "hubli karwar": {
            "locType": "trunk",
            "blogLinks": [
                "http://praveenpn.com/blog/2011/01/05/bangalore-to-goa-by-car/"
            ],
            "longitude": "76.36038",
            "closest_to": "mangalore",
            "latitude": "15.2639568",
            "address": "Hubli-Karwar Road, Amaravati, Hosapete taluk, Bellary district, Karnataka, 583225, India"
        },
        "hubli airport": {
            "locType": "aerodrome",
            "blogLinks": [
                "http://wikitravel.org/en/Karnataka"
            ],
            "longitude": "75.0860974",
            "closest_to": "mangalore",
            "latitude": "15.3598315",
            "address": "Hubli Airport, \u0c97\u0ccb\u0c95\u0cc1\u0cb2 \u0cb0\u0ccb\u0ca1\u0ccd, Padmaraj Nagar, Gokul, Hubballi taluku, Dharwad district, Karnataka, 580030, India"
        },
        "manjunatha swamy temple": {
            "locType": "place_of_worship",
            "blogLinks": [
                "http://www.nivalink.com/destination/dharmasthala"
            ],
            "longitude": "77.5640116772773",
            "closest_to": "mangalore",
            "latitude": "12.9211928",
            "address": "Devagiri Manjunatha Swamy Temple, 30th Cross, Jayanagar 8th Block, Banashankari 2nd Stage, Bengaluru, Bangalore Urban, Karnataka, 560001, India"
        },
        "tibet": {
            "locType": "supermarket",
            "blogLinks": [
                "http://wikitravel.org/en/Karnataka"
            ],
            "longitude": "77.6068828",
            "closest_to": "mangalore",
            "latitude": "12.9722398",
            "address": "Tibet Bazaar, Brigade Road, Tasker Town, Ashok Nagar, Bengaluru, Bangalore Urban, Karnataka, 560001, India"
        },
        "sorab": {
            "locType": "secondary",
            "blogLinks": [
                "http://www.holidayiq.com/Shimoga-Sightseeing-748.html"
            ],
            "longitude": "75.1114212",
            "closest_to": "mangalore",
            "latitude": "14.2779168",
            "address": "Sorab Ulavi Rd, Ulavi, Soraba taluk, Shimoga district, Karnataka, 577434, India"
        },
        "kannur": {
            "locType": "construction",
            "blogLinks": [
                "http://www.nivalink.com/destination/dharmasthala"
            ],
            "longitude": "74.8858161",
            "closest_to": "mangalore",
            "latitude": "12.8487602",
            "address": "Netravati bridge - Kannur Bypass Road (Proposed), Padil, Bajal, Mangaluru taluk, Dakshina Kannada, Karnataka, 575007, India"
        },
        "ulsoor lake": {
            "locType": "water",
            "blogLinks": [
                "http://www.mapsofindia.com/karnataka/tourism/"
            ],
            "longitude": "77.6191669052984",
            "closest_to": "mangalore",
            "latitude": "12.9823891",
            "address": "Halasuru lake, Annaswamy Mudaliar Road, Kothandram Layout, Halasuru, Bengaluru, Bangalore Urban, Karnataka, 560001, India"
        },
        "north kerala": {
            "locType": "restaurant",
            "blogLinks": [
                "http://www.nivalink.com/destination/dharmasthala"
            ],
            "longitude": "77.6382683",
            "closest_to": "mangalore",
            "latitude": "12.9726449",
            "address": "New Life Kerala Mess, Sai Baba Mandira Road, Mottappanapalaya, Indiranagar, Bengaluru, Bangalore Urban, Karnataka, 560001, India"
        }
    },
    "belgaum": {
        "osm_id": "316417174",
        "display_name": "Belgaum, Belgaum district, Karnataka, India",
        "importance": 0.65,
        "place_id": "1393576",
        "class": "place",
        "boundingbox": [
            "15.693333",
            "16.973333",
            "74.11",
            "75.39"
        ],
        "type": "county",
        "lon": "74.75",
        "licence": "Data \u00a9 OpenStreetMap contributors, ODbL 1.0. http://www.openstreetmap.org/copyright",
        "osm_type": "node",
        "lat": "16.333333",
        "icon": "https://nominatim.openstreetmap.org/images/mapicons/poi_boundary_administrative.p.20.png"
    },
    "mangalore": {
        "osm_id": "245612641",
        "display_name": "Mangaluru, Mangaluru taluk, Dakshina Kannada, Karnataka, 575001, India",
        "importance": 0.45,
        "place_id": "637002",
        "class": "place",
        "boundingbox": [
            "12.7098101",
            "13.0298101",
            "74.6830082",
            "75.0030082"
        ],
        "type": "city",
        "lon": "74.8430082",
        "licence": "Data \u00a9 OpenStreetMap contributors, ODbL 1.0. http://www.openstreetmap.org/copyright",
        "osm_type": "node",
        "lat": "12.8698101",
        "icon": "https://nominatim.openstreetmap.org/images/mapicons/poi_place_city.p.20.png"
    }
}