{
    "hampi": {
        "place_id": "2384737",
        "osm_id": "345110048",
        "icon": "https://nominatim.openstreetmap.org/images/mapicons/poi_place_village.p.20.png",
        "osm_type": "node",
        "licence": "Data \u00a9 OpenStreetMap contributors, ODbL 1.0. http://www.openstreetmap.org/copyright",
        "display_name": "Hampe, Hosapete taluk, Bellary district, Karnataka, 583239, India",
        "type": "village",
        "lon": "76.4606199",
        "boundingbox": [
            "15.3159769",
            "15.3559769",
            "76.4406199",
            "76.4806199"
        ],
        "importance": 0.375,
        "lat": "15.3359769",
        "class": "place"
    },
    "mentions": {
        "virupaksha temple": {
            "closest_to": "hampi",
            "address": "Virupaksha Temple, Hampi Bazaar, Hampe, Hosapete taluk, Bellary district, Karnataka, 583239, India",
            "longitude": "76.4587777156223",
            "latitude": "15.3351754",
            "blogLinks": [
                "http://www.mapsofindia.com/karnataka/places-to-visit-in-hampi.html",
                "http://www.holidayiq.com/Hampi-Sightseeing-370.html",
                "http://wikitravel.org/en/Hampi"
            ],
            "locType": "place_of_worship"
        },
        "badami": {
            "closest_to": "hampi",
            "address": "Badami, Badami taluku, Bagalkote district, Karnataka, 587200, India",
            "longitude": "75.6807865",
            "latitude": "15.9203874",
            "blogLinks": [
                "http://hampi.in/how-to-reach-hampi",
                "http://traveltriangle.com/blog/best-places-to-visit-in-karnataka/"
            ],
            "locType": "town"
        },
        "matanga hill": {
            "closest_to": "hampi",
            "address": "Matanga Hill, Hosapete taluk, Bellary district, Karnataka, India",
            "longitude": "76.4682314",
            "latitude": "15.3315267",
            "blogLinks": [
                "http://wikitravel.org/en/Hampi"
            ],
            "locType": "peak"
        },
        "belgaum": {
            "closest_to": "hampi",
            "address": "Belgaum, Belgaum district, Karnataka, India",
            "longitude": "74.75",
            "latitude": "16.333333",
            "blogLinks": [
                "http://hampi.in/how-to-reach-hampi",
                "http://www.nivalink.com/destination/belgaum"
            ],
            "locType": "county"
        },
        "yellamma": {
            "closest_to": "hampi",
            "address": "NTC - Yellamma Mills Area, Tolahunase, Davanagere taluku, Davanagere district, Karnataka, 577003, India",
            "longitude": "75.959986215",
            "latitude": "14.39927745",
            "blogLinks": [
                "https://www.tripoto.com/travel-guide/belgaum",
                "https://www.tripoto.com/weekend-getaways/from-belgaum"
            ],
            "locType": "industrial"
        },
        "gokul road": {
            "closest_to": "hampi",
            "address": "Gokul, Hubballi taluku, Dharwad district, Karnataka, India",
            "longitude": "75.0813826",
            "latitude": "15.3496233",
            "blogLinks": [
                "http://www.travelhaathi.com/hampi-travel-guide/"
            ],
            "locType": "village"
        },
        "tungabhadra river": {
            "closest_to": "hampi",
            "address": "Tungabhadra, Gangavati taluku, Koppal district, Karnataka, India",
            "longitude": "76.4931607",
            "latitude": "15.3446123",
            "blogLinks": [
                "http://traveltriangle.com/blog/best-places-to-visit-in-karnataka/",
                "https://www.makemytrip.com/blog/hampi-temples",
                "http://www.holidayiq.com/Hampi-Sightseeing-370.html",
                "http://www.mapsofindia.com/karnataka/hampi-travel.html",
                "http://www.nivalink.com/destination/hospet",
                "http://www.mapsofindia.com/karnataka/places-to-visit-in-hampi.html"
            ],
            "locType": "river"
        },
        "harsha": {
            "closest_to": "hampi",
            "address": "Harsha Ladies Corner, Hutti Main Road, Hutti Camp, Hatti, Lingasuguru taluku, Raichur district, Karnataka, 584115, India",
            "longitude": "76.661213",
            "latitude": "16.1927088",
            "blogLinks": [
                "http://wikitravel.org/en/Hubli"
            ],
            "locType": "variety_store"
        },
        "iceland": {
            "closest_to": "hampi",
            "address": "Iceland, Sardar Patel Road, Hosapete, Hosapete taluk, Bellary district, Karnataka, 583200, India",
            "longitude": "76.3885296",
            "latitude": "15.2760556",
            "blogLinks": [
                "http://wikitravel.org/en/Hampi"
            ],
            "locType": "restaurant"
        },
        "tungabadra dam": {
            "closest_to": "hampi",
            "address": "Tungabadra High Level Canal, Ballari, Bellary taluk, Bellary district, Karnataka, India",
            "longitude": "76.8686753",
            "latitude": "15.1764865",
            "blogLinks": [
                "http://wikitravel.org/en/Hampi"
            ],
            "locType": "canal"
        },
        "anshi national park": {
            "closest_to": "belgaum",
            "address": "Anshi National Park, SH46, Bidoli, Joida taluk, Uttara Kannada, Karnataka, India",
            "longitude": "74.3934408094182",
            "latitude": "14.9994424",
            "blogLinks": [
                "http://www.holidayiq.com/Dandeli-Sightseeing-345.html"
            ],
            "locType": "national_park"
        },
        "amboli": {
            "closest_to": "belgaum",
            "address": "Amboli, Khanapura taluku, Belgaum district, Karnataka, India",
            "longitude": "74.4340839",
            "latitude": "15.6456171",
            "blogLinks": [
                "http://www.nivalink.com/destination/belgaum"
            ],
            "locType": "village"
        },
        "gejjala mantapa": {
            "closest_to": "hampi",
            "address": "Gejjala Mantapa, Way to Vitthala Temple, Hampe, Hosapete taluk, Bellary district, Karnataka, 583239, India",
            "longitude": "76.4848482044349",
            "latitude": "15.33976025",
            "blogLinks": [
                "http://www.holidayiq.com/Hampi-Sightseeing-370.html"
            ],
            "locType": "ruins"
        },
        "river kaneri": {
            "closest_to": "belgaum",
            "address": "Kaneri, Joida taluk, Uttara Kannada, Karnataka, India",
            "longitude": "74.4834864",
            "latitude": "15.0680686",
            "blogLinks": [
                "http://www.holidayiq.com/Dandeli-Sightseeing-345.html"
            ],
            "locType": "river"
        },
        "malligi hotel": {
            "closest_to": "hampi",
            "address": "Hotel Malligi, 10/90, Hampi Road, Anantashayanagudi, Hosapete taluk, Bellary district, Karnataka, 583201, India",
            "longitude": "76.3929653074323",
            "latitude": "15.2730243",
            "blogLinks": [
                "http://www.mapsofindia.com/karnataka/hampi-travel.html"
            ],
            "locType": "hotel"
        },
        "dharwad": {
            "closest_to": "hampi",
            "address": "Dharwad, Dharawada taluku, Dharwad district, Karnataka, 580001, India",
            "longitude": "75.0066516",
            "latitude": "15.4540505",
            "blogLinks": [
                "http://wikitravel.org/en/Hubli",
                "http://www.travelhaathi.com/hampi-travel-guide/"
            ],
            "locType": "city"
        },
        "hubli airport": {
            "closest_to": "hampi",
            "address": "Hubli Airport, \u0c97\u0ccb\u0c95\u0cc1\u0cb2 \u0cb0\u0ccb\u0ca1\u0ccd, Padmaraj Nagar, Gokul, Hubballi taluku, Dharwad district, Karnataka, 580030, India",
            "longitude": "75.0860974",
            "latitude": "15.3598315",
            "blogLinks": [
                "http://traveltriangle.com/blog/best-places-to-visit-in-karnataka/",
                "http://www.travelhaathi.com/hampi-travel-guide/"
            ],
            "locType": "aerodrome"
        },
        "ulavi": {
            "closest_to": "hampi",
            "address": "Ulavi, Soraba taluk, Shimoga district, Karnataka, 577434, India",
            "longitude": "75.109001",
            "latitude": "14.2716118",
            "blogLinks": [
                "http://wikitravel.org/en/Hubli"
            ],
            "locType": "village"
        },
        "belgaum fort": {
            "closest_to": "belgaum",
            "address": "Belgaum Fort, Belagavi, Belagavi taluku, Belgaum district, Karnataka, 590001, India",
            "longitude": "74.5255651",
            "latitude": "15.8581696",
            "blogLinks": [
                "http://www.nivalink.com/destination/belgaum"
            ],
            "locType": "locality"
        },
        "nagajhari river": {
            "closest_to": "belgaum",
            "address": "Nagajhari School, Belgaum - Panaji Highway, Cantonment, Belagavi, Belagavi taluku, Belgaum district, Karnataka, 590001, India",
            "longitude": "74.5013412",
            "latitude": "15.8351706",
            "blogLinks": [
                "http://www.holidayiq.com/Dandeli-Sightseeing-345.html"
            ],
            "locType": "school"
        },
        "veerabhadra temple": {
            "closest_to": "hampi",
            "address": "Veerabhadra Temple, SH149, Taranalli, Chitapura taluku, Kalaburagi district, Karnataka, India",
            "longitude": "76.9293272",
            "latitude": "17.1417262",
            "blogLinks": [
                "http://www.holidayiq.com/Hampi-Sightseeing-370.html"
            ],
            "locType": "place_of_worship"
        },
        "virupapur": {
            "closest_to": "hampi",
            "address": "Government Lps Virupapur, Virupapura, Shahapura taluku, Yadagiri district, Karnataka, India",
            "longitude": "76.80057",
            "latitude": "16.65052",
            "blogLinks": [
                "http://wikitravel.org/en/Hampi"
            ],
            "locType": "school"
        },
        "khanapur": {
            "closest_to": "hampi",
            "address": "Khanapur, Khanapura taluku, Belgaum district, Karnataka, 591302, India",
            "longitude": "74.5088917",
            "latitude": "15.639879",
            "blogLinks": [
                "https://www.tripoto.com/travel-guide/belgaum",
                "https://www.tripoto.com/weekend-getaways/from-belgaum"
            ],
            "locType": "town"
        },
        "koppal": {
            "closest_to": "hampi",
            "address": "Koppala, Koppala taluku, Koppal district, Karnataka, 583231, India",
            "longitude": "76.1547421",
            "latitude": "15.3484144",
            "blogLinks": [
                "http://wikitravel.org/en/Hampi"
            ],
            "locType": "town"
        },
        "hemakuta": {
            "closest_to": "hampi",
            "address": "Hemakuta Hill, Hosapete taluk, Bellary district, Karnataka, India",
            "longitude": "76.4602971",
            "latitude": "15.332915",
            "blogLinks": [
                "http://www.holidayiq.com/Hampi-Sightseeing-370.html"
            ],
            "locType": "peak"
        },
        "hampi bazaar": {
            "closest_to": "hampi",
            "address": "Hampi Bazaar, Hampe, Hosapete taluk, Bellary district, Karnataka, 583239, India",
            "longitude": "76.4621571",
            "latitude": "15.3347585",
            "blogLinks": [
                "http://www.mapsofindia.com/karnataka/places-to-visit-in-hampi.html",
                "http://www.nivalink.com/destination/hospet",
                "http://wikitravel.org/en/Hampi"
            ],
            "locType": "unclassified"
        },
        "p.b rd": {
            "closest_to": "hampi",
            "address": "Pune Bangalore Road, Chanakya Puri, Old Hubli, Hubballi - \u0cb9\u0cc1\u0cac\u0ccd\u0cac\u0cb3\u0ccd\u0cb3\u0cbf, Hubballi taluku, Dharwad district, Karnataka, 580020, India",
            "longitude": "75.1368445",
            "latitude": "15.3416245",
            "blogLinks": [
                "http://wikitravel.org/en/Hubli"
            ],
            "locType": "primary"
        },
        "vijayapura": {
            "closest_to": "hampi",
            "address": "Vijayapura, Bijapur district, Karnataka, India",
            "longitude": "75.916667",
            "latitude": "16.666667",
            "blogLinks": [
                "http://www.distancesfrom.com/in/flight-distance-from-Belgaum-to-Hampi/FlightHistory/32720535.aspx",
                "http://www.holidayiq.com/Hampi-Sightseeing-370.html"
            ],
            "locType": "county"
        },
        "dandeli wildlife sanctuary": {
            "closest_to": "belgaum",
            "address": "Dandeli Wildlife Sanctuary, SH146, Terali, Joida taluk, Uttara Kannada, Karnataka, India",
            "longitude": "74.3665654142884",
            "latitude": "15.1654776",
            "blogLinks": [
                "http://www.holidayiq.com/Dandeli-Sightseeing-345.html"
            ],
            "locType": "national_park"
        },
        "river varada": {
            "closest_to": "hampi",
            "address": "Varada, Savanura taluk, Haveri district, Karnataka, India",
            "longitude": "75.47206",
            "latitude": "14.8717792",
            "blogLinks": [
                "http://traveltriangle.com/blog/best-places-to-visit-in-karnataka/"
            ],
            "locType": "river"
        },
        "hospet": {
            "closest_to": "hampi",
            "address": "Hosapete, Hosapete taluk, Bellary district, Karnataka, 583200, India",
            "longitude": "76.3870527",
            "latitude": "15.266079",
            "blogLinks": [
                "http://hampi.in/how-to-reach-hampi",
                "http://www.mapsofindia.com/karnataka/hampi-travel.html",
                "http://wikitravel.org/en/Hampi"
            ],
            "locType": "town"
        },
        "hospet junction": {
            "closest_to": "hampi",
            "address": "Hospet Junction, Station Road, Basavanada, Hosapete taluk, Bellary district, Karnataka, 583201, India",
            "longitude": "76.3869935",
            "latitude": "15.2865104",
            "blogLinks": [
                "https://www.makemytrip.com/blog/hampi-temples",
                "http://www.travelhaathi.com/hampi-travel-guide/",
                "http://wikitravel.org/en/Hampi"
            ],
            "locType": "station"
        },
        "anegondi": {
            "closest_to": "hampi",
            "address": "Anegundi, Gangavati taluku, Koppal district, Karnataka, India",
            "longitude": "76.4924232",
            "latitude": "15.3509583",
            "blogLinks": [
                "http://www.mapsofindia.com/karnataka/places-to-visit-in-hampi.html",
                "http://wikitravel.org/en/Hampi"
            ],
            "locType": "village"
        },
        "karwar": {
            "closest_to": "belgaum",
            "address": "Karwar, Karavara taluk, Uttara Kannada, Karnataka, 581300, India",
            "longitude": "74.1319229",
            "latitude": "14.8120931",
            "blogLinks": [
                "http://wikitravel.org/en/Hubli"
            ],
            "locType": "town"
        },
        "kittur": {
            "closest_to": "hampi",
            "address": "Kitturu, Bailahongala taluku, Belgaum district, Karnataka, 591115, India",
            "longitude": "74.7876971",
            "latitude": "15.5957166",
            "blogLinks": [
                "http://wikitravel.org/en/Hubli"
            ],
            "locType": "town"
        },
        "pattadakal": {
            "closest_to": "hampi",
            "address": "Pattadakal Temples, SH14, \u0cac\u0cbe\u0c9a\u0cbf\u0ca8\u0c97\u0cc1\u0ca1\u0ccd\u0ca1, Badami taluku, Bagalkote district, Karnataka, 587211, India",
            "longitude": "75.815884048161",
            "latitude": "15.9506349",
            "blogLinks": [
                "http://traveltriangle.com/blog/best-places-to-visit-in-karnataka/",
                "http://journeymart.com/de/india/karnataka/sightseeing/default.aspx"
            ],
            "locType": "attraction"
        },
        "river gurupura": {
            "closest_to": "hampi",
            "address": "Gurupura, Tarikere taluku, Chikkamagaluru district, Karnataka, India",
            "longitude": "75.7161587",
            "latitude": "13.6686411",
            "blogLinks": [
                "http://traveltriangle.com/blog/best-places-to-visit-in-karnataka/"
            ],
            "locType": "village"
        },
        "haliyal": {
            "closest_to": "hampi",
            "address": "Haliyal, Haliyala taluku, Uttara Kannada, Karnataka, 581329, India",
            "longitude": "74.7646665",
            "latitude": "15.3299733",
            "blogLinks": [
                "http://www.holidayiq.com/Dandeli-Sightseeing-345.html"
            ],
            "locType": "town"
        },
        "gokak": {
            "closest_to": "hampi",
            "address": "Gokak, Gokak taluku, Belgaum district, Karnataka, 591307, India",
            "longitude": "74.8224338",
            "latitude": "16.1693033",
            "blogLinks": [
                "http://www.nivalink.com/destination/belgaum"
            ],
            "locType": "town"
        },
        "diggi": {
            "closest_to": "hampi",
            "address": "Diggi, Shahapura taluku, Yadagiri district, Karnataka, India",
            "longitude": "76.8025595",
            "latitude": "16.7083137",
            "blogLinks": [
                "http://www.holidayiq.com/Dandeli-Sightseeing-345.html"
            ],
            "locType": "village"
        },
        "lakkundi": {
            "closest_to": "hampi",
            "address": "Lakkundi, Muddebihala taluku, Bijapur district, Karnataka, India",
            "longitude": "76.4084687",
            "latitude": "16.5255464",
            "blogLinks": [
                "http://www.holidayiq.com/Dandeli-Sightseeing-345.html"
            ],
            "locType": "village"
        },
        "tungabhadra": {
            "closest_to": "hampi",
            "address": "Tungabhadra, Gangavati taluku, Koppal district, Karnataka, India",
            "longitude": "76.4931607",
            "latitude": "15.3446123",
            "blogLinks": [
                "http://www.travelhaathi.com/hampi-travel-guide/",
                "http://www.nivalink.com/destination/hospet",
                "http://www.mapsofindia.com/karnataka/hampi-travel.html",
                "http://wikitravel.org/en/Hampi"
            ],
            "locType": "river"
        },
        "hampi": {
            "closest_to": "hampi",
            "address": "Hampe, Hosapete taluk, Bellary district, Karnataka, 583239, India",
            "longitude": "76.4606199",
            "latitude": "15.3359769",
            "blogLinks": [
                "http://hampi.in/how-to-reach-hampi",
                "http://traveltriangle.com/blog/best-places-to-visit-in-karnataka/",
                "http://wikitravel.org/en/Hubli",
                "http://journeymart.com/de/india/karnataka/sightseeing/default.aspx",
                "https://www.makemytrip.com/blog/hampi-temples",
                "http://www.holidayiq.com/Hampi-Sightseeing-370.html",
                "http://www.mapsofindia.com/karnataka/hampi-travel.html",
                "https://www.ixigo.com/from-by-road/belgaum-to-hampi-by-road",
                "https://www.ixigo.com/search/bus/Belgaum/Hampi/",
                "http://www.nivalink.com/destination/hospet",
                "http://www.distancesfrom.com/in/flight-distance-from-Belgaum-to-Hampi/FlightHistory/32720535.aspx",
                "http://wikitravel.org/en/Hampi",
                "http://www.mapsofindia.com/karnataka/places-to-visit-in-hampi.html",
                "http://www.travelhaathi.com/hampi-travel-guide/"
            ],
            "locType": "village"
        },
        "hazara rama temple": {
            "closest_to": "hampi",
            "address": "Hazara Rama Temple, Hampi Kamalapura Road, Kamalapura, Hosapete taluk, Bellary district, Karnataka, 583221, India",
            "longitude": "76.4687794",
            "latitude": "15.3178218",
            "blogLinks": [
                "http://www.nivalink.com/destination/belgaum",
                "http://wikitravel.org/en/Hampi"
            ],
            "locType": "place_of_worship"
        },
        "west of hubli": {
            "closest_to": "hampi",
            "address": "Hubballi - \u0cb9\u0cc1\u0cac\u0ccd\u0cac\u0cb3\u0ccd\u0cb3\u0cbf, Hubballi taluku, Dharwad district, Karnataka, 580020, India",
            "longitude": "75.1379848",
            "latitude": "15.3518378",
            "blogLinks": [
                "http://www.travelhaathi.com/hampi-travel-guide/"
            ],
            "locType": "city"
        },
        "vijayanagara": {
            "closest_to": "belgaum",
            "address": "Vijayanagara, Chikodi taluk, Belgaum district, Karnataka, India",
            "longitude": "74.7380455",
            "latitude": "16.3270486",
            "blogLinks": [
                "http://www.nivalink.com/destination/hospet"
            ],
            "locType": "village"
        },
        "hubli-dharwad road": {
            "closest_to": "hampi",
            "address": "Hubli Dharwad Road, Gandhinagar, Navalur, Dharawada taluku, Dharwad district, Karnataka, 580002, India",
            "longitude": "75.0366396",
            "latitude": "15.4231154",
            "blogLinks": [
                "http://wikitravel.org/en/Hubli"
            ],
            "locType": "primary"
        },
        "anegundi": {
            "closest_to": "hampi",
            "address": "Anegundi, Gangavati taluku, Koppal district, Karnataka, India",
            "longitude": "76.4924232",
            "latitude": "15.3509583",
            "blogLinks": [
                "http://www.mapsofindia.com/karnataka/hampi-travel.html",
                "http://wikitravel.org/en/Hampi"
            ],
            "locType": "village"
        },
        "hyatt place": {
            "closest_to": "hampi",
            "address": "Hyatt Place Hampi, Kudligi Road, Vaddu, Sanduru taluk, Bellary district, Karnataka, 583123, India",
            "longitude": "76.624310564536",
            "latitude": "15.1752269",
            "blogLinks": [
                "http://www.mapsofindia.com/karnataka/hampi-travel.html"
            ],
            "locType": "hotel"
        },
        "sanapur lake": {
            "closest_to": "hampi",
            "address": "Sanapura Kere, Sanapura, Gangavati taluku, Koppal district, Karnataka, India",
            "longitude": "76.4294274988777",
            "latitude": "15.35823095",
            "blogLinks": [
                "http://wikitravel.org/en/Hampi"
            ],
            "locType": "reservoir"
        },
        "panaji": {
            "closest_to": "hampi",
            "address": "Belgaum - Panaji Highway, Londa, Khanapura taluku, Belgaum district, Karnataka, India",
            "longitude": "74.4876784",
            "latitude": "15.4422981",
            "blogLinks": [
                "https://www.tripoto.com/travel-guide/belgaum",
                "https://www.tripoto.com/weekend-getaways/from-belgaum"
            ],
            "locType": "trunk"
        },
        "belgaum railway station": {
            "closest_to": "belgaum",
            "address": "Belgaum, Belgaum - Panaji Highway, Cantonment, Belagavi, Belagavi taluku, Belgaum district, Karnataka, 590001, India",
            "longitude": "74.509065",
            "latitude": "15.8489677",
            "blogLinks": [
                "https://www.makemytrip.com/blog/hampi-temples"
            ],
            "locType": "station"
        },
        "kali river": {
            "closest_to": "hampi",
            "address": "Kali, Joida taluk, Uttara Kannada, Karnataka, India",
            "longitude": "74.5802901",
            "latitude": "15.0145378",
            "blogLinks": [
                "http://traveltriangle.com/blog/best-places-to-visit-in-karnataka/"
            ],
            "locType": "river"
        },
        "south goa": {
            "closest_to": "belgaum",
            "address": "Karnataka bank, NH66, Aquem, Fatorda, Margao, South Goa, Goa, 403600, India",
            "longitude": "73.9583411",
            "latitude": "15.2740083",
            "blogLinks": [
                "https://www.tripoto.com/weekend-getaways/from-belgaum"
            ],
            "locType": "bank"
        },
        "hubli": {
            "closest_to": "hampi",
            "address": "Hubballi - \u0cb9\u0cc1\u0cac\u0ccd\u0cac\u0cb3\u0ccd\u0cb3\u0cbf, Hubballi taluku, Dharwad district, Karnataka, 580020, India",
            "longitude": "75.1379848",
            "latitude": "15.3518378",
            "blogLinks": [
                "http://hampi.in/how-to-reach-hampi",
                "http://wikitravel.org/en/Hubli",
                "http://www.nivalink.com/destination/belgaum",
                "http://www.mapsofindia.com/karnataka/hampi-travel.html",
                "http://www.nivalink.com/destination/hospet",
                "http://wikitravel.org/en/Hampi",
                "http://www.travelhaathi.com/hampi-travel-guide/"
            ],
            "locType": "city"
        },
        "kishkindha": {
            "closest_to": "hampi",
            "address": "Kishkindha, SH130, Basapura, Koppala taluku, Koppal district, Karnataka, India",
            "longitude": "76.4696373",
            "latitude": "15.3546186",
            "blogLinks": [
                "https://www.makemytrip.com/blog/hampi-temples"
            ],
            "locType": "place_of_worship"
        },
        "gokak falls": {
            "closest_to": "hampi",
            "address": "Gokak Falls, Gokak taluku, Belgaum district, Karnataka, India",
            "longitude": "74.7775947",
            "latitude": "16.1918383",
            "blogLinks": [
                "http://wikitravel.org/en/Hubli"
            ],
            "locType": "waterfall"
        },
        "gokarn": {
            "closest_to": "belgaum",
            "address": "Gokarna, Kumata taluk, Uttara Kannada, Karnataka, 581326, India",
            "longitude": "74.3184418",
            "latitude": "14.5439629",
            "blogLinks": [
                "http://wikitravel.org/en/Hubli"
            ],
            "locType": "town"
        },
        "bellary": {
            "closest_to": "hampi",
            "address": "Bellary, Bellary district, Karnataka, India",
            "longitude": "76.8323648",
            "latitude": "15.2485413",
            "blogLinks": [
                "http://www.mapsofindia.com/karnataka/places-to-visit-in-hampi.html",
                "http://www.travelhaathi.com/hampi-travel-guide/",
                "http://wikitravel.org/en/Hampi"
            ],
            "locType": "county"
        },
        "vidhyanagar": {
            "closest_to": "hampi",
            "address": "Vidhyanagar Road, Nituvalli, Davanagere, Davanagere taluku, Davanagere district, Karnataka, 577000, India",
            "longitude": "75.9176086",
            "latitude": "14.4416416",
            "blogLinks": [
                "http://wikitravel.org/en/Hubli"
            ],
            "locType": "tertiary"
        },
        "kalghatgi": {
            "closest_to": "hampi",
            "address": "Kalghatgi Road, Hindasageri, Kalaghatagi taluku, Dharwad district, Karnataka, 581204, India",
            "longitude": "75.0064745",
            "latitude": "15.1756059",
            "blogLinks": [
                "http://wikitravel.org/en/Hubli"
            ],
            "locType": "primary"
        },
        "airport road": {
            "closest_to": "hampi",
            "address": "Airport Road, Ballari, Bellary taluk, Bellary district, Karnataka, 583104, India",
            "longitude": "76.8995671",
            "latitude": "15.1581615",
            "blogLinks": [
                "http://wikitravel.org/en/Hubli"
            ],
            "locType": "secondary"
        },
        "chennamma circle": {
            "closest_to": "belgaum",
            "address": "Rani Chennamma Circle, Cantonment, Belagavi, Belagavi taluku, Belgaum district, Karnataka, 590001, India",
            "longitude": "74.511712864861",
            "latitude": "15.86722145",
            "blogLinks": [
                "http://wikitravel.org/en/Hubli"
            ],
            "locType": "trunk"
        },
        "margao": {
            "closest_to": "belgaum",
            "address": "Karnataka bank, NH66, Aquem, Fatorda, Margao, South Goa, Goa, 403600, India",
            "longitude": "73.9583411",
            "latitude": "15.2740083",
            "blogLinks": [
                "https://www.tripoto.com/weekend-getaways/from-belgaum",
                "http://wikitravel.org/en/Hampi"
            ],
            "locType": "bank"
        },
        "belgaum airport": {
            "closest_to": "hampi",
            "address": "Belgaum Airport, SH20, Balekundri, Belagavi taluku, Belgaum district, Karnataka, 591124, India",
            "longitude": "74.6189763983851",
            "latitude": "15.8602827",
            "blogLinks": [
                "http://traveltriangle.com/blog/best-places-to-visit-in-karnataka/"
            ],
            "locType": "aerodrome"
        },
        "kamalapur": {
            "closest_to": "hampi",
            "address": "Kamalapur Nursing Home, Station Road, Kalyana nagar, Gandhinagar, Dharwad, Dharawada taluku, Dharwad district, Karnataka, 580001, India",
            "longitude": "75.003629911571",
            "latitude": "15.4456282",
            "blogLinks": [
                "http://www.travelhaathi.com/hampi-travel-guide/",
                "http://wikitravel.org/en/Hampi"
            ],
            "locType": "yes"
        },
        "river kali": {
            "closest_to": "hampi",
            "address": "Kali, Joida taluk, Uttara Kannada, Karnataka, India",
            "longitude": "74.5802901",
            "latitude": "15.0145378",
            "blogLinks": [
                "http://traveltriangle.com/blog/best-places-to-visit-in-karnataka/",
                "http://www.holidayiq.com/Dandeli-Sightseeing-345.html"
            ],
            "locType": "river"
        },
        "bellary airport": {
            "closest_to": "hampi",
            "address": "Bellary Airport, Hosapete Road, Ballari, Bellary taluk, Bellary district, Karnataka, 583104, India",
            "longitude": "76.8813908",
            "latitude": "15.1615409",
            "blogLinks": [
                "http://traveltriangle.com/blog/best-places-to-visit-in-karnataka/"
            ],
            "locType": "aerodrome"
        },
        "anjenaya hill": {
            "closest_to": "hampi",
            "address": "Anjenaya temple, Jambunatha Traditional Temple Stairs, Rajapu, Hosapete taluk, Bellary district, Karnataka, 583200, India",
            "longitude": "76.4065341",
            "latitude": "15.2403311",
            "blogLinks": [
                "http://wikitravel.org/en/Hampi"
            ],
            "locType": "place_of_worship"
        },
        "p.b road": {
            "closest_to": "hampi",
            "address": "Pune Bangalore Road, Chanakya Puri, Old Hubli, Hubballi - \u0cb9\u0cc1\u0cac\u0ccd\u0cac\u0cb3\u0ccd\u0cb3\u0cbf, Hubballi taluku, Dharwad district, Karnataka, 580020, India",
            "longitude": "75.1368445",
            "latitude": "15.3416245",
            "blogLinks": [
                "http://wikitravel.org/en/Hubli"
            ],
            "locType": "primary"
        },
        "syntheri rock": {
            "closest_to": "hampi",
            "address": "Syntheri Rock, SH46, Kaneri, Joida taluk, Uttara Kannada, Karnataka, India",
            "longitude": "74.5242505",
            "latitude": "15.0846142",
            "blogLinks": [
                "http://www.holidayiq.com/Dandeli-Sightseeing-345.html"
            ],
            "locType": "attraction"
        },
        "bagewadi": {
            "closest_to": "belgaum",
            "address": "Bagewadi, Hukkeri taluku, Belgaum district, Karnataka, 591305, India",
            "longitude": "74.721498",
            "latitude": "16.300076",
            "blogLinks": [
                "http://wikitravel.org/en/Hubli"
            ],
            "locType": "village"
        },
        "kurnool": {
            "closest_to": "hampi",
            "address": "Karnataka Guest House, Jadcherla - Hagari Road, Kurnool, Andhra Pradesh, India",
            "longitude": "77.4217916",
            "latitude": "15.9394081",
            "blogLinks": [
                "http://www.nivalink.com/destination/hospet"
            ],
            "locType": "hotel"
        },
        "dandeli": {
            "closest_to": "hampi",
            "address": "Dandeli, Haliyala taluku, Uttara Kannada, Karnataka, 581325, India",
            "longitude": "74.6236037",
            "latitude": "15.2490284",
            "blogLinks": [
                "http://www.holidayiq.com/Dandeli-Sightseeing-345.html",
                "http://www.distancesfrom.com/in/flight-distance-from-Belgaum-to-Hampi/FlightHistory/32720535.aspx"
            ],
            "locType": "town"
        },
        "hemakuta hill": {
            "closest_to": "hampi",
            "address": "Hemakuta Hill, Hosapete taluk, Bellary district, Karnataka, India",
            "longitude": "76.4602971",
            "latitude": "15.332915",
            "blogLinks": [
                "http://www.travelhaathi.com/hampi-travel-guide/",
                "http://www.holidayiq.com/Hampi-Sightseeing-370.html",
                "http://wikitravel.org/en/Hampi"
            ],
            "locType": "peak"
        },
        "uttara kannada district": {
            "closest_to": "hampi",
            "address": "Uttara Kannada, Karnataka, India",
            "longitude": "74.583333",
            "latitude": "14.883333",
            "blogLinks": [
                "http://www.holidayiq.com/Dandeli-Sightseeing-345.html"
            ],
            "locType": "county"
        },
        "gokarna": {
            "closest_to": "belgaum",
            "address": "Gokarna, Kumata taluk, Uttara Kannada, Karnataka, 581326, India",
            "longitude": "74.3184418",
            "latitude": "14.5439629",
            "blogLinks": [
                "http://wikitravel.org/en/Hampi"
            ],
            "locType": "town"
        },
        "chitradurga": {
            "closest_to": "hampi",
            "address": "Chitradurga, Chitradurga taluku, Chitradurga district, Karnataka, 577500, India",
            "longitude": "76.4005122",
            "latitude": "14.2266443",
            "blogLinks": [
                "http://traveltriangle.com/blog/best-places-to-visit-in-karnataka/"
            ],
            "locType": "town"
        },
        "india": {
            "closest_to": "hampi",
            "address": "Karnataka, India",
            "longitude": "75.7223521",
            "latitude": "14.5203896",
            "blogLinks": [
                "http://hampi.in/how-to-reach-hampi",
                "http://traveltriangle.com/blog/best-places-to-visit-in-karnataka/",
                "http://wikitravel.org/en/Hubli",
                "https://www.tripoto.com/weekend-getaways/from-belgaum",
                "https://www.makemytrip.com/blog/hampi-temples",
                "http://www.mapsofindia.com/karnataka/hampi-travel.html",
                "https://www.ixigo.com/search/bus/Belgaum/Hampi/",
                "http://www.nivalink.com/destination/hospet",
                "http://www.distancesfrom.com/in/flight-distance-from-Belgaum-to-Hampi/FlightHistory/32720535.aspx",
                "http://wikitravel.org/en/Hampi",
                "https://www.tripoto.com/travel-guide/belgaum",
                "http://www.mapsofindia.com/karnataka/places-to-visit-in-hampi.html",
                "http://www.travelhaathi.com/hampi-travel-guide/"
            ],
            "locType": "administrative"
        },
        "gokak valley": {
            "closest_to": "hampi",
            "address": "Gokak taluku, Belgaum district, Karnataka, India",
            "longitude": "74.9081935587317",
            "latitude": "16.167464",
            "blogLinks": [
                "https://www.tripoto.com/travel-guide/belgaum",
                "https://www.tripoto.com/weekend-getaways/from-belgaum"
            ],
            "locType": "administrative"
        }
    },
    "belgaum": {
        "place_id": "1393576",
        "osm_id": "316417174",
        "icon": "https://nominatim.openstreetmap.org/images/mapicons/poi_boundary_administrative.p.20.png",
        "osm_type": "node",
        "licence": "Data \u00a9 OpenStreetMap contributors, ODbL 1.0. http://www.openstreetmap.org/copyright",
        "display_name": "Belgaum, Belgaum district, Karnataka, India",
        "type": "county",
        "lon": "74.75",
        "boundingbox": [
            "15.693333",
            "16.973333",
            "74.11",
            "75.39"
        ],
        "importance": 0.65,
        "lat": "16.333333",
        "class": "place"
    }
}