{
    "mentions": {
        "bijapur": {
            "locType": "city",
            "blogLinks": [
                "http://www.indianholiday.com/karnataka/climate-in-karnataka.html",
                "https://www.quora.com/What-are-the-best-places-to-visit-in-Karnataka-India",
                "http://www.tourism-of-india.com/karnataka/"
            ],
            "longitude": "75.7175387",
            "closest_to": "nandi hills",
            "latitude": "16.8269911",
            "address": "Vijayapura, Vijayapura taluk, Bijapur district, Karnataka, 586101, India"
        },
        "delhi": {
            "locType": "trunk",
            "blogLinks": [
                "https://www.makemytrip.com/blog/road-trips-in-india",
                "http://gurusriguru.blogspot.com/2010/12/nandi-hills-and-surrounding-places.html"
            ],
            "longitude": "77.6666062",
            "closest_to": "nandi hills",
            "latitude": "12.9212473",
            "address": "Outer Ring Road, Green Glen Layout, Iblur, Bengaluru, Bangalore Urban, Karnataka, 560001, India"
        },
        "hoysaleswara temple": {
            "locType": "place_of_worship",
            "blogLinks": [
                "http://www.mapsofindia.com/karnataka/tourism/"
            ],
            "longitude": "75.9941649",
            "closest_to": "nandi hills",
            "latitude": "13.2127193",
            "address": "Hoysaleswara Temple, SH21, Halebidu, Beluru taluk, Hassan district, Karnataka, 573121, India"
        },
        "india karnataka": {
            "locType": "atm",
            "blogLinks": [
                "https://www.quora.com/What-are-the-best-places-to-visit-in-Karnataka-India"
            ],
            "longitude": "76.6639936",
            "closest_to": "nandi hills",
            "latitude": "12.3084901",
            "address": "Karnataka, Shalivahana Road, Nazarbad, Mysuru, Mysuru taluk, Mysuru district, Karnataka, 570001, India"
        },
        "andhra": {
            "locType": "hotel",
            "blogLinks": [
                "https://www.quora.com/What-are-the-best-places-to-visit-in-Karnataka-India"
            ],
            "longitude": "79.3452447",
            "closest_to": "nandi hills",
            "latitude": "13.6841958",
            "address": "Karnataka, West Mada Street, Srivari Temple, Tirumala, Chittoor, Andhra Pradesh, 517504, India"
        },
        "california": {
            "locType": "restaurant",
            "blogLinks": [
                "https://www.quora.com/What-are-the-best-places-to-visit-in-Karnataka-India"
            ],
            "longitude": "77.640789",
            "closest_to": "nandi hills",
            "latitude": "12.9759858",
            "address": "California Pizza Kitchen, 10th Main Road, Indiranagar 2nd Stage, Indiranagar, Bengaluru, Bangalore Urban, Karnataka, 560001, India"
        },
        "bellary road": {
            "locType": "trunk",
            "blogLinks": [
                "https://en.wikipedia.org/wiki/Nandi_Hills,_India",
                "https://www.quora.com/What-are-the-best-places-to-visit-in-Karnataka-India"
            ],
            "longitude": "77.5915237",
            "closest_to": "nandi hills",
            "latitude": "13.0465345",
            "address": "Bellary Road, Kanaka Nagar, Hebbal, Bengaluru, Bangalore Urban, Karnataka, 560001, India"
        },
        "andhra pradesh": {
            "locType": "hotel",
            "blogLinks": [
                "http://www.tourism-of-india.com/karnataka/"
            ],
            "longitude": "79.3452447",
            "closest_to": "nandi hills",
            "latitude": "13.6841958",
            "address": "Karnataka, West Mada Street, Srivari Temple, Tirumala, Chittoor, Andhra Pradesh, 517504, India"
        },
        "pink city": {
            "locType": "bench",
            "blogLinks": [
                "https://www.makemytrip.com/blog/road-trips-in-india"
            ],
            "longitude": "77.6563564",
            "closest_to": "nandi hills",
            "latitude": "12.8378867",
            "address": "Neeladri Road, Electronics City Phase 1, Doddathoguru, Bangalore Urban, Karnataka, 560100, India"
        },
        "nandi hills": {
            "locType": "hotel",
            "blogLinks": [
                "http://www.mapsofindia.com/karnataka/tourism/hill-stations.html",
                "http://www.indianholiday.com/karnataka/climate-in-karnataka.html",
                "https://www.makemytrip.com/holidays-india/places-to-visit-nandi_hills.html",
                "http://www.mouthshut.com/review/Belgaum-review-rtrmpssutnm",
                "http://wikitravel.org/en/Nandi_Hills",
                "http://www.buzzntravel.com/nandi-hills",
                "http://www.holidayiq.com/Nandi-Hills-Sightseeing-747.html",
                "https://www.quora.com/What-are-the-best-places-to-visit-for-a-two-days-trip-from-Bangalore?_escaped_fragment_=n%3D12",
                "https://en.wikipedia.org/wiki/Nandi_Hills,_India",
                "https://www.tripoto.com/trip/chill-out-from-bangalore-to-nandi-hills-1838",
                "https://www.makemytrip.com/blog/road-trips-in-india",
                "https://www.quora.com/What-are-the-best-places-to-visit-in-Karnataka-India",
                "http://www.mapsofindia.com/karnataka/tourism/",
                "http://www.touristlink.com/kenya/nandi-hills/overview.html"
            ],
            "longitude": "77.7194741670394",
            "closest_to": "nandi hills",
            "latitude": "13.268142",
            "address": "Nandi Upahara, Nandhi Hills Road, Kottige Thimmanahalli, Devanahalli taluk, Bangalore Rural, Karnataka, India"
        },
        "coorg": {
            "locType": "town",
            "blogLinks": [
                "http://www.mapsofindia.com/karnataka/tourism/hill-stations.html",
                "http://www.tourism-of-india.com/karnataka/"
            ],
            "longitude": "75.740031",
            "closest_to": "nandi hills",
            "latitude": "12.4204003",
            "address": "Madikeri, Madikeri taluku, Kodagu, Karnataka, India"
        },
        "nakuru": {
            "locType": "village",
            "blogLinks": [
                "http://www.touristlink.com/kenya/nandi-hills/overview.html"
            ],
            "longitude": "75.851583",
            "closest_to": "nandi hills",
            "latitude": "12.4744631",
            "address": "Nakuru Shirangala, Somawarpet taluk, Kodagu, Karnataka, India"
        },
        "bangalore": {
            "locType": "city",
            "blogLinks": [
                "http://www.mapsofindia.com/karnataka/tourism/hill-stations.html",
                "http://www.indianholiday.com/karnataka/climate-in-karnataka.html",
                "http://wikitravel.org/en/Nandi_Hills",
                "http://www.holidayiq.com/Nandi-Hills-Sightseeing-747.html",
                "http://gurusriguru.blogspot.com/2010/12/nandi-hills-and-surrounding-places.html",
                "https://www.quora.com/What-are-the-best-places-to-visit-for-a-two-days-trip-from-Bangalore?_escaped_fragment_=n%3D12",
                "https://en.wikipedia.org/wiki/Nandi_Hills,_India",
                "http://www.tourism-of-india.com/karnataka/",
                "https://www.tripoto.com/trip/chill-out-from-bangalore-to-nandi-hills-1838",
                "https://www.makemytrip.com/blog/road-trips-in-india",
                "https://www.quora.com/What-are-the-best-places-to-visit-in-Karnataka-India",
                "http://www.mapsofindia.com/karnataka/tourism/"
            ],
            "longitude": "77.5912997",
            "closest_to": "nandi hills",
            "latitude": "12.9791198",
            "address": "Bengaluru, Bangalore Urban, Karnataka, 560001, India"
        },
        "india": {
            "locType": "administrative",
            "blogLinks": [
                "http://www.mapsofindia.com/karnataka/tourism/hill-stations.html",
                "http://www.indianholiday.com/karnataka/climate-in-karnataka.html",
                "https://www.makemytrip.com/holidays-india/places-to-visit-nandi_hills.html",
                "http://wikitravel.org/en/Nandi_Hills",
                "http://www.buzzntravel.com/nandi-hills",
                "https://www.quora.com/What-are-the-best-places-to-visit-for-a-two-days-trip-from-Bangalore?_escaped_fragment_=n%3D12",
                "https://en.wikipedia.org/wiki/Nandi_Hills,_India",
                "http://www.tourism-of-india.com/karnataka/",
                "https://www.makemytrip.com/blog/road-trips-in-india",
                "https://www.quora.com/What-are-the-best-places-to-visit-in-Karnataka-India",
                "http://www.mapsofindia.com/karnataka/tourism/"
            ],
            "longitude": "75.7223521",
            "closest_to": "nandi hills",
            "latitude": "14.5203896",
            "address": "Karnataka, India"
        },
        "mars": {
            "locType": "car_repair",
            "blogLinks": [
                "https://www.makemytrip.com/blog/road-trips-in-india"
            ],
            "longitude": "77.5804720946221",
            "closest_to": "nandi hills",
            "latitude": "13.02636325",
            "address": "MARS Maruti Authorized Service, D Rajagopal Road, RMV Stage II - 1st Block, Raj Mahal Vilas, AECS Layout, Bangalore Urban, Karnataka, 560094, India"
        },
        "kammaradi": {
            "locType": "village",
            "blogLinks": [
                "http://www.mapsofindia.com/karnataka/tourism/hill-stations.html"
            ],
            "longitude": "75.212405",
            "closest_to": "nandi hills",
            "latitude": "13.5842349",
            "address": "Kammaradi, Tirthahalli taluk, Shimoga district, Karnataka, India"
        },
        "raichur": {
            "locType": "county",
            "blogLinks": [
                "http://www.indianholiday.com/karnataka/climate-in-karnataka.html"
            ],
            "longitude": "77.166667",
            "closest_to": "nandi hills",
            "latitude": "16.083333",
            "address": "Raichur, Raichur district, Karnataka, India"
        },
        "garden": {
            "locType": "orchard",
            "blogLinks": [
                "http://www.mapsofindia.com/karnataka/tourism/"
            ],
            "longitude": "77.9285817637065",
            "closest_to": "nandi hills",
            "latitude": "13.19253335",
            "address": "garden, N Hosahalli, Hosakote taluk, Bangalore Rural, Karnataka, India"
        },
        "halebid": {
            "locType": "village",
            "blogLinks": [
                "http://www.mapsofindia.com/karnataka/tourism/",
                "http://www.tourism-of-india.com/karnataka/"
            ],
            "longitude": "75.9918793",
            "closest_to": "nandi hills",
            "latitude": "13.2167959",
            "address": "Halebidu, Beluru taluk, Hassan district, Karnataka, 573121, India"
        },
        "tippu": {
            "locType": "attraction",
            "blogLinks": [
                "http://gurusriguru.blogspot.com/2010/12/nandi-hills-and-surrounding-places.html"
            ],
            "longitude": "77.681081",
            "closest_to": "nandi hills",
            "latitude": "13.3681232",
            "address": "Tippu Drop, Nandi Hill Road, Kuduvati, Chikkaballapura taluk, Chikkaballapura district, Karnataka, India"
        },
        "belur": {
            "locType": "town",
            "blogLinks": [
                "http://www.mapsofindia.com/karnataka/tourism/",
                "http://www.tourism-of-india.com/karnataka/"
            ],
            "longitude": "75.8634851",
            "closest_to": "nandi hills",
            "latitude": "13.1645671",
            "address": "Belur, Beluru taluk, Hassan district, Karnataka, 573115, India"
        },
        "madras": {
            "locType": "station",
            "blogLinks": [
                "https://en.wikipedia.org/wiki/Nandi_Hills,_India",
                "http://www.tourism-of-india.com/karnataka/"
            ],
            "longitude": "77.6449595",
            "closest_to": "nandi hills",
            "latitude": "12.9859442",
            "address": "Swami Vivekananda Road, Swamy Vivekananda Road (Old Madras Road), Sudgunte Palya, Baiyyappanahalli, Benniganahalli, Bangalore Urban, Karnataka, 560016, India"
        },
        "bellary": {
            "locType": "county",
            "blogLinks": [
                "http://www.indianholiday.com/karnataka/climate-in-karnataka.html"
            ],
            "longitude": "76.8323648",
            "closest_to": "nandi hills",
            "latitude": "15.2485413",
            "address": "Bellary, Bellary district, Karnataka, India"
        },
        "hyderabad": {
            "locType": "primary",
            "blogLinks": [
                "http://www.tourism-of-india.com/karnataka/",
                "http://gurusriguru.blogspot.com/2010/12/nandi-hills-and-surrounding-places.html"
            ],
            "longitude": "77.5344002",
            "closest_to": "belgaum",
            "latitude": "17.9003114",
            "address": "Hyderabad Road, Old City, Bidar, Bidar taluku, Bidar district, Karnataka, 585400, India"
        },
        "cauvery": {
            "locType": "cinema",
            "blogLinks": [
                "http://www.mapsofindia.com/karnataka/tourism/hill-stations.html"
            ],
            "longitude": "77.5832796015599",
            "closest_to": "nandi hills",
            "latitude": "13.00262215",
            "address": "Cauvery, 1st Main Road, Lower Palace Orchard, Guttahalli, Bengaluru, Bangalore Urban, Karnataka, 560001, India"
        },
        "pattadakal": {
            "locType": "attraction",
            "blogLinks": [
                "http://www.mapsofindia.com/karnataka/tourism/",
                "http://www.tourism-of-india.com/karnataka/"
            ],
            "longitude": "75.815884048161",
            "closest_to": "nandi hills",
            "latitude": "15.9506349",
            "address": "Pattadakal Temples, SH14, \u0cac\u0cbe\u0c9a\u0cbf\u0ca8\u0c97\u0cc1\u0ca1\u0ccd\u0ca1, Badami taluku, Bagalkote district, Karnataka, 587211, India"
        },
        "iruppu falls": {
            "locType": "attraction",
            "blogLinks": [
                "http://www.mapsofindia.com/karnataka/tourism/hill-stations.html"
            ],
            "longitude": "75.9839484",
            "closest_to": "nandi hills",
            "latitude": "11.9667954",
            "address": "Iruppu Falls, SH89, Taila, Virajpet taluk, Kodagu, Karnataka, 571217, India"
        },
        "mysore": {
            "locType": "city",
            "blogLinks": [
                "https://www.quora.com/What-are-the-best-places-to-visit-in-Karnataka-India"
            ],
            "longitude": "76.6553609",
            "closest_to": "nandi hills",
            "latitude": "12.3051828",
            "address": "Mysuru, Mysuru taluk, Mysuru district, Karnataka, 570001, India"
        },
        "malayalam": {
            "locType": "place_of_worship",
            "blogLinks": [
                "https://www.makemytrip.com/holidays-india/places-to-visit-nandi_hills.html"
            ],
            "longitude": "77.6774283",
            "closest_to": "nandi hills",
            "latitude": "12.9985726",
            "address": "Lowry Adventist Malayalam Church, A Narayanapura Main Road, Darga Mohalla, Udaya Nagar, A Narayanapura, Bangalore Urban, Karnataka, 560016, India"
        },
        "murudeshwar": {
            "locType": "town",
            "blogLinks": [
                "https://www.quora.com/What-are-the-best-places-to-visit-in-Karnataka-India"
            ],
            "longitude": "74.4883354",
            "closest_to": "nandi hills",
            "latitude": "14.0959549",
            "address": "Murudeshwara, Bhatkala taluk, Uttara Kannada, Karnataka, 581350, India"
        },
        "calcutta": {
            "locType": "restaurant",
            "blogLinks": [
                "http://www.tourism-of-india.com/karnataka/"
            ],
            "longitude": "77.6031547",
            "closest_to": "nandi hills",
            "latitude": "12.9753406",
            "address": "Oh! Calcutta, Church Street, Tasker Town, Ashok Nagar, Bengaluru, Bangalore Urban, Karnataka, 560001, India"
        },
        "talakad": {
            "locType": "picnic_site",
            "blogLinks": [
                "http://www.tourism-of-india.com/karnataka/"
            ],
            "longitude": "77.026146",
            "closest_to": "nandi hills",
            "latitude": "12.1731685",
            "address": "Talakad Riverside, SH79, Mavinahalli, Tirumakudalu Narasipura taluk, Mysuru district, Karnataka, India"
        },
        "chikmagalur": {
            "locType": "county",
            "blogLinks": [
                "http://www.mapsofindia.com/karnataka/tourism/hill-stations.html"
            ],
            "longitude": "75.5",
            "closest_to": "nandi hills",
            "latitude": "13.5",
            "address": "Chikmagalur, Chikkamagaluru district, Karnataka, India"
        },
        "madikeri": {
            "locType": "town",
            "blogLinks": [
                "http://www.mapsofindia.com/karnataka/tourism/hill-stations.html"
            ],
            "longitude": "75.740031",
            "closest_to": "nandi hills",
            "latitude": "12.4204003",
            "address": "Madikeri, Madikeri taluku, Kodagu, Karnataka, India"
        },
        "fort": {
            "locType": "neighbourhood",
            "blogLinks": [
                "https://en.wikipedia.org/wiki/Nandi_Hills,_India"
            ],
            "longitude": "76.8313091",
            "closest_to": "nandi hills",
            "latitude": "17.3439629",
            "address": "Fort, Rauza, Kalaburagi, Gulbarga taluku, Kalaburagi district, Karnataka, 585101, India"
        },
        "nagarhole national park": {
            "locType": "national_park",
            "blogLinks": [
                "http://www.tourism-of-india.com/karnataka/"
            ],
            "longitude": "76.1537073415874",
            "closest_to": "nandi hills",
            "latitude": "12.0600362",
            "address": "Nagarahole National Park, Virajpet taluk, Kodagu, Karnataka, India"
        },
        "kodasalli dam": {
            "locType": "dam",
            "blogLinks": [
                "https://www.quora.com/What-are-the-best-places-to-visit-in-Karnataka-India"
            ],
            "longitude": "74.5353892832085",
            "closest_to": "nandi hills",
            "latitude": "14.91893295",
            "address": "Kodasalli Dam, Yallapura taluk, Uttara Kannada, Karnataka, India"
        },
        "kundadri of karnataka": {
            "locType": "peak",
            "blogLinks": [
                "http://www.mapsofindia.com/karnataka/tourism/hill-stations.html"
            ],
            "longitude": "75.1689994",
            "closest_to": "nandi hills",
            "latitude": "13.5580148",
            "address": "Kundadri, Tirthahalli taluk, Shimoga district, Karnataka, India"
        },
        "nandi": {
            "locType": "village",
            "blogLinks": [
                "https://www.quora.com/What-are-the-best-places-to-visit-for-a-two-days-trip-from-Bangalore?_escaped_fragment_=n%3D12",
                "http://wikitravel.org/en/Nandi_Hills",
                "https://en.wikipedia.org/wiki/Nandi_Hills,_India",
                "http://gurusriguru.blogspot.com/2010/12/nandi-hills-and-surrounding-places.html"
            ],
            "longitude": "75.8556266",
            "closest_to": "nandi hills",
            "latitude": "13.6434094",
            "address": "Nandi, Tarikere taluku, Chikkamagaluru district, Karnataka, India"
        },
        "hills": {
            "locType": "suburb",
            "blogLinks": [
                "http://wikitravel.org/en/Nandi_Hills"
            ],
            "longitude": "74.860152",
            "closest_to": "nandi hills",
            "latitude": "12.8935998",
            "address": "Kadri Hills, Mangaluru, Mangaluru taluk, Dakshina Kannada, Karnataka, 575001, India"
        },
        "bandipur national park": {
            "locType": "national_park",
            "blogLinks": [
                "https://www.quora.com/What-are-the-best-places-to-visit-in-Karnataka-India"
            ],
            "longitude": "76.4314968740264",
            "closest_to": "nandi hills",
            "latitude": "11.76682425",
            "address": "Bandipur National Park, Kozhikode - Kollegal Highway, Gundlupet taluk, Chamarajanagar district, Karnataka, India"
        },
        "malnad": {
            "locType": "hospital",
            "blogLinks": [
                "https://www.quora.com/What-are-the-best-places-to-visit-for-a-two-days-trip-from-Bangalore?_escaped_fragment_=n%3D12"
            ],
            "longitude": "75.7715495",
            "closest_to": "nandi hills",
            "latitude": "13.3160351",
            "address": "Malnad Hospital, Mudigere-Kadur Road, Chikkamagaluru, Chikkamagaluru taluku, Chikkamagaluru district, Karnataka, 577101, India"
        },
        "london": {
            "locType": "administrative",
            "blogLinks": [
                "https://en.wikipedia.org/wiki/Nandi_Hills,_India",
                "http://www.tourism-of-india.com/karnataka/"
            ],
            "longitude": "75.7223521",
            "closest_to": "nandi hills",
            "latitude": "14.5203896",
            "address": "Karnataka, India"
        },
        "kalasa": {
            "locType": "town",
            "blogLinks": [
                "https://www.quora.com/What-are-the-best-places-to-visit-in-Karnataka-India"
            ],
            "longitude": "75.3582366",
            "closest_to": "nandi hills",
            "latitude": "13.2322235",
            "address": "Kalasa, Mudigere taluk, Chikkamagaluru district, Karnataka, 577124, India"
        },
        "panaji": {
            "locType": "trunk",
            "blogLinks": [
                "https://www.quora.com/What-are-the-best-places-to-visit-in-Karnataka-India"
            ],
            "longitude": "74.4876784",
            "closest_to": "nandi hills",
            "latitude": "15.4422981",
            "address": "Belgaum - Panaji Highway, Londa, Khanapura taluku, Belgaum district, Karnataka, India"
        },
        "north": {
            "locType": "service",
            "blogLinks": [
                "http://www.indianholiday.com/karnataka/climate-in-karnataka.html",
                "https://www.quora.com/What-are-the-best-places-to-visit-in-Karnataka-India"
            ],
            "longitude": "77.7660547",
            "closest_to": "nandi hills",
            "latitude": "13.0217151",
            "address": "N, Chaithanya Samarpan, Kadugodi, Kannamangala, Bangalore Urban, Karnataka, 560066, India"
        },
        "goa": {
            "locType": "restaurant",
            "blogLinks": [
                "https://www.makemytrip.com/blog/road-trips-in-india",
                "http://www.tourism-of-india.com/karnataka/"
            ],
            "longitude": "77.6200027",
            "closest_to": "nandi hills",
            "latitude": "12.9750047",
            "address": "Carnival De Goa, Bhaskaran Road, Gupta Layout, Halasuru, Bengaluru, Bangalore Urban, Karnataka, 560001, India"
        },
        "nandi hill": {
            "locType": "peak",
            "blogLinks": [
                "http://www.mapsofindia.com/karnataka/tourism/hill-stations.html",
                "https://en.wikipedia.org/wiki/Nandi_Hills,_India"
            ],
            "longitude": "77.6847849",
            "closest_to": "nandi hills",
            "latitude": "13.3700061",
            "address": "Nandi Hill, Chikkaballapura taluk, Chikkaballapura district, Karnataka, India"
        },
        "kutta": {
            "locType": "village",
            "blogLinks": [
                "http://www.mapsofindia.com/karnataka/tourism/hill-stations.html"
            ],
            "longitude": "76.0491296",
            "closest_to": "nandi hills",
            "latitude": "11.9696155",
            "address": "Kutta, Virajpet taluk, Kodagu, Karnataka, India"
        },
        "hindostan": {
            "locType": "administrative",
            "blogLinks": [
                "https://en.wikipedia.org/wiki/Nandi_Hills,_India"
            ],
            "longitude": "75.7223521",
            "closest_to": "nandi hills",
            "latitude": "14.5203896",
            "address": "Karnataka, India"
        },
        "kabini": {
            "locType": "river",
            "blogLinks": [
                "https://www.quora.com/What-are-the-best-places-to-visit-for-a-two-days-trip-from-Bangalore?_escaped_fragment_=n%3D12",
                "http://www.indianholiday.com/karnataka/climate-in-karnataka.html",
                "https://www.quora.com/What-are-the-best-places-to-visit-in-Karnataka-India"
            ],
            "longitude": "76.4152088",
            "closest_to": "nandi hills",
            "latitude": "12.0140065",
            "address": "Kabini, Heggadadevanakote taluk, Mysuru district, Karnataka, India"
        },
        "kali river": {
            "locType": "river",
            "blogLinks": [
                "https://www.quora.com/What-are-the-best-places-to-visit-in-Karnataka-India"
            ],
            "longitude": "74.5802901",
            "closest_to": "nandi hills",
            "latitude": "15.0145378",
            "address": "Kali, Joida taluk, Uttara Kannada, Karnataka, India"
        },
        "bagalkot": {
            "locType": "city",
            "blogLinks": [
                "http://www.indianholiday.com/karnataka/climate-in-karnataka.html",
                "https://www.quora.com/What-are-the-best-places-to-visit-in-Karnataka-India"
            ],
            "longitude": "75.6967919",
            "closest_to": "nandi hills",
            "latitude": "16.1853166",
            "address": "Bagalakote, Bagalakote taluk, Bagalkote district, Karnataka, India"
        },
        "gokarna": {
            "locType": "town",
            "blogLinks": [
                "http://www.indianholiday.com/karnataka/climate-in-karnataka.html",
                "https://www.quora.com/What-are-the-best-places-to-visit-in-Karnataka-India",
                "http://www.mapsofindia.com/karnataka/tourism/"
            ],
            "longitude": "74.3184418",
            "closest_to": "nandi hills",
            "latitude": "14.5439629",
            "address": "Gokarna, Kumata taluk, Uttara Kannada, Karnataka, 581326, India"
        },
        "udupi": {
            "locType": "city",
            "blogLinks": [
                "https://www.quora.com/What-are-the-best-places-to-visit-in-Karnataka-India",
                "http://www.mapsofindia.com/karnataka/tourism/"
            ],
            "longitude": "74.7473232",
            "closest_to": "nandi hills",
            "latitude": "13.3419169",
            "address": "Udupi, Udupi taluku, Udupi district, Karnataka, 576101, India"
        },
        "agra": {
            "locType": "suburb",
            "blogLinks": [
                "https://www.makemytrip.com/blog/road-trips-in-india"
            ],
            "longitude": "77.6468085",
            "closest_to": "nandi hills",
            "latitude": "13.0386734",
            "address": "Agara, Geddalahalli, Bangalore Urban, Karnataka, India"
        },
        "malpe": {
            "locType": "village",
            "blogLinks": [
                "https://www.quora.com/What-are-the-best-places-to-visit-in-Karnataka-India"
            ],
            "longitude": "74.7036914",
            "closest_to": "nandi hills",
            "latitude": "13.3507423",
            "address": "Malpe, Udupi taluku, Udupi district, Karnataka, India"
        },
        "bahubali": {
            "locType": "place_of_worship",
            "blogLinks": [
                "http://www.tourism-of-india.com/karnataka/"
            ],
            "longitude": "76.4846128",
            "closest_to": "nandi hills",
            "latitude": "12.8540505",
            "address": "Bahubali Statue, SH8, Shravanabelagola, Channarayapattana taluk, Hassan district, Karnataka, 573135, India"
        },
        "bangalore bangalore": {
            "locType": "city",
            "blogLinks": [
                "https://www.quora.com/What-are-the-best-places-to-visit-in-Karnataka-India"
            ],
            "longitude": "77.5912997",
            "closest_to": "nandi hills",
            "latitude": "12.9791198",
            "address": "Bengaluru, Bangalore Urban, Karnataka, 560001, India"
        },
        "rock garden": {
            "locType": "waterfall",
            "blogLinks": [
                "https://www.makemytrip.com/blog/road-trips-in-india"
            ],
            "longitude": "75.6142269",
            "closest_to": "nandi hills",
            "latitude": "12.2248591",
            "address": "Waterfalls by the Rock site, Madikeri taluku, Kodagu, Karnataka, India"
        },
        "cochin": {
            "locType": "confectionery",
            "blogLinks": [
                "https://www.makemytrip.com/holidays-india/places-to-visit-nandi_hills.html"
            ],
            "longitude": "74.8390919",
            "closest_to": "nandi hills",
            "latitude": "12.8604752",
            "address": "Cochin Bakery, Old Kent Road, Pandeshwar, Attavar, Mangaluru, Mangaluru taluk, Dakshina Kannada, Karnataka, 575001, India"
        },
        "sringeri": {
            "locType": "town",
            "blogLinks": [
                "https://www.quora.com/What-are-the-best-places-to-visit-in-Karnataka-India"
            ],
            "longitude": "75.2553718",
            "closest_to": "nandi hills",
            "latitude": "13.4261724",
            "address": "Sringeri, Sringeri taluku, Chikkamagaluru district, Karnataka, 577592, India"
        },
        "hampi": {
            "locType": "village",
            "blogLinks": [
                "https://www.quora.com/What-are-the-best-places-to-visit-in-Karnataka-India",
                "http://www.mapsofindia.com/karnataka/tourism/",
                "http://www.tourism-of-india.com/karnataka/"
            ],
            "longitude": "76.4606199",
            "closest_to": "nandi hills",
            "latitude": "15.3359769",
            "address": "Hampe, Hosapete taluk, Bellary district, Karnataka, 583239, India"
        },
        "bandipur": {
            "locType": "village",
            "blogLinks": [
                "http://www.tourism-of-india.com/karnataka/"
            ],
            "longitude": "76.6285739",
            "closest_to": "nandi hills",
            "latitude": "11.6662708",
            "address": "Bandipur, Gundlupet taluk, Chamarajanagar district, Karnataka, India"
        },
        "oman": {
            "locType": "residential",
            "blogLinks": [
                "http://www.tourism-of-india.com/karnataka/"
            ],
            "longitude": "77.6521686538304",
            "closest_to": "nandi hills",
            "latitude": "12.92462395",
            "address": "Oman Topaz, Iblur, Bengaluru, Bangalore Urban, Karnataka, 560001, India"
        },
        "mumbai": {
            "locType": "restaurant",
            "blogLinks": [
                "https://www.makemytrip.com/blog/road-trips-in-india",
                "http://www.tourism-of-india.com/karnataka/"
            ],
            "longitude": "77.5718472",
            "closest_to": "nandi hills",
            "latitude": "13.0002869",
            "address": "Mumbai Spice, 18/2, 10th Cross, Malleswaram, Vyalikaval, Malleswaram, Bengaluru, Bangalore Urban, Karnataka, 560003, India"
        },
        "chalukya": {
            "locType": "residential",
            "blogLinks": [
                "http://www.tourism-of-india.com/karnataka/"
            ],
            "longitude": "77.5192989605445",
            "closest_to": "nandi hills",
            "latitude": "12.9617207",
            "address": "Chalukya Nagar, Chandra Layout, GKW Layout, Bangalore Urban, Karnataka, 560072, India"
        },
        "badami of karnataka": {
            "locType": "administrative",
            "blogLinks": [
                "http://www.mapsofindia.com/karnataka/tourism/"
            ],
            "longitude": "75.6419100722642",
            "closest_to": "nandi hills",
            "latitude": "15.98301895",
            "address": "Badami taluku, Bagalkote district, Karnataka, India"
        },
        "dharwad": {
            "locType": "city",
            "blogLinks": [
                "http://www.indianholiday.com/karnataka/climate-in-karnataka.html"
            ],
            "longitude": "75.0066516",
            "closest_to": "nandi hills",
            "latitude": "15.4540505",
            "address": "Dharwad, Dharawada taluku, Dharwad district, Karnataka, 580001, India"
        },
        "mangalore": {
            "locType": "city",
            "blogLinks": [
                "http://www.mapsofindia.com/karnataka/tourism/hill-stations.html",
                "https://www.quora.com/What-are-the-best-places-to-visit-for-a-two-days-trip-from-Bangalore?_escaped_fragment_=n%3D12",
                "https://www.quora.com/What-are-the-best-places-to-visit-in-Karnataka-India",
                "http://www.mapsofindia.com/karnataka/tourism/",
                "http://www.tourism-of-india.com/karnataka/"
            ],
            "longitude": "74.8430082",
            "closest_to": "nandi hills",
            "latitude": "12.8698101",
            "address": "Mangaluru, Mangaluru taluk, Dakshina Kannada, Karnataka, 575001, India"
        },
        "gadag": {
            "locType": "town",
            "blogLinks": [
                "http://www.indianholiday.com/karnataka/climate-in-karnataka.html"
            ],
            "longitude": "75.6300786",
            "closest_to": "nandi hills",
            "latitude": "15.4263647",
            "address": "Gadag, Gadag taluk, Gadag district, Karnataka, 582101, India"
        },
        "chikkaballapur": {
            "locType": "town",
            "blogLinks": [
                "https://en.wikipedia.org/wiki/Nandi_Hills,_India"
            ],
            "longitude": "77.7306866",
            "closest_to": "nandi hills",
            "latitude": "13.4352549",
            "address": "Chikkaballapura, Chikkaballapura taluk, Chikkaballapura district, Karnataka, 562101, India"
        },
        "venkatappa art gallery": {
            "locType": "museum",
            "blogLinks": [
                "http://www.mapsofindia.com/karnataka/tourism/"
            ],
            "longitude": "77.5952077",
            "closest_to": "nandi hills",
            "latitude": "12.9742592",
            "address": "Venkatappa Art Gallery, Kasturba Road, Shantala Nagar, MacIvor Town, Bengaluru, Bangalore Urban, Karnataka, 560001, India"
        },
        "manchanabele": {
            "locType": "village",
            "blogLinks": [
                "https://www.quora.com/What-are-the-best-places-to-visit-in-Karnataka-India"
            ],
            "longitude": "77.3344212",
            "closest_to": "nandi hills",
            "latitude": "12.8668921",
            "address": "Manchanabele, Magadi taluku, Ramanagara district, Karnataka, India"
        },
        "samse": {
            "locType": "village",
            "blogLinks": [
                "https://www.quora.com/What-are-the-best-places-to-visit-in-Karnataka-India"
            ],
            "longitude": "75.3332678",
            "closest_to": "nandi hills",
            "latitude": "13.1894244",
            "address": "Samse, Mudigere taluk, Chikkamagaluru district, Karnataka, India"
        },
        "malaprabha": {
            "locType": "river",
            "blogLinks": [
                "http://www.tourism-of-india.com/karnataka/"
            ],
            "longitude": "75.1982668",
            "closest_to": "nandi hills",
            "latitude": "15.8914192",
            "address": "Malaprabha, Ramadurga taluku, Belgaum district, Karnataka, India"
        },
        "kaveri": {
            "locType": "river",
            "blogLinks": [
                "https://www.quora.com/What-are-the-best-places-to-visit-for-a-two-days-trip-from-Bangalore?_escaped_fragment_=n%3D12",
                "https://www.quora.com/What-are-the-best-places-to-visit-in-Karnataka-India"
            ],
            "longitude": "77.0635531",
            "closest_to": "nandi hills",
            "latitude": "12.1687878",
            "address": "Kaveri, Kollegala taluk, Chamarajanagar district, Karnataka, India"
        },
        "somanathapura": {
            "locType": "village",
            "blogLinks": [
                "https://www.quora.com/What-are-the-best-places-to-visit-in-Karnataka-India"
            ],
            "longitude": "77.9957587",
            "closest_to": "nandi hills",
            "latitude": "13.75905",
            "address": "Somanathapura, Bagepalli taluk, Chikkaballapura district, Karnataka, India"
        },
        "chennakesava temple": {
            "locType": "place_of_worship",
            "blogLinks": [
                "http://www.mapsofindia.com/karnataka/tourism/"
            ],
            "longitude": "75.8603311",
            "closest_to": "nandi hills",
            "latitude": "13.1629239",
            "address": "Chennakesava Temple, NH73, Navilahalli, Beluru taluk, Hassan district, Karnataka, India"
        },
        "kanakapura taluk": {
            "locType": "administrative",
            "blogLinks": [
                "https://www.quora.com/What-are-the-best-places-to-visit-in-Karnataka-India"
            ],
            "longitude": "77.4224204245398",
            "closest_to": "nandi hills",
            "latitude": "12.5199223",
            "address": "Kanakapura taluk, Ramanagara district, Karnataka, India"
        },
        "chennai": {
            "locType": "bank",
            "blogLinks": [
                "https://www.makemytrip.com/blog/road-trips-in-india",
                "http://www.tourism-of-india.com/karnataka/"
            ],
            "longitude": "80.2197941",
            "closest_to": "nandi hills",
            "latitude": "13.0365141",
            "address": "Karnataka Bank, Postal Colony 2nd Street, Postal Colony, Ashok Nagar, Chennai City Corporation Limits, Chennai district, Tamil Nadu, 600033, India"
        },
        "srirangapatna": {
            "locType": "town",
            "blogLinks": [
                "http://www.holidayiq.com/Nandi-Hills-Sightseeing-747.html",
                "https://www.quora.com/What-are-the-best-places-to-visit-in-Karnataka-India"
            ],
            "longitude": "76.6850743",
            "closest_to": "nandi hills",
            "latitude": "12.4225604",
            "address": "Srirangapatna, Srirangapattana taluk, Mandya district, Karnataka, 571438, India"
        },
        "kanakapura": {
            "locType": "town",
            "blogLinks": [
                "https://www.quora.com/What-are-the-best-places-to-visit-in-Karnataka-India"
            ],
            "longitude": "77.4199095",
            "closest_to": "nandi hills",
            "latitude": "12.5450268",
            "address": "Kanakapura, Kanakapura taluk, Ramanagara district, Karnataka, 562117, India"
        },
        "kannada": {
            "locType": "administrative",
            "blogLinks": [
                "https://www.quora.com/What-are-the-best-places-to-visit-in-Karnataka-India"
            ],
            "longitude": "75.1008028650794",
            "closest_to": "nandi hills",
            "latitude": "12.8114089",
            "address": "Dakshina Kannada, Karnataka, India"
        },
        "ujire": {
            "locType": "village",
            "blogLinks": [
                "https://www.quora.com/What-are-the-best-places-to-visit-in-Karnataka-India"
            ],
            "longitude": "75.3301061",
            "closest_to": "nandi hills",
            "latitude": "12.9954619",
            "address": "Ujire, Beltangadi taluk, Dakshina Kannada, Karnataka, India"
        },
        "arkavati": {
            "locType": "river",
            "blogLinks": [
                "https://en.wikipedia.org/wiki/Nandi_Hills,_India"
            ],
            "longitude": "77.3595883",
            "closest_to": "nandi hills",
            "latitude": "12.6444026",
            "address": "Arkavati, Kanakapura taluk, Ramanagara district, Karnataka, India"
        },
        "north karnataka": {
            "locType": "service",
            "blogLinks": [
                "http://www.mouthshut.com/review/Belgaum-review-rtrmpssutnm",
                "https://www.quora.com/What-are-the-best-places-to-visit-in-Karnataka-India"
            ],
            "longitude": "77.7660547",
            "closest_to": "nandi hills",
            "latitude": "13.0217151",
            "address": "N, Chaithanya Samarpan, Kadugodi, Kannamangala, Bangalore Urban, Karnataka, 560066, India"
        },
        "ranganathittu": {
            "locType": "attraction",
            "blogLinks": [
                "http://www.tourism-of-india.com/karnataka/"
            ],
            "longitude": "76.6553081",
            "closest_to": "nandi hills",
            "latitude": "12.4238524",
            "address": "Ranganathittu Bird Sanctuary, SH154, Palahalli, Srirangapattana taluk, Mandya district, Karnataka, 571438, India"
        },
        "new delhi": {
            "locType": "college",
            "blogLinks": [
                "https://www.makemytrip.com/holidays-india/places-to-visit-nandi_hills.html"
            ],
            "longitude": "76.6142178649055",
            "closest_to": "nandi hills",
            "latitude": "12.30911465",
            "address": "Regional Institute of Education, Chaduranga Road, Jayalakshmipuram, Mysuru, Mysuru taluk, Mysuru district, Karnataka, 570001, India"
        },
        "belthangady": {
            "locType": "school",
            "blogLinks": [
                "https://www.quora.com/What-are-the-best-places-to-visit-in-Karnataka-India"
            ],
            "longitude": "75.2789924801603",
            "closest_to": "nandi hills",
            "latitude": "12.9899316",
            "address": "Government Model Primary School Belthangady, NH73, Guruvayankere, Beltangadi taluk, Dakshina Kannada, Karnataka, India"
        },
        "bangalore international airport": {
            "locType": "secondary",
            "blogLinks": [
                "https://en.wikipedia.org/wiki/Nandi_Hills,_India"
            ],
            "longitude": "77.6770396",
            "closest_to": "nandi hills",
            "latitude": "13.1980694",
            "address": "Bangalore International Airport Road, Yartiganahalli, Devanahalli taluk, Bangalore Rural, Karnataka, 560300, India"
        },
        "dakshina kannada": {
            "locType": "administrative",
            "blogLinks": [
                "https://www.quora.com/What-are-the-best-places-to-visit-in-Karnataka-India"
            ],
            "longitude": "75.1008028650794",
            "closest_to": "nandi hills",
            "latitude": "12.8114089",
            "address": "Dakshina Kannada, Karnataka, India"
        },
        "kodagu": {
            "locType": "administrative",
            "blogLinks": [
                "http://www.mapsofindia.com/karnataka/tourism/hill-stations.html",
                "https://www.quora.com/What-are-the-best-places-to-visit-in-Karnataka-India",
                "http://www.mapsofindia.com/karnataka/tourism/"
            ],
            "longitude": "75.6677235950852",
            "closest_to": "nandi hills",
            "latitude": "12.38117345",
            "address": "Kodagu, Karnataka, India"
        },
        "bengaluru": {
            "locType": "city",
            "blogLinks": [
                "https://www.makemytrip.com/blog/road-trips-in-india"
            ],
            "longitude": "77.5912997",
            "closest_to": "nandi hills",
            "latitude": "12.9791198",
            "address": "Bengaluru, Bangalore Urban, Karnataka, 560001, India"
        },
        "tipu sultan": {
            "locType": "monument",
            "blogLinks": [
                "http://www.mapsofindia.com/karnataka/tourism/hill-stations.html"
            ],
            "longitude": "76.7139043",
            "closest_to": "nandi hills",
            "latitude": "12.4100749",
            "address": "Mausoleum of Haider Ali and Tipu Sultan, SH79, Doddapalya, Srirangapattana taluk, Mandya district, Karnataka, India"
        },
        "hasan": {
            "locType": "town",
            "blogLinks": [
                "http://www.mapsofindia.com/karnataka/tourism/"
            ],
            "longitude": "76.0992703",
            "closest_to": "nandi hills",
            "latitude": "13.0070817",
            "address": "Hassan, Hasana taluk, Hassan district, Karnataka, 573201, India"
        },
        "tungabhadra": {
            "locType": "river",
            "blogLinks": [
                "http://www.tourism-of-india.com/karnataka/"
            ],
            "longitude": "76.4931607",
            "closest_to": "nandi hills",
            "latitude": "15.3446123",
            "address": "Tungabhadra, Gangavati taluku, Koppal district, Karnataka, India"
        },
        "varanasi": {
            "locType": "village",
            "blogLinks": [
                "https://www.makemytrip.com/blog/road-trips-in-india"
            ],
            "longitude": "77.6860657",
            "closest_to": "nandi hills",
            "latitude": "13.0304962",
            "address": "Varanasi, Bangalore Urban, Karnataka, India"
        },
        "belgaum": {
            "locType": "county",
            "blogLinks": [
                "http://www.tourism-of-india.com/karnataka/"
            ],
            "longitude": "74.75",
            "closest_to": "belgaum",
            "latitude": "16.333333",
            "address": "Belgaum, Belgaum district, Karnataka, India"
        },
        "gulbarga": {
            "locType": "county",
            "blogLinks": [
                "http://www.indianholiday.com/karnataka/climate-in-karnataka.html"
            ],
            "longitude": "77.083333",
            "closest_to": "nandi hills",
            "latitude": "17.166667",
            "address": "Kalaburgi, Kalaburagi district, Karnataka, India"
        },
        "ghataprabha river": {
            "locType": "river",
            "blogLinks": [
                "http://www.mouthshut.com/review/Belgaum-review-rtrmpssutnm"
            ],
            "longitude": "74.9165235",
            "closest_to": "nandi hills",
            "latitude": "16.2124344",
            "address": "Ghataprabha, Gokak taluku, Belgaum district, Karnataka, India"
        },
        "bhutan": {
            "locType": "furniture",
            "blogLinks": [
                "https://www.makemytrip.com/holidays-india/places-to-visit-nandi_hills.html"
            ],
            "longitude": "77.5391448",
            "closest_to": "nandi hills",
            "latitude": "12.9931738",
            "address": "Bhutan Board Furniture, Siddhaiah Puranik Road, Rajajinagar 3rd Block, Kamakshi Palya, Bengaluru, Bangalore Urban, Karnataka, 560001, India"
        },
        "basavanagudi road": {
            "locType": "village",
            "blogLinks": [
                "https://www.tripoto.com/trip/chill-out-from-bangalore-to-nandi-hills-1838",
                "http://www.touristlink.com/kenya/nandi-hills/overview.html"
            ],
            "longitude": "75.7339359",
            "closest_to": "nandi hills",
            "latitude": "13.8345913",
            "address": "Basavanagudi, Bhadravati taluk, Shimoga district, Karnataka, India"
        },
        "nagarahole national park": {
            "locType": "national_park",
            "blogLinks": [
                "http://www.indianholiday.com/karnataka/climate-in-karnataka.html"
            ],
            "longitude": "76.1537073415874",
            "closest_to": "nandi hills",
            "latitude": "12.0600362",
            "address": "Nagarahole National Park, Virajpet taluk, Kodagu, Karnataka, India"
        },
        "cubbon park": {
            "locType": "station",
            "blogLinks": [
                "https://www.quora.com/What-are-the-best-places-to-visit-in-Karnataka-India",
                "http://www.mapsofindia.com/karnataka/tourism/"
            ],
            "longitude": "77.5977565",
            "closest_to": "nandi hills",
            "latitude": "12.9808487",
            "address": "Cubbon Park, Cubbon Road, Tasker Town, Shivajinagar, Bengaluru, Bangalore Urban, Karnataka, 560001, India"
        },
        "anantapur district": {
            "locType": "yes",
            "blogLinks": [
                "https://www.quora.com/What-are-the-best-places-to-visit-in-Karnataka-India"
            ],
            "longitude": "77.7596024",
            "closest_to": "nandi hills",
            "latitude": "13.7972948",
            "address": "RTO Karnataka, Srinagar - Kanyakumari Highway, Paragodu, Bagepalli taluk, Chikkaballapura district, Karnataka, 561207, India"
        },
        "kumarakom": {
            "locType": "restaurant",
            "blogLinks": [
                "https://www.makemytrip.com/holidays-india/places-to-visit-nandi_hills.html"
            ],
            "longitude": "77.6382858",
            "closest_to": "nandi hills",
            "latitude": "12.9143715",
            "address": "Kumarakom, 23, 15th Cross Road, Sector 4, HSR Layout, Bengaluru, Bangalore Urban, Karnataka, 560102, India"
        },
        "gol gumbaz": {
            "locType": "attraction",
            "blogLinks": [
                "http://www.tourism-of-india.com/karnataka/"
            ],
            "longitude": "75.7360929",
            "closest_to": "nandi hills",
            "latitude": "16.8300223",
            "address": "Gol Gumbaz, Station Road, Ibrahimpura, Vijayapura, Vijayapura taluk, Bijapur district, Karnataka, 586101, India"
        },
        "yamuna expressway": {
            "locType": "unclassified",
            "blogLinks": [
                "https://www.makemytrip.com/blog/road-trips-in-india"
            ],
            "longitude": "77.5777875",
            "closest_to": "nandi hills",
            "latitude": "12.9857254",
            "address": "Yamuna Bai Road, Balepet, High Grounds, Bengaluru, Bangalore Urban, Karnataka, 560001, India"
        },
        "devanahalli town": {
            "locType": "town",
            "blogLinks": [
                "https://en.wikipedia.org/wiki/Nandi_Hills,_India"
            ],
            "longitude": "77.7134377",
            "closest_to": "nandi hills",
            "latitude": "13.2483502",
            "address": "Devanahalli, Devanahalli taluk, Bangalore Rural, Karnataka, India"
        },
        "tirupati": {
            "locType": "village",
            "blogLinks": [
                "https://www.quora.com/What-are-the-best-places-to-visit-in-Karnataka-India"
            ],
            "longitude": "76.2727455",
            "closest_to": "nandi hills",
            "latitude": "13.3289007",
            "address": "Malekallu Tirupathi, Arasikere taluku, Hassan district, Karnataka, India"
        },
        "hong kong": {
            "locType": "restaurant",
            "blogLinks": [
                "http://www.tourism-of-india.com/karnataka/"
            ],
            "longitude": "77.6768991",
            "closest_to": "nandi hills",
            "latitude": "13.020749",
            "address": "Hong Kong Noodles, Kalkere Main road, Ramamurthy Nagar, Varanasi, Bangalore Urban, Karnataka, 600042, India"
        },
        "ulsoor lake": {
            "locType": "water",
            "blogLinks": [
                "http://www.mapsofindia.com/karnataka/tourism/"
            ],
            "longitude": "77.6191669052984",
            "closest_to": "nandi hills",
            "latitude": "12.9823891",
            "address": "Halasuru lake, Annaswamy Mudaliar Road, Kothandram Layout, Halasuru, Bengaluru, Bangalore Urban, Karnataka, 560001, India"
        },
        "karkala": {
            "locType": "town",
            "blogLinks": [
                "https://www.quora.com/What-are-the-best-places-to-visit-in-Karnataka-India"
            ],
            "longitude": "74.9959586",
            "closest_to": "nandi hills",
            "latitude": "13.2112826",
            "address": "Karkala, Karkala taluk, Udupi district, Karnataka, 574104, India"
        },
        "south": {
            "locType": "residential",
            "blogLinks": [
                "http://www.indianholiday.com/karnataka/climate-in-karnataka.html"
            ],
            "longitude": "77.8040874",
            "closest_to": "nandi hills",
            "latitude": "13.2942848",
            "address": "s, Vijayapura, Devanahalli taluk, Bangalore Rural, Karnataka, 562135, India"
        },
        "ooty": {
            "locType": "primary",
            "blogLinks": [
                "https://www.quora.com/What-are-the-best-places-to-visit-for-a-two-days-trip-from-Bangalore?_escaped_fragment_=n%3D12",
                "https://www.quora.com/What-are-the-best-places-to-visit-in-Karnataka-India"
            ],
            "longitude": "76.6586807",
            "closest_to": "nandi hills",
            "latitude": "12.2774807",
            "address": "Ooty Road, Vidyaranyapuram, Mysuru, Mysuru taluk, Mysuru district, Karnataka, 570001, India"
        },
        "dubai": {
            "locType": "gift",
            "blogLinks": [
                "http://www.tourism-of-india.com/karnataka/"
            ],
            "longitude": "77.6067717",
            "closest_to": "nandi hills",
            "latitude": "12.9737065",
            "address": "Dubai Plaza, Rest House Road, Shantala Nagar, Ashok Nagar, Bengaluru, Bangalore Urban, Karnataka, 560001, India"
        },
        "devanhalli": {
            "locType": "town",
            "blogLinks": [
                "http://wikitravel.org/en/Nandi_Hills"
            ],
            "longitude": "77.7134377",
            "closest_to": "nandi hills",
            "latitude": "13.2483502",
            "address": "Devanahalli, Devanahalli taluk, Bangalore Rural, Karnataka, India"
        },
        "hoysala": {
            "locType": "administrative",
            "blogLinks": [
                "http://www.mapsofindia.com/karnataka/tourism/"
            ],
            "longitude": "77.6375990817051",
            "closest_to": "nandi hills",
            "latitude": "12.97813815",
            "address": "Hoysala Nagar, Bengaluru, Bangalore Urban, Karnataka, 560001, India"
        },
        "mandya": {
            "locType": "town",
            "blogLinks": [
                "https://www.quora.com/What-are-the-best-places-to-visit-in-Karnataka-India"
            ],
            "longitude": "76.8937392",
            "closest_to": "nandi hills",
            "latitude": "12.5217836",
            "address": "Mandya, Mandya taluk, Mandya district, Karnataka, 571401, India"
        },
        "uttara kannada district": {
            "locType": "county",
            "blogLinks": [
                "https://www.quora.com/What-are-the-best-places-to-visit-in-Karnataka-India"
            ],
            "longitude": "74.583333",
            "closest_to": "nandi hills",
            "latitude": "14.883333",
            "address": "Uttara Kannada, Karnataka, India"
        },
        "kozhikode": {
            "locType": "primary",
            "blogLinks": [
                "https://www.quora.com/What-are-the-best-places-to-visit-in-Karnataka-India"
            ],
            "longitude": "76.6598864",
            "closest_to": "nandi hills",
            "latitude": "12.2926117",
            "address": "Kozhikode - Kollegal Highway, Ittigegudu, Mysuru, Mysuru taluk, Mysuru district, Karnataka, 570001, India"
        },
        "koppal": {
            "locType": "town",
            "blogLinks": [
                "http://www.indianholiday.com/karnataka/climate-in-karnataka.html"
            ],
            "longitude": "76.1547421",
            "closest_to": "nandi hills",
            "latitude": "15.3484144",
            "address": "Koppala, Koppala taluku, Koppal district, Karnataka, 583231, India"
        },
        "dubare": {
            "locType": "attraction",
            "blogLinks": [
                "https://www.quora.com/What-are-the-best-places-to-visit-in-Karnataka-India"
            ],
            "longitude": "75.9066719",
            "closest_to": "nandi hills",
            "latitude": "12.3716865",
            "address": "Dubare Elephant Camp, SH91, Dodda Bettageri, Somawarpet taluk, Kodagu, Karnataka, India"
        },
        "kanyakumari": {
            "locType": "yes",
            "blogLinks": [
                "https://www.makemytrip.com/holidays-india/places-to-visit-nandi_hills.html"
            ],
            "longitude": "77.7596024",
            "closest_to": "nandi hills",
            "latitude": "13.7972948",
            "address": "RTO Karnataka, Srinagar - Kanyakumari Highway, Paragodu, Bagepalli taluk, Chikkaballapura district, Karnataka, 561207, India"
        },
        "kerala": {
            "locType": "restaurant",
            "blogLinks": [
                "http://www.mapsofindia.com/karnataka/tourism/hill-stations.html",
                "https://www.quora.com/What-are-the-best-places-to-visit-for-a-two-days-trip-from-Bangalore?_escaped_fragment_=n%3D12",
                "https://www.makemytrip.com/holidays-india/places-to-visit-nandi_hills.html",
                "https://www.quora.com/What-are-the-best-places-to-visit-in-Karnataka-India",
                "http://www.tourism-of-india.com/karnataka/"
            ],
            "longitude": "77.6382683",
            "closest_to": "nandi hills",
            "latitude": "12.9726449",
            "address": "New Life Kerala Mess, Sai Baba Mandira Road, Mottappanapalaya, Indiranagar, Bengaluru, Bangalore Urban, Karnataka, 560001, India"
        },
        "gulmohar": {
            "locType": "residential",
            "blogLinks": [
                "https://www.quora.com/What-are-the-best-places-to-visit-in-Karnataka-India"
            ],
            "longitude": "77.745811757371",
            "closest_to": "nandi hills",
            "latitude": "12.9841671",
            "address": "MIMS Gulmohar Villas, Kadugodi, Prashanth Extension, Bangalore Urban, Karnataka, 56066, India"
        },
        "nalur": {
            "locType": "village",
            "blogLinks": [
                "http://www.mapsofindia.com/karnataka/tourism/hill-stations.html"
            ],
            "longitude": "75.1336929",
            "closest_to": "nandi hills",
            "latitude": "13.5941784",
            "address": "Nalur, Tirthahalli taluk, Shimoga district, Karnataka, India"
        },
        "maharashtra": {
            "locType": "bank",
            "blogLinks": [
                "http://www.tourism-of-india.com/karnataka/"
            ],
            "longitude": "77.5856013",
            "closest_to": "nandi hills",
            "latitude": "12.9049455",
            "address": "Bank of Maharashtra, 24th Main, K R Layout, Puttenahalli, Bengaluru, Bangalore Urban, Karnataka, 560001, India"
        },
        "bheemeshwari": {
            "locType": "locality",
            "blogLinks": [
                "http://www.indianholiday.com/karnataka/climate-in-karnataka.html"
            ],
            "longitude": "77.2778171",
            "closest_to": "nandi hills",
            "latitude": "12.3124122",
            "address": "Bheemeshwari, Muttatti, Malavalli taluk, Mandya district, Karnataka, India"
        },
        "southern india": {
            "locType": "commercial",
            "blogLinks": [
                "https://en.wikipedia.org/wiki/Nandi_Hills,_India"
            ],
            "longitude": "77.6227757667762",
            "closest_to": "nandi hills",
            "latitude": "12.92588785",
            "address": "Survey Of India - Southern Zone, Madivala, Bengaluru, Bangalore Urban, Karnataka, 560001, India"
        },
        "vijayanagar": {
            "locType": "station",
            "blogLinks": [
                "http://www.tourism-of-india.com/karnataka/"
            ],
            "longitude": "77.5375757",
            "closest_to": "nandi hills",
            "latitude": "12.9713392",
            "address": "Vijayanagar, Chord Road, Marenahalli, Vijaya Nagar, Binny Layout, Bangalore Urban, Karnataka, 560040, India"
        },
        "bengal": {
            "locType": "industrial",
            "blogLinks": [
                "https://en.wikipedia.org/wiki/Nandi_Hills,_India"
            ],
            "longitude": "77.7517038151245",
            "closest_to": "nandi hills",
            "latitude": "13.0492646",
            "address": "Bengal Lamps, Konadasapura, Bangalore Urban, Karnataka, 560066, India"
        },
        "chamundi hill": {
            "locType": "peak",
            "blogLinks": [
                "https://en.wikipedia.org/wiki/Nandi_Hills,_India"
            ],
            "longitude": "76.6703937",
            "closest_to": "nandi hills",
            "latitude": "12.2724017",
            "address": "Chamundi Hill, Mysuru, Mysuru taluk, Mysuru district, Karnataka, 570001, India"
        },
        "river cauvery": {
            "locType": "cinema",
            "blogLinks": [
                "http://www.tourism-of-india.com/karnataka/"
            ],
            "longitude": "77.5832796015599",
            "closest_to": "nandi hills",
            "latitude": "13.00262215",
            "address": "Cauvery, 1st Main Road, Lower Palace Orchard, Guttahalli, Bengaluru, Bangalore Urban, Karnataka, 560001, India"
        },
        "periyar lake": {
            "locType": "roundabout",
            "blogLinks": [
                "https://www.makemytrip.com/holidays-india/places-to-visit-nandi_hills.html"
            ],
            "longitude": "77.6132559",
            "closest_to": "nandi hills",
            "latitude": "13.0086948",
            "address": "Periyar Nagara Circle, Arabic College Main Road, Shampura, Lingarajapuram, Bengaluru, Bangalore Urban, Karnataka, 560001, India"
        },
        "singapore": {
            "locType": "neighbourhood",
            "blogLinks": [
                "http://www.tourism-of-india.com/karnataka/"
            ],
            "longitude": "77.5483703",
            "closest_to": "nandi hills",
            "latitude": "12.8861812",
            "address": "Singapore Gardens, Vajrahalli, Bengaluru, Bangalore Urban, Karnataka, 560001, India"
        },
        "bannerghatta national park": {
            "locType": "national_park",
            "blogLinks": [
                "https://www.quora.com/What-are-the-best-places-to-visit-in-Karnataka-India"
            ],
            "longitude": "77.5722783830694",
            "closest_to": "nandi hills",
            "latitude": "12.77900335",
            "address": "Bannerghatta National Park, Anekal Road, Begihalli, Bangalore Urban, Karnataka, 560076, India"
        },
        "devanahalli": {
            "locType": "town",
            "blogLinks": [
                "http://gurusriguru.blogspot.com/2010/12/nandi-hills-and-surrounding-places.html"
            ],
            "longitude": "77.7134377",
            "closest_to": "nandi hills",
            "latitude": "13.2483502",
            "address": "Devanahalli, Devanahalli taluk, Bangalore Rural, Karnataka, India"
        },
        "garden city": {
            "locType": "bank",
            "blogLinks": [
                "http://www.tourism-of-india.com/karnataka/"
            ],
            "longitude": "80.2197941",
            "closest_to": "nandi hills",
            "latitude": "13.0365141",
            "address": "Karnataka Bank, Postal Colony 2nd Street, Postal Colony, Ashok Nagar, Chennai City Corporation Limits, Chennai district, Tamil Nadu, 600033, India"
        },
        "cochin view": {
            "locType": "confectionery",
            "blogLinks": [
                "https://www.makemytrip.com/holidays-india/places-to-visit-nandi_hills.html"
            ],
            "longitude": "74.8390919",
            "closest_to": "nandi hills",
            "latitude": "12.8604752",
            "address": "Cochin Bakery, Old Kent Road, Pandeshwar, Attavar, Mangaluru, Mangaluru taluk, Dakshina Kannada, Karnataka, 575001, India"
        },
        "tamil nadu": {
            "locType": "bank",
            "blogLinks": [
                "https://www.quora.com/What-are-the-best-places-to-visit-for-a-two-days-trip-from-Bangalore?_escaped_fragment_=n%3D12",
                "http://www.tourism-of-india.com/karnataka/"
            ],
            "longitude": "76.9514152",
            "closest_to": "nandi hills",
            "latitude": "11.0025894",
            "address": "KARNATAKA BANK, Diwan Bhadur Road, Five Corner, RS Puram, Coimbatore, Coimbatore district, Tamil Nadu, 641001, India"
        },
        "lucknow": {
            "locType": "restaurant",
            "blogLinks": [
                "https://www.makemytrip.com/holidays-india/places-to-visit-nandi_hills.html"
            ],
            "longitude": "77.5660503",
            "closest_to": "nandi hills",
            "latitude": "13.0367811",
            "address": "Via Lucknow, New BEL Road, Dollar Colony, Raj Mahal Vilas, Jaladarshini Layout, Bangalore Urban, Karnataka, 560094, India"
        },
        "kolkata": {
            "locType": "restaurant",
            "blogLinks": [
                "https://www.makemytrip.com/blog/road-trips-in-india"
            ],
            "longitude": "77.5478044",
            "closest_to": "nandi hills",
            "latitude": "12.9845159",
            "address": "Kolkata Biryani And Rolls, 1st Main Basaveshwaranagar, Rajajinagar 3rd Block, Dasarahalli, Bengaluru, Bangalore Urban, Karnataka, 560010, India"
        },
        "annapoorneshwari temple": {
            "locType": "place_of_worship",
            "blogLinks": [
                "https://www.quora.com/What-are-the-best-places-to-visit-in-Karnataka-India"
            ],
            "longitude": "74.9006001",
            "closest_to": "nandi hills",
            "latitude": "12.97910715",
            "address": "Sri Ambika Annapoorneshwari Temple, SH101, Sunkadakatte, Mangaluru taluk, Dakshina Kannada, Karnataka, India"
        },
        "nandhi hills": {
            "locType": "primary",
            "blogLinks": [
                "http://gurusriguru.blogspot.com/2010/12/nandi-hills-and-surrounding-places.html"
            ],
            "longitude": "77.6986733",
            "closest_to": "nandi hills",
            "latitude": "13.304978",
            "address": "Nandhi Hills Road, Kottige Thimmanahalli, Devanahalli taluk, Bangalore Rural, Karnataka, India"
        },
        "karnataka": {
            "locType": "atm",
            "blogLinks": [
                "http://www.indianholiday.com/karnataka/climate-in-karnataka.html"
            ],
            "longitude": "76.6639936",
            "closest_to": "nandi hills",
            "latitude": "12.3084901",
            "address": "Karnataka, Shalivahana Road, Nazarbad, Mysuru, Mysuru taluk, Mysuru district, Karnataka, 570001, India"
        },
        "sharavathi river valley": {
            "locType": "yes",
            "blogLinks": [
                "http://www.indianholiday.com/karnataka/climate-in-karnataka.html"
            ],
            "longitude": "77.6216184337102",
            "closest_to": "nandi hills",
            "latitude": "12.9464709",
            "address": "Sharavathi Block, National Games Village Road, Ambedkar Nagar, Ejipura, Bengaluru, Bangalore Urban, Karnataka, 560001, India"
        },
        "palar": {
            "locType": "water",
            "blogLinks": [
                "https://en.wikipedia.org/wiki/Nandi_Hills,_India"
            ],
            "longitude": "77.6862718330562",
            "closest_to": "nandi hills",
            "latitude": "13.37040675",
            "address": "Palar river source, Nandi Hill Road, Kuduvati, Chikkaballapura taluk, Chikkaballapura district, Karnataka, India"
        },
        "magadi": {
            "locType": "town",
            "blogLinks": [
                "https://www.quora.com/What-are-the-best-places-to-visit-in-Karnataka-India"
            ],
            "longitude": "77.2242281",
            "closest_to": "nandi hills",
            "latitude": "12.9567353",
            "address": "Magadi, Magadi taluku, Ramanagara district, Karnataka, 562120, India"
        },
        "bangalore-tumkur road": {
            "locType": "trunk",
            "blogLinks": [
                "http://wikitravel.org/en/Nandi_Hills"
            ],
            "longitude": "77.5360458",
            "closest_to": "nandi hills",
            "latitude": "13.0311896",
            "address": "Tumkur Road, Goragunte Palya, Peenya, Bengaluru, Bangalore Urban, Karnataka, 560001, India"
        },
        "parvati": {
            "locType": "village",
            "blogLinks": [
                "https://en.wikipedia.org/wiki/Nandi_Hills,_India"
            ],
            "longitude": "75.7898501",
            "closest_to": "nandi hills",
            "latitude": "16.0395701",
            "address": "Parvati, Badami taluku, Bagalkote district, Karnataka, India"
        },
        "sangama": {
            "locType": "attraction",
            "blogLinks": [
                "https://www.quora.com/What-are-the-best-places-to-visit-in-Karnataka-India"
            ],
            "longitude": "77.4320447",
            "closest_to": "nandi hills",
            "latitude": "12.2880428",
            "address": "Sangam, SH92, Mahalli, Kanakapura taluk, Ramanagara district, Karnataka, India"
        },
        "coffea": {
            "locType": "cafe",
            "blogLinks": [
                "https://en.wikipedia.org/wiki/Nandi_Hills,_India"
            ],
            "longitude": "77.6369128",
            "closest_to": "nandi hills",
            "latitude": "12.978423",
            "address": "Matteo Coffee, Chinmaya Mission Hospital Road, Indiranagar 1st Stage, Hoysala Nagar, Bengaluru, Bangalore Urban, Karnataka, 560038, India"
        },
        "kolar": {
            "locType": "town",
            "blogLinks": [
                "https://www.quora.com/What-are-the-best-places-to-visit-in-Karnataka-India"
            ],
            "longitude": "78.1339606",
            "closest_to": "nandi hills",
            "latitude": "13.1369996",
            "address": "Kolar, Kolar taluk, Kolar district, Karnataka, 563101, India"
        },
        "hassan": {
            "locType": "town",
            "blogLinks": [
                "https://www.quora.com/What-are-the-best-places-to-visit-in-Karnataka-India"
            ],
            "longitude": "76.0992703",
            "closest_to": "nandi hills",
            "latitude": "13.0070817",
            "address": "Hassan, Hasana taluk, Hassan district, Karnataka, 573201, India"
        },
        "bandaje falls": {
            "locType": "track",
            "blogLinks": [
                "https://www.quora.com/What-are-the-best-places-to-visit-in-Karnataka-India"
            ],
            "longitude": "75.3809448",
            "closest_to": "nandi hills",
            "latitude": "13.0801279",
            "address": "Bandaje to Bandaje falls, Bangadi, Beltangadi taluk, Dakshina Kannada, Karnataka, 574290, India"
        },
        "maravante": {
            "locType": "village",
            "blogLinks": [
                "https://www.quora.com/What-are-the-best-places-to-visit-in-Karnataka-India"
            ],
            "longitude": "74.6428565",
            "closest_to": "nandi hills",
            "latitude": "13.7248514",
            "address": "Maravante, \u0c95\u0cc1\u0c82\u0ca6\u0cbe\u0caa\u0cc1\u0cb0 \u0ca4\u0cbe\u0cb2\u0cc2\u0c95\u0cc1, Udupi district, Karnataka, India"
        },
        "bhoga nandeeshwara temple": {
            "locType": "place_of_worship",
            "blogLinks": [
                "https://en.wikipedia.org/wiki/Nandi_Hills,_India"
            ],
            "longitude": "77.6981219363524",
            "closest_to": "nandi hills",
            "latitude": "13.3867543",
            "address": "Bhoga Nandeeshwara Temple, SH74, Sultanapete, Chikkaballapura taluk, Chikkaballapura district, Karnataka, India"
        },
        "kannur": {
            "locType": "construction",
            "blogLinks": [
                "https://www.quora.com/What-are-the-best-places-to-visit-for-a-two-days-trip-from-Bangalore?_escaped_fragment_=n%3D12"
            ],
            "longitude": "74.8858161",
            "closest_to": "nandi hills",
            "latitude": "12.8487602",
            "address": "Netravati bridge - Kannur Bypass Road (Proposed), Padil, Bajal, Mangaluru taluk, Dakshina Kannada, Karnataka, 575007, India"
        },
        "kenya": {
            "locType": "hamlet",
            "blogLinks": [
                "https://en.wikipedia.org/wiki/Nandi_Hills,_India",
                "http://www.touristlink.com/kenya/nandi-hills/overview.html"
            ],
            "longitude": "75.5001151",
            "closest_to": "nandi hills",
            "latitude": "12.6920464",
            "address": "Kenya, Sulya taluk, Dakshina Kannada, Karnataka, India"
        },
        "national park": {
            "locType": "national_park",
            "blogLinks": [
                "https://www.quora.com/What-are-the-best-places-to-visit-in-Karnataka-India"
            ],
            "longitude": "77.5722783830694",
            "closest_to": "nandi hills",
            "latitude": "12.77900335",
            "address": "Bannerghatta National Park, Anekal Road, Begihalli, Bangalore Urban, Karnataka, 560076, India"
        },
        "charmadi": {
            "locType": "village",
            "blogLinks": [
                "https://www.quora.com/What-are-the-best-places-to-visit-in-Karnataka-India"
            ],
            "longitude": "75.3967377",
            "closest_to": "nandi hills",
            "latitude": "13.0365436",
            "address": "Charmadi, Beltangadi taluk, Dakshina Kannada, Karnataka, 574290, India"
        },
        "kalyana mantap": {
            "locType": "community_centre",
            "blogLinks": [
                "http://wikitravel.org/en/Nandi_Hills"
            ],
            "longitude": "77.5878226698058",
            "closest_to": "nandi hills",
            "latitude": "12.9410323",
            "address": "Prasanna Kalyana Mantap, 10C Main, Mavalli, Someshwaranagar, Bengaluru, Bangalore Urban, Karnataka, 560001, India"
        },
        "hindupur": {
            "locType": "primary",
            "blogLinks": [
                "https://www.quora.com/What-are-the-best-places-to-visit-in-Karnataka-India"
            ],
            "longitude": "77.5237128",
            "closest_to": "nandi hills",
            "latitude": "13.3580171",
            "address": "Hindupur ByPass Road, Bachchahalli, Doddaballapura taluk, Bangalore Rural, Karnataka, India"
        }
    },
    "belgaum": {
        "osm_id": "316417174",
        "display_name": "Belgaum, Belgaum district, Karnataka, India",
        "importance": 0.65,
        "place_id": "1393576",
        "class": "place",
        "boundingbox": [
            "15.693333",
            "16.973333",
            "74.11",
            "75.39"
        ],
        "type": "county",
        "lon": "74.75",
        "licence": "Data \u00a9 OpenStreetMap contributors, ODbL 1.0. http://www.openstreetmap.org/copyright",
        "osm_type": "node",
        "lat": "16.333333",
        "icon": "https://nominatim.openstreetmap.org/images/mapicons/poi_boundary_administrative.p.20.png"
    },
    "nandi hills": {
        "osm_id": "369233221",
        "display_name": "Nandi Upahara, Nandhi Hills Road, Kottige Thimmanahalli, Devanahalli taluk, Bangalore Rural, Karnataka, India",
        "importance": 0.301,
        "place_id": "146373589",
        "class": "tourism",
        "boundingbox": [
            "13.2675644",
            "13.2688204",
            "77.7191326",
            "77.7199363"
        ],
        "type": "hotel",
        "lon": "77.7194741670394",
        "licence": "Data \u00a9 OpenStreetMap contributors, ODbL 1.0. http://www.openstreetmap.org/copyright",
        "osm_type": "way",
        "lat": "13.268142",
        "icon": "https://nominatim.openstreetmap.org/images/mapicons/accommodation_hotel2.p.20.png"
    }
}