{
    "bellary": {
        "lat": "15.2485413",
        "importance": 0.65,
        "osm_type": "node",
        "class": "place",
        "boundingbox": [
            "14.6085413",
            "15.8885413",
            "76.1923648",
            "77.4723648"
        ],
        "icon": "https://nominatim.openstreetmap.org/images/mapicons/poi_boundary_administrative.p.20.png",
        "osm_id": "316417114",
        "licence": "Data \u00a9 OpenStreetMap contributors, ODbL 1.0. http://www.openstreetmap.org/copyright",
        "lon": "76.8323648",
        "place_id": "1393549",
        "display_name": "Bellary, Bellary district, Karnataka, India",
        "type": "county"
    },
    "jog falls": {
        "lat": "14.2276106",
        "importance": 0.66590216462374,
        "osm_type": "node",
        "class": "place",
        "boundingbox": [
            "14.2176106",
            "14.2376106",
            "74.8028715",
            "74.8228715"
        ],
        "icon": "https://nominatim.openstreetmap.org/images/mapicons/poi_place_village.p.20.png",
        "osm_id": "1191427856",
        "licence": "Data \u00a9 OpenStreetMap contributors, ODbL 1.0. http://www.openstreetmap.org/copyright",
        "lon": "74.8128715",
        "place_id": "12596177",
        "display_name": "Jog Falls, Joga - Kargal, Sagara taluk, Shimoga district, Karnataka, India",
        "type": "locality"
    },
    "mentions": {
        "karkala": {
            "closest_to": "jog falls",
            "latitude": "13.2112826",
            "blogLinks": [
                "https://www.quora.com/What-are-the-best-places-to-visit-in-Karnataka-India",
                "https://www.quora.com/Tourism-Which-is-the-best-tourist-place-to-visit-from-Bangalore-when-you-have-a-3-day-holiday"
            ],
            "address": "Karkala, Karkala taluk, Udupi district, Karnataka, 574104, India",
            "locType": "town",
            "longitude": "74.9959586"
        },
        "meguti temple": {
            "closest_to": "jog falls",
            "latitude": "16.0173371",
            "blogLinks": [
                "http://www.onlinegkguide.com/india/Karnataka/"
            ],
            "address": "Meguti Jaina temple, SH133, Aihole, Hunagunda taluku, Bagalkote district, Karnataka, India",
            "locType": "place_of_worship",
            "longitude": "75.8840813"
        },
        "suratkal": {
            "closest_to": "jog falls",
            "latitude": "12.9830998",
            "blogLinks": [
                "http://www.onlinegkguide.com/india/Karnataka/"
            ],
            "address": "Suratkal, Mangaluru taluk, Dakshina Kannada, Karnataka, 575014, India",
            "locType": "town",
            "longitude": "74.8046595"
        },
        "maravante": {
            "closest_to": "jog falls",
            "latitude": "13.7248514",
            "blogLinks": [
                "https://www.quora.com/What-are-the-best-places-to-visit-in-Karnataka-India"
            ],
            "address": "Maravante, \u0c95\u0cc1\u0c82\u0ca6\u0cbe\u0caa\u0cc1\u0cb0 \u0ca4\u0cbe\u0cb2\u0cc2\u0c95\u0cc1, Udupi district, Karnataka, India",
            "locType": "village",
            "longitude": "74.6428565"
        },
        "samse": {
            "closest_to": "jog falls",
            "latitude": "13.1894244",
            "blogLinks": [
                "https://www.quora.com/What-are-the-best-places-to-visit-in-Karnataka-India",
                "https://www.quora.com/Tourism-Which-is-the-best-tourist-place-to-visit-from-Bangalore-when-you-have-a-3-day-holiday"
            ],
            "address": "Samse, Mudigere taluk, Chikkamagaluru district, Karnataka, India",
            "locType": "village",
            "longitude": "75.3332678"
        },
        "mallikarjuna temple": {
            "closest_to": "jog falls",
            "latitude": "15.9321101",
            "blogLinks": [
                "http://www.onlinegkguide.com/india/Karnataka/"
            ],
            "address": "Mallikarjuna Temple, SH135, Nelavagi, Badami taluku, Bagalkote district, Karnataka, India",
            "locType": "place_of_worship",
            "longitude": "75.7213492"
        },
        "india": {
            "closest_to": "jog falls",
            "latitude": "14.5203896",
            "blogLinks": [
                "https://www.quora.com/What-are-the-best-places-to-visit-in-Karnataka-India",
                "http://travel.india.com/jog-falls/",
                "http://www.distancesfrom.com/in/Trip-Cost-from-Jog-Falls-to-Bellary-via-Jog-Falls/TripCostHistory/19098929.aspx",
                "http://www.onlinegkguide.com/india/Karnataka/",
                "https://sarojlenka.wordpress.com/tag/jog-falls/",
                "https://www.tripadvisor.com/ShowUserReviews-g1156205-d1206548-r356293860-Jog_Falls-Shimoga_Karnataka.html",
                "http://www.indiatravelblog.com/articles/Karnataka-Tourist-Places.aspx",
                "http://www.nivalink.com/destination/jog-falls",
                "http://www.mapsofindia.com/karnataka/places-to-visit-in-hampi.html",
                "http://www.holidayiq.com/Kabini-Sightseeing-392.html",
                "http://distancecalculator.globefeed.com/India_Distance_Calculator.asp?state=19",
                "http://www.distancesfrom.com/in/travel-time-from-Jog-Falls-to-Bellary-via-Jog-Falls/TravelTimeHistory/19098929.aspx",
                "http://www.distancesfrom.com/flight-distance-from-Jog-Falls-to-Hampi/FlightHistory/33570023.aspx",
                "https://www.quora.com/Tourism-Which-is-the-best-tourist-place-to-visit-from-Bangalore-when-you-have-a-3-day-holiday",
                "http://www.distancesfrom.com/in/map-from-Jog-Falls-to-Bellary-via-Jog-Falls/MapHistory/19098929.aspx"
            ],
            "address": "Karnataka, India",
            "locType": "administrative",
            "longitude": "75.7223521"
        },
        "tumkur": {
            "closest_to": "bellary",
            "latitude": "13.4999406",
            "blogLinks": [
                "http://www.indiatravelblog.com/articles/Karnataka-Tourist-Places.aspx"
            ],
            "address": "Tumakuru, Tumkur district, Karnataka, India",
            "locType": "county",
            "longitude": "77.0002445"
        },
        "kali river": {
            "closest_to": "jog falls",
            "latitude": "15.0145378",
            "blogLinks": [
                "https://www.quora.com/What-are-the-best-places-to-visit-in-Karnataka-India",
                "https://www.quora.com/Tourism-Which-is-the-best-tourist-place-to-visit-from-Bangalore-when-you-have-a-3-day-holiday"
            ],
            "address": "Kali, Joida taluk, Uttara Kannada, Karnataka, India",
            "locType": "river",
            "longitude": "74.5802901"
        },
        "sringeri": {
            "closest_to": "jog falls",
            "latitude": "13.4261724",
            "blogLinks": [
                "https://www.quora.com/What-are-the-best-places-to-visit-in-Karnataka-India",
                "https://www.quora.com/Tourism-Which-is-the-best-tourist-place-to-visit-from-Bangalore-when-you-have-a-3-day-holiday"
            ],
            "address": "Sringeri, Sringeri taluku, Chikkamagaluru district, Karnataka, 577592, India",
            "locType": "town",
            "longitude": "75.2553718"
        },
        "karwar": {
            "closest_to": "jog falls",
            "latitude": "14.8120931",
            "blogLinks": [
                "https://www.quora.com/Tourism-Which-is-the-best-tourist-place-to-visit-from-Bangalore-when-you-have-a-3-day-holiday"
            ],
            "address": "Karwar, Karavara taluk, Uttara Kannada, Karnataka, 581300, India",
            "locType": "town",
            "longitude": "74.1319229"
        },
        "belthangady": {
            "closest_to": "jog falls",
            "latitude": "12.9899316",
            "blogLinks": [
                "https://www.quora.com/What-are-the-best-places-to-visit-in-Karnataka-India",
                "https://www.quora.com/Tourism-Which-is-the-best-tourist-place-to-visit-from-Bangalore-when-you-have-a-3-day-holiday"
            ],
            "address": "Government Model Primary School Belthangady, NH73, Guruvayankere, Beltangadi taluk, Dakshina Kannada, Karnataka, India",
            "locType": "school",
            "longitude": "75.2789924801603"
        },
        "sagara": {
            "closest_to": "jog falls",
            "latitude": "14.1666594",
            "blogLinks": [
                "http://www.nivalink.com/destination/jog-falls"
            ],
            "address": "Sagara, Sagara taluk, Shimoga district, Karnataka, 577400, India",
            "locType": "town",
            "longitude": "75.0262551"
        },
        "kodagu": {
            "closest_to": "jog falls",
            "latitude": "12.38117345",
            "blogLinks": [
                "https://www.quora.com/What-are-the-best-places-to-visit-in-Karnataka-India",
                "https://www.quora.com/Tourism-Which-is-the-best-tourist-place-to-visit-from-Bangalore-when-you-have-a-3-day-holiday"
            ],
            "address": "Kodagu, Karnataka, India",
            "locType": "administrative",
            "longitude": "75.6677235950852"
        },
        "sharavati": {
            "closest_to": "jog falls",
            "latitude": "14.2360979",
            "blogLinks": [
                "https://www.quora.com/Tourism-Which-is-the-best-tourist-place-to-visit-from-Bangalore-when-you-have-a-3-day-holiday"
            ],
            "address": "Sharavati, Sagara taluk, Shimoga district, Karnataka, India",
            "locType": "river",
            "longitude": "74.7647294"
        },
        "netrani island": {
            "closest_to": "jog falls",
            "latitude": "14.0174924",
            "blogLinks": [
                "https://www.quora.com/Tourism-Which-is-the-best-tourist-place-to-visit-from-Bangalore-when-you-have-a-3-day-holiday"
            ],
            "address": "Netrani, Uttara Kannada, Karnataka, India",
            "locType": "island",
            "longitude": "74.3272086675849"
        },
        "hassan": {
            "closest_to": "jog falls",
            "latitude": "13.0070817",
            "blogLinks": [
                "https://www.quora.com/What-are-the-best-places-to-visit-in-Karnataka-India"
            ],
            "address": "Hassan, Hasana taluk, Hassan district, Karnataka, 573201, India",
            "locType": "town",
            "longitude": "76.0992703"
        },
        "brahmagiri hill": {
            "closest_to": "jog falls",
            "latitude": "14.8001586",
            "blogLinks": [
                "http://www.holidayiq.com/Kabini-Sightseeing-392.html"
            ],
            "address": "Brahmagiri Betta, Molakalmuru taluku, Chitradurga district, Karnataka, India",
            "locType": "peak",
            "longitude": "76.8122474"
        },
        "virupaksha temple": {
            "closest_to": "jog falls",
            "latitude": "15.3351754",
            "blogLinks": [
                "http://www.holidayiq.com/Hampi-Sightseeing-370.html",
                "http://www.mapsofindia.com/karnataka/places-to-visit-in-hampi.html"
            ],
            "address": "Virupaksha Temple, Hampi Bazaar, Hampe, Hosapete taluk, Bellary district, Karnataka, 583239, India",
            "locType": "place_of_worship",
            "longitude": "76.4587777156223"
        },
        "anantapur district": {
            "closest_to": "bellary",
            "latitude": "13.7972948",
            "blogLinks": [
                "https://www.quora.com/What-are-the-best-places-to-visit-in-Karnataka-India",
                "https://www.quora.com/Tourism-Which-is-the-best-tourist-place-to-visit-from-Bangalore-when-you-have-a-3-day-holiday"
            ],
            "address": "RTO Karnataka, Srinagar - Kanyakumari Highway, Paragodu, Bagepalli taluk, Chikkaballapura district, Karnataka, 561207, India",
            "locType": "yes",
            "longitude": "77.7596024"
        },
        "bijapur": {
            "closest_to": "bellary",
            "latitude": "16.8269911",
            "blogLinks": [
                "https://www.quora.com/What-are-the-best-places-to-visit-in-Karnataka-India"
            ],
            "address": "Vijayapura, Vijayapura taluk, Bijapur district, Karnataka, 586101, India",
            "locType": "city",
            "longitude": "75.7175387"
        },
        "ranganatha swamy": {
            "closest_to": "jog falls",
            "latitude": "13.14749975",
            "blogLinks": [
                "https://www.quora.com/Tourism-Which-is-the-best-tourist-place-to-visit-from-Bangalore-when-you-have-a-3-day-holiday"
            ],
            "address": "Ranganatha Swamy Betta, Hasana taluk, Hassan district, Karnataka, India",
            "locType": "hamlet",
            "longitude": "76.1656215275047"
        },
        "uttara kannada": {
            "closest_to": "jog falls",
            "latitude": "14.6726379",
            "blogLinks": [
                "http://www.distancesfrom.com/in/travel-time-from-Jog-Falls-to-Bellary-via-Jog-Falls/TravelTimeHistory/19098929.aspx",
                "https://www.quora.com/Tourism-Which-is-the-best-tourist-place-to-visit-from-Bangalore-when-you-have-a-3-day-holiday",
                "http://www.distancesfrom.com/in/Trip-Cost-from-Jog-Falls-to-Bellary-via-Jog-Falls/TripCostHistory/19098929.aspx",
                "http://www.distancesfrom.com/in/map-from-Jog-Falls-to-Bellary-via-Jog-Falls/MapHistory/19098929.aspx"
            ],
            "address": "Uttara Kannada, Karnataka, India",
            "locType": "administrative",
            "longitude": "74.4729163045979"
        },
        "kodagu district": {
            "closest_to": "jog falls",
            "latitude": "12.2519249",
            "blogLinks": [
                "http://www.holidayiq.com/Kabini-Sightseeing-392.html"
            ],
            "address": "Kodagu, Karnataka, India",
            "locType": "county",
            "longitude": "75.7412148"
        },
        "lal bagh": {
            "closest_to": "jog falls",
            "latitude": "12.8859223",
            "blogLinks": [
                "http://www.onlinegkguide.com/india/Karnataka/"
            ],
            "address": "Lal Bagh Bus Stop, Mahatma Gandhi Road, Lalbagh, Ladyhill, Mangaluru, Mangaluru taluk, Dakshina Kannada, Karnataka, 575001, India",
            "locType": "bus_stop",
            "longitude": "74.8386152"
        },
        "bellary": {
            "closest_to": "jog falls",
            "latitude": "15.2485413",
            "blogLinks": [
                "http://www.distancesfrom.com/in/Trip-Cost-from-Jog-Falls-to-Bellary-via-Jog-Falls/TripCostHistory/19098929.aspx",
                "https://sarojlenka.wordpress.com/tag/jog-falls/",
                "http://www.indiatravelblog.com/articles/Karnataka-Tourist-Places.aspx",
                "http://www.mapsofindia.com/karnataka/places-to-visit-in-hampi.html",
                "http://www.distancesfrom.com/in/travel-time-from-Jog-Falls-to-Bellary-via-Jog-Falls/TravelTimeHistory/19098929.aspx",
                "http://www.distancesfrom.com/in/map-from-Jog-Falls-to-Bellary-via-Jog-Falls/MapHistory/19098929.aspx"
            ],
            "address": "Bellary, Bellary district, Karnataka, India",
            "locType": "county",
            "longitude": "76.8323648"
        },
        "kundapura": {
            "closest_to": "jog falls",
            "latitude": "13.6250993",
            "blogLinks": [
                "http://www.nivalink.com/destination/jog-falls"
            ],
            "address": "Kundapura, \u0c95\u0cc1\u0c82\u0ca6\u0cbe\u0caa\u0cc1\u0cb0 \u0ca4\u0cbe\u0cb2\u0cc2\u0c95\u0cc1, Udupi district, Karnataka, 576200, India",
            "locType": "town",
            "longitude": "74.6915722"
        },
        "south": {
            "closest_to": "bellary",
            "latitude": "13.2942848",
            "blogLinks": [
                "http://www.nivalink.com/destination/jog-falls"
            ],
            "address": "s, Vijayapura, Devanahalli taluk, Bangalore Rural, Karnataka, 562135, India",
            "locType": "residential",
            "longitude": "77.8040874"
        },
        "hotel ashoka": {
            "closest_to": "bellary",
            "latitude": "15.1439926",
            "blogLinks": [
                "https://sarojlenka.wordpress.com/tag/jog-falls/"
            ],
            "address": "Hotel Ashoka, Station Road, Ballari, Bellary taluk, Bellary district, Karnataka, 583101, India",
            "locType": "hotel",
            "longitude": "76.9262"
        },
        "sharavati river": {
            "closest_to": "jog falls",
            "latitude": "14.2360979",
            "blogLinks": [
                "http://travel.india.com/jog-falls/"
            ],
            "address": "Sharavati, Sagara taluk, Shimoga district, Karnataka, India",
            "locType": "river",
            "longitude": "74.7647294"
        },
        "kavaledurga": {
            "closest_to": "jog falls",
            "latitude": "13.7177176",
            "blogLinks": [
                "https://www.quora.com/Tourism-Which-is-the-best-tourist-place-to-visit-from-Bangalore-when-you-have-a-3-day-holiday"
            ],
            "address": "Kavaledurga, Tirthahalli taluk, Shimoga district, Karnataka, India",
            "locType": "village",
            "longitude": "75.1269652"
        },
        "mangalore": {
            "closest_to": "jog falls",
            "latitude": "12.8698101",
            "blogLinks": [
                "https://www.quora.com/What-are-the-best-places-to-visit-in-Karnataka-India",
                "http://www.onlinegkguide.com/india/Karnataka/"
            ],
            "address": "Mangaluru, Mangaluru taluk, Dakshina Kannada, Karnataka, 575001, India",
            "locType": "city",
            "longitude": "74.8430082"
        },
        "keladi": {
            "closest_to": "jog falls",
            "latitude": "14.2214761",
            "blogLinks": [
                "http://www.nivalink.com/destination/jog-falls"
            ],
            "address": "Keladi, Sagara taluk, Shimoga district, Karnataka, India",
            "locType": "village",
            "longitude": "75.0165753"
        },
        "iceland": {
            "closest_to": "jog falls",
            "latitude": "15.2760556",
            "blogLinks": [
                "https://www.quora.com/What-are-the-best-places-to-visit-in-Karnataka-India"
            ],
            "address": "Iceland, Sardar Patel Road, Hosapete, Hosapete taluk, Bellary district, Karnataka, 583200, India",
            "locType": "restaurant",
            "longitude": "76.3885296"
        },
        "linganamakki dam": {
            "closest_to": "jog falls",
            "latitude": "14.1758978",
            "blogLinks": [
                "http://travel.india.com/jog-falls/"
            ],
            "address": "Linganamakki Dam, Sagara taluk, Shimoga district, Karnataka, India",
            "locType": "dam",
            "longitude": "74.8464623767123"
        },
        "hubli": {
            "closest_to": "jog falls",
            "latitude": "15.3518378",
            "blogLinks": [
                "https://www.tripadvisor.com/ShowUserReviews-g1156205-d1206548-r355054103-Jog_Falls-Shimoga_Karnataka.html",
                "https://www.tripadvisor.com/ShowUserReviews-g1156205-d1206548-r356293860-Jog_Falls-Shimoga_Karnataka.html",
                "http://www.nivalink.com/destination/jog-falls"
            ],
            "address": "Hubballi - \u0cb9\u0cc1\u0cac\u0ccd\u0cac\u0cb3\u0ccd\u0cb3\u0cbf, Hubballi taluku, Dharwad district, Karnataka, 580020, India",
            "locType": "city",
            "longitude": "75.1379848"
        },
        "kalasa": {
            "closest_to": "jog falls",
            "latitude": "13.2322235",
            "blogLinks": [
                "https://www.quora.com/What-are-the-best-places-to-visit-in-Karnataka-India",
                "https://www.quora.com/Tourism-Which-is-the-best-tourist-place-to-visit-from-Bangalore-when-you-have-a-3-day-holiday"
            ],
            "address": "Kalasa, Mudigere taluk, Chikkamagaluru district, Karnataka, 577124, India",
            "locType": "town",
            "longitude": "75.3582366"
        },
        "aihole": {
            "closest_to": "jog falls",
            "latitude": "16.0192298",
            "blogLinks": [
                "http://www.onlinegkguide.com/india/Karnataka/"
            ],
            "address": "Aihole, Hunagunda taluku, Bagalkote district, Karnataka, India",
            "locType": "village",
            "longitude": "75.8819129"
        },
        "veerabhadra temple": {
            "closest_to": "bellary",
            "latitude": "17.1417262",
            "blogLinks": [
                "http://www.holidayiq.com/Hampi-Sightseeing-370.html"
            ],
            "address": "Veerabhadra Temple, SH149, Taranalli, Chitapura taluku, Kalaburagi district, Karnataka, India",
            "locType": "place_of_worship",
            "longitude": "76.9293272"
        },
        "lakshmi narasimha temple": {
            "closest_to": "jog falls",
            "latitude": "13.0109781",
            "blogLinks": [
                "http://www.holidayiq.com/Hampi-Sightseeing-370.html"
            ],
            "address": "Lakshmi Narasimha Temple, SH147, Nuggehalli, Channarayapattana taluk, Hassan district, Karnataka, India",
            "locType": "place_of_worship",
            "longitude": "76.4751415"
        },
        "coastal karnataka": {
            "closest_to": "jog falls",
            "latitude": "12.96014675",
            "blogLinks": [
                "http://www.nivalink.com/destination/jog-falls"
            ],
            "address": "Bharat Petroleum Mangalore Coastal Installation, Baikampady, Mangaluru taluk, Dakshina Kannada, Karnataka, 575014, India",
            "locType": "industrial",
            "longitude": "74.8137275833157"
        },
        "hindupur": {
            "closest_to": "bellary",
            "latitude": "13.3580171",
            "blogLinks": [
                "https://www.quora.com/What-are-the-best-places-to-visit-in-Karnataka-India",
                "https://www.quora.com/Tourism-Which-is-the-best-tourist-place-to-visit-from-Bangalore-when-you-have-a-3-day-holiday"
            ],
            "address": "Hindupur ByPass Road, Bachchahalli, Doddaballapura taluk, Bangalore Rural, Karnataka, India",
            "locType": "primary",
            "longitude": "77.5237128"
        },
        "hemakuta hill": {
            "closest_to": "jog falls",
            "latitude": "15.332915",
            "blogLinks": [
                "http://www.holidayiq.com/Hampi-Sightseeing-370.html"
            ],
            "address": "Hemakuta Hill, Hosapete taluk, Bellary district, Karnataka, India",
            "locType": "peak",
            "longitude": "76.4602971"
        },
        "pattadakal": {
            "closest_to": "jog falls",
            "latitude": "15.9506349",
            "blogLinks": [
                "http://www.onlinegkguide.com/india/Karnataka/"
            ],
            "address": "Pattadakal Temples, SH14, \u0cac\u0cbe\u0c9a\u0cbf\u0ca8\u0c97\u0cc1\u0ca1\u0ccd\u0ca1, Badami taluku, Bagalkote district, Karnataka, 587211, India",
            "locType": "attraction",
            "longitude": "75.815884048161"
        },
        "us": {
            "closest_to": "jog falls",
            "latitude": "14.5203896",
            "blogLinks": [
                "https://www.quora.com/Tourism-Which-is-the-best-tourist-place-to-visit-from-Bangalore-when-you-have-a-3-day-holiday"
            ],
            "address": "Karnataka, India",
            "locType": "administrative",
            "longitude": "75.7223521"
        },
        "gejjala mantapa": {
            "closest_to": "jog falls",
            "latitude": "15.33976025",
            "blogLinks": [
                "http://www.holidayiq.com/Hampi-Sightseeing-370.html"
            ],
            "address": "Gejjala Mantapa, Way to Vitthala Temple, Hampe, Hosapete taluk, Bellary district, Karnataka, 583239, India",
            "locType": "ruins",
            "longitude": "76.4848482044349"
        },
        "gokarna": {
            "closest_to": "jog falls",
            "latitude": "14.5439629",
            "blogLinks": [
                "https://www.quora.com/What-are-the-best-places-to-visit-in-Karnataka-India"
            ],
            "address": "Gokarna, Kumata taluk, Uttara Kannada, Karnataka, 581326, India",
            "locType": "town",
            "longitude": "74.3184418"
        },
        "belgaum": {
            "closest_to": "jog falls",
            "latitude": "16.333333",
            "blogLinks": [
                "http://www.indiatravelblog.com/articles/Karnataka-Tourist-Places.aspx"
            ],
            "address": "Belgaum, Belgaum district, Karnataka, India",
            "locType": "county",
            "longitude": "74.75"
        },
        "tungabhadra river": {
            "closest_to": "jog falls",
            "latitude": "15.3446123",
            "blogLinks": [
                "http://www.holidayiq.com/Hampi-Sightseeing-370.html",
                "http://www.mapsofindia.com/karnataka/places-to-visit-in-hampi.html"
            ],
            "address": "Tungabhadra, Gangavati taluku, Koppal district, Karnataka, India",
            "locType": "river",
            "longitude": "76.4931607"
        },
        "kalaseshwara temple": {
            "closest_to": "jog falls",
            "latitude": "13.23228505",
            "blogLinks": [
                "http://www.holidayiq.com/Hampi-Sightseeing-370.html"
            ],
            "address": "Kalaseshwara Temple, SH66, Kalasa, Mudigere taluk, Chikkamagaluru district, Karnataka, 577124, India",
            "locType": "place_of_worship",
            "longitude": "75.363446975"
        },
        "tumkur district of karnataka": {
            "closest_to": "jog falls",
            "latitude": "13.4176169",
            "blogLinks": [
                "http://www.indiatravelblog.com/articles/Karnataka-Tourist-Places.aspx"
            ],
            "address": "Tumkur district, Karnataka, India",
            "locType": "administrative",
            "longitude": "76.8817530420764"
        },
        "ujire": {
            "closest_to": "jog falls",
            "latitude": "12.9954619",
            "blogLinks": [
                "https://www.quora.com/What-are-the-best-places-to-visit-in-Karnataka-India",
                "https://www.quora.com/Tourism-Which-is-the-best-tourist-place-to-visit-from-Bangalore-when-you-have-a-3-day-holiday"
            ],
            "address": "Ujire, Beltangadi taluk, Dakshina Kannada, Karnataka, India",
            "locType": "village",
            "longitude": "75.3301061"
        },
        "udupi": {
            "closest_to": "jog falls",
            "latitude": "13.3419169",
            "blogLinks": [
                "https://www.quora.com/What-are-the-best-places-to-visit-in-Karnataka-India",
                "http://www.onlinegkguide.com/india/Karnataka/"
            ],
            "address": "Udupi, Udupi taluku, Udupi district, Karnataka, 576101, India",
            "locType": "city",
            "longitude": "74.7473232"
        },
        "bagalkot": {
            "closest_to": "jog falls",
            "latitude": "16.1853166",
            "blogLinks": [
                "https://www.quora.com/What-are-the-best-places-to-visit-in-Karnataka-India"
            ],
            "address": "Bagalakote, Bagalakote taluk, Bagalkote district, Karnataka, India",
            "locType": "city",
            "longitude": "75.6967919"
        },
        "mahakuta": {
            "closest_to": "jog falls",
            "latitude": "15.9369573",
            "blogLinks": [
                "http://www.onlinegkguide.com/india/Karnataka/"
            ],
            "address": "Mahakuta, Badami taluku, Bagalkote district, Karnataka, India",
            "locType": "village",
            "longitude": "75.7244267"
        },
        "chikkamagalur": {
            "closest_to": "jog falls",
            "latitude": "13.3030706",
            "blogLinks": [
                "https://www.quora.com/Tourism-Which-is-the-best-tourist-place-to-visit-from-Bangalore-when-you-have-a-3-day-holiday"
            ],
            "address": "Chikkamagalur, SH57, Hosamane Badavane, Hiremagaluru, Chikkamagaluru taluku, Chikkamagaluru district, Karnataka, 577101, India",
            "locType": "station",
            "longitude": "75.789501"
        },
        "bhadra river": {
            "closest_to": "jog falls",
            "latitude": "13.4888356",
            "blogLinks": [
                "https://www.quora.com/Tourism-Which-is-the-best-tourist-place-to-visit-from-Bangalore-when-you-have-a-3-day-holiday"
            ],
            "address": "Bhadra, Chikkamagaluru taluku, Chikkamagaluru district, Karnataka, India",
            "locType": "river",
            "longitude": "75.527118"
        },
        "hampi": {
            "closest_to": "jog falls",
            "latitude": "15.3359769",
            "blogLinks": [
                "https://www.quora.com/What-are-the-best-places-to-visit-in-Karnataka-India",
                "https://sarojlenka.wordpress.com/tag/jog-falls/",
                "http://www.onlinegkguide.com/india/Karnataka/",
                "http://www.mapsofindia.com/karnataka/places-to-visit-in-hampi.html",
                "http://www.distancesfrom.com/flight-distance-from-Jog-Falls-to-Hampi/FlightHistory/33570023.aspx",
                "https://www.tripoto.com/places-to-visit/india/bellary",
                "http://www.holidayiq.com/Hampi-Sightseeing-370.html"
            ],
            "address": "Hampe, Hosapete taluk, Bellary district, Karnataka, 583239, India",
            "locType": "village",
            "longitude": "76.4606199"
        },
        "ballari district of karnataka": {
            "closest_to": "bellary",
            "latitude": "15.1467299",
            "blogLinks": [
                "https://www.tripoto.com/places-to-visit/india/bellary"
            ],
            "address": "Ballari, Bellary taluk, Bellary district, Karnataka, India",
            "locType": "city",
            "longitude": "76.9125211"
        },
        "dakshina kannada": {
            "closest_to": "jog falls",
            "latitude": "12.8114089",
            "blogLinks": [
                "https://www.quora.com/What-are-the-best-places-to-visit-in-Karnataka-India",
                "https://www.quora.com/Tourism-Which-is-the-best-tourist-place-to-visit-from-Bangalore-when-you-have-a-3-day-holiday"
            ],
            "address": "Dakshina Kannada, Karnataka, India",
            "locType": "administrative",
            "longitude": "75.1008028650794"
        },
        "nandi hills": {
            "closest_to": "bellary",
            "latitude": "13.268142",
            "blogLinks": [
                "https://www.quora.com/What-are-the-best-places-to-visit-in-Karnataka-India",
                "https://www.quora.com/Tourism-Which-is-the-best-tourist-place-to-visit-from-Bangalore-when-you-have-a-3-day-holiday"
            ],
            "address": "Nandi Upahara, Nandhi Hills Road, Kottige Thimmanahalli, Devanahalli taluk, Bangalore Rural, Karnataka, India",
            "locType": "hotel",
            "longitude": "77.7194741670394"
        },
        "anegondi": {
            "closest_to": "jog falls",
            "latitude": "15.3509583",
            "blogLinks": [
                "http://www.mapsofindia.com/karnataka/places-to-visit-in-hampi.html"
            ],
            "address": "Anegundi, Gangavati taluku, Koppal district, Karnataka, India",
            "locType": "village",
            "longitude": "76.4924232"
        },
        "dubare": {
            "closest_to": "jog falls",
            "latitude": "12.3716865",
            "blogLinks": [
                "https://www.quora.com/What-are-the-best-places-to-visit-in-Karnataka-India"
            ],
            "address": "Dubare Elephant Camp, SH91, Dodda Bettageri, Somawarpet taluk, Kodagu, Karnataka, India",
            "locType": "attraction",
            "longitude": "75.9066719"
        },
        "sandur": {
            "closest_to": "jog falls",
            "latitude": "15.084389",
            "blogLinks": [
                "http://www.indiatravelblog.com/articles/Karnataka-Tourist-Places.aspx"
            ],
            "address": "Sanduru, Sanduru taluk, Bellary district, Karnataka, 583119, India",
            "locType": "town",
            "longitude": "76.5435934"
        },
        "belgaum karnataka": {
            "closest_to": "jog falls",
            "latitude": "16.333333",
            "blogLinks": [
                "http://www.indiatravelblog.com/articles/Karnataka-Tourist-Places.aspx"
            ],
            "address": "Belgaum, Belgaum district, Karnataka, India",
            "locType": "county",
            "longitude": "74.75"
        },
        "bandaje falls": {
            "closest_to": "jog falls",
            "latitude": "13.0801279",
            "blogLinks": [
                "https://www.quora.com/What-are-the-best-places-to-visit-in-Karnataka-India",
                "https://www.quora.com/Tourism-Which-is-the-best-tourist-place-to-visit-from-Bangalore-when-you-have-a-3-day-holiday"
            ],
            "address": "Bandaje to Bandaje falls, Bangadi, Beltangadi taluk, Dakshina Kannada, Karnataka, 574290, India",
            "locType": "track",
            "longitude": "75.3809448"
        },
        "papanatha temple": {
            "closest_to": "jog falls",
            "latitude": "15.94762935",
            "blogLinks": [
                "http://www.onlinegkguide.com/india/Karnataka/"
            ],
            "address": "Papanatha Temple, SH14, \u0cac\u0cbe\u0c9a\u0cbf\u0ca8\u0c97\u0cc1\u0ca1\u0ccd\u0ca1, Badami taluku, Bagalkote district, Karnataka, 587211, India",
            "locType": "yes",
            "longitude": "75.8164391839286"
        },
        "annapoorneshwari temple": {
            "closest_to": "jog falls",
            "latitude": "12.97910715",
            "blogLinks": [
                "https://www.quora.com/What-are-the-best-places-to-visit-in-Karnataka-India",
                "https://www.quora.com/Tourism-Which-is-the-best-tourist-place-to-visit-from-Bangalore-when-you-have-a-3-day-holiday"
            ],
            "address": "Sri Ambika Annapoorneshwari Temple, SH101, Sunkadakatte, Mangaluru taluk, Dakshina Kannada, Karnataka, India",
            "locType": "place_of_worship",
            "longitude": "74.9006001"
        },
        "krishnagiri": {
            "closest_to": "jog falls",
            "latitude": "15.3375394",
            "blogLinks": [
                "http://www.onlinegkguide.com/india/Karnataka/"
            ],
            "address": "Krishnagiri Colony, Padmaraj Nagar, Hubballi - \u0cb9\u0cc1\u0cac\u0ccd\u0cac\u0cb3\u0ccd\u0cb3\u0cbf, Hubballi taluku, Dharwad district, Karnataka, 580020, India",
            "locType": "neighbourhood",
            "longitude": "75.1096736"
        },
        "kannada": {
            "closest_to": "jog falls",
            "latitude": "12.8114089",
            "blogLinks": [
                "https://www.quora.com/What-are-the-best-places-to-visit-in-Karnataka-India",
                "https://www.quora.com/Tourism-Which-is-the-best-tourist-place-to-visit-from-Bangalore-when-you-have-a-3-day-holiday"
            ],
            "address": "Dakshina Kannada, Karnataka, India",
            "locType": "administrative",
            "longitude": "75.1008028650794"
        },
        "suvarna karnataka": {
            "closest_to": "jog falls",
            "latitude": "13.330513",
            "blogLinks": [
                "https://www.quora.com/Tourism-Which-is-the-best-tourist-place-to-visit-from-Bangalore-when-you-have-a-3-day-holiday"
            ],
            "address": "Suvarna, Udupi taluku, Udupi district, Karnataka, India",
            "locType": "river",
            "longitude": "74.9147884"
        },
        "somanathapura": {
            "closest_to": "bellary",
            "latitude": "13.75905",
            "blogLinks": [
                "https://www.quora.com/What-are-the-best-places-to-visit-in-Karnataka-India"
            ],
            "address": "Somanathapura, Bagepalli taluk, Chikkaballapura district, Karnataka, India",
            "locType": "village",
            "longitude": "77.9957587"
        },
        "hampi bazaar": {
            "closest_to": "jog falls",
            "latitude": "15.3347585",
            "blogLinks": [
                "http://www.mapsofindia.com/karnataka/places-to-visit-in-hampi.html"
            ],
            "address": "Hampi Bazaar, Hampe, Hosapete taluk, Bellary district, Karnataka, 583239, India",
            "locType": "unclassified",
            "longitude": "76.4621571"
        },
        "hemakuta": {
            "closest_to": "jog falls",
            "latitude": "15.332915",
            "blogLinks": [
                "http://www.holidayiq.com/Hampi-Sightseeing-370.html"
            ],
            "address": "Hemakuta Hill, Hosapete taluk, Bellary district, Karnataka, India",
            "locType": "peak",
            "longitude": "76.4602971"
        },
        "madhugiri": {
            "closest_to": "bellary",
            "latitude": "13.6601789",
            "blogLinks": [
                "http://www.indiatravelblog.com/articles/Karnataka-Tourist-Places.aspx"
            ],
            "address": "Madhugiri, Madhugiri taluk, Tumkur district, Karnataka, 572132, India",
            "locType": "town",
            "longitude": "77.2140882"
        },
        "vijayanagara": {
            "closest_to": "jog falls",
            "latitude": "16.3270486",
            "blogLinks": [
                "http://www.nivalink.com/destination/jog-falls"
            ],
            "address": "Vijayanagara, Chikodi taluk, Belgaum district, Karnataka, India",
            "locType": "village",
            "longitude": "74.7380455"
        },
        "south kodagu": {
            "closest_to": "jog falls",
            "latitude": "12.38117345",
            "blogLinks": [
                "http://www.holidayiq.com/Kabini-Sightseeing-392.html"
            ],
            "address": "Kodagu, Karnataka, India",
            "locType": "administrative",
            "longitude": "75.6677235950852"
        },
        "kemmangundi": {
            "closest_to": "jog falls",
            "latitude": "13.5463048",
            "blogLinks": [
                "http://www.indiatravelblog.com/articles/Karnataka-Tourist-Places.aspx"
            ],
            "address": "Kemmannagundi, Tarikere taluku, Chikkamagaluru district, Karnataka, India",
            "locType": "village",
            "longitude": "75.7520082"
        },
        "kodasalli dam": {
            "closest_to": "jog falls",
            "latitude": "14.91893295",
            "blogLinks": [
                "https://www.quora.com/What-are-the-best-places-to-visit-in-Karnataka-India",
                "https://www.quora.com/Tourism-Which-is-the-best-tourist-place-to-visit-from-Bangalore-when-you-have-a-3-day-holiday"
            ],
            "address": "Kodasalli Dam, Yallapura taluk, Uttara Kannada, Karnataka, India",
            "locType": "dam",
            "longitude": "74.5353892832085"
        },
        "uttara kannada district": {
            "closest_to": "jog falls",
            "latitude": "14.883333",
            "blogLinks": [
                "https://www.quora.com/What-are-the-best-places-to-visit-in-Karnataka-India",
                "https://www.quora.com/Tourism-Which-is-the-best-tourist-place-to-visit-from-Bangalore-when-you-have-a-3-day-holiday"
            ],
            "address": "Uttara Kannada, Karnataka, India",
            "locType": "county",
            "longitude": "74.583333"
        },
        "tirupati": {
            "closest_to": "jog falls",
            "latitude": "13.3289007",
            "blogLinks": [
                "https://www.quora.com/What-are-the-best-places-to-visit-in-Karnataka-India",
                "https://www.quora.com/Tourism-Which-is-the-best-tourist-place-to-visit-from-Bangalore-when-you-have-a-3-day-holiday"
            ],
            "address": "Malekallu Tirupathi, Arasikere taluku, Hassan district, Karnataka, India",
            "locType": "village",
            "longitude": "76.2727455"
        },
        "basavanagudi": {
            "closest_to": "jog falls",
            "latitude": "13.8345913",
            "blogLinks": [
                "http://www.onlinegkguide.com/india/Karnataka/"
            ],
            "address": "Basavanagudi, Bhadravati taluk, Shimoga district, Karnataka, India",
            "locType": "village",
            "longitude": "75.7339359"
        },
        "varada": {
            "closest_to": "jog falls",
            "latitude": "14.8717792",
            "blogLinks": [
                "http://www.nivalink.com/destination/jog-falls"
            ],
            "address": "Varada, Savanura taluk, Haveri district, Karnataka, India",
            "locType": "river",
            "longitude": "75.47206"
        },
        "haveri": {
            "closest_to": "jog falls",
            "latitude": "14.7874825",
            "blogLinks": [
                "https://www.quora.com/Tourism-Which-is-the-best-tourist-place-to-visit-from-Bangalore-when-you-have-a-3-day-holiday"
            ],
            "address": "Haveri, Haveri taluku, Haveri district, Karnataka, 581110, India",
            "locType": "town",
            "longitude": "75.3996731"
        },
        "belgaum district": {
            "closest_to": "jog falls",
            "latitude": "16.1631253",
            "blogLinks": [
                "http://www.indiatravelblog.com/articles/Karnataka-Tourist-Places.aspx"
            ],
            "address": "Belgaum district, Karnataka, India",
            "locType": "administrative",
            "longitude": "74.8896592460527"
        },
        "pushkarani": {
            "closest_to": "jog falls",
            "latitude": "13.5218095",
            "blogLinks": [
                "https://www.tripoto.com/places-to-visit/india/bellary"
            ],
            "address": "Pushkarani, NH66, Thekkatte, \u0c95\u0cc1\u0c82\u0ca6\u0cbe\u0caa\u0cc1\u0cb0 \u0ca4\u0cbe\u0cb2\u0cc2\u0c95\u0cc1, Udupi district, Karnataka, 576231, India",
            "locType": "water",
            "longitude": "74.7063912580927"
        },
        "badami": {
            "closest_to": "jog falls",
            "latitude": "15.9203874",
            "blogLinks": [
                "http://www.onlinegkguide.com/india/Karnataka/"
            ],
            "address": "Badami, Badami taluku, Bagalkote district, Karnataka, 587200, India",
            "locType": "town",
            "longitude": "75.6807865"
        },
        "tunga river": {
            "closest_to": "jog falls",
            "latitude": "13.6632221",
            "blogLinks": [
                "https://www.quora.com/Tourism-Which-is-the-best-tourist-place-to-visit-from-Bangalore-when-you-have-a-3-day-holiday"
            ],
            "address": "Tunga, Tirthahalli taluk, Shimoga district, Karnataka, India",
            "locType": "river",
            "longitude": "75.3221835"
        },
        "jog falls": {
            "closest_to": "jog falls",
            "latitude": "14.2276106",
            "blogLinks": [
                "http://travel.india.com/jog-falls/",
                "http://www.distancesfrom.com/in/Trip-Cost-from-Jog-Falls-to-Bellary-via-Jog-Falls/TripCostHistory/19098929.aspx",
                "http://www.karnatakatourism.org/",
                "http://www.distancesfrom.com/in/travel-time-from-Jog-Falls-to-Bellary-via-Jog-Falls/TravelTimeHistory/19098929.aspx",
                "http://www.distancesfrom.com/flight-distance-from-Jog-Falls-to-Hampi/FlightHistory/33570023.aspx",
                "http://www.distancesfrom.com/in/map-from-Jog-Falls-to-Bellary-via-Jog-Falls/MapHistory/19098929.aspx"
            ],
            "address": "Jog Falls, Joga - Kargal, Sagara taluk, Shimoga district, Karnataka, India",
            "locType": "locality",
            "longitude": "74.8128715"
        },
        "kadra": {
            "closest_to": "jog falls",
            "latitude": "14.9058881",
            "blogLinks": [
                "https://www.quora.com/Tourism-Which-is-the-best-tourist-place-to-visit-from-Bangalore-when-you-have-a-3-day-holiday"
            ],
            "address": "Kadra, Karavara taluk, Uttara Kannada, Karnataka, India",
            "locType": "village",
            "longitude": "74.3470725"
        },
        "malpe": {
            "closest_to": "jog falls",
            "latitude": "13.3507423",
            "blogLinks": [
                "https://www.quora.com/What-are-the-best-places-to-visit-in-Karnataka-India",
                "http://www.onlinegkguide.com/india/Karnataka/"
            ],
            "address": "Malpe, Udupi taluku, Udupi district, Karnataka, India",
            "locType": "village",
            "longitude": "74.7036914"
        }
    }
}