{
    "mentions": {
        "nethrani island": {
            "locType": "island",
            "blogLinks": [
                "https://en.wikipedia.org/wiki/Tourism_in_North_Karnataka"
            ],
            "longitude": "74.3272086675849",
            "closest_to": "udupi",
            "latitude": "14.0174924",
            "address": "Netrani, Uttara Kannada, Karnataka, India"
        },
        "ramanagara": {
            "locType": "town",
            "blogLinks": [
                "http://www.mapsofindia.com/maps/karnataka/"
            ],
            "longitude": "74.4900863",
            "closest_to": "udupi",
            "latitude": "15.422047",
            "address": "Ramanagara, Khanapura taluku, Belgaum district, Karnataka, India"
        },
        "saavira kambada basadi": {
            "locType": "place_of_worship",
            "blogLinks": [
                "https://www.thrillophilia.com/places-to-visit-near-mangalore"
            ],
            "longitude": "74.997675763839",
            "closest_to": "udupi",
            "latitude": "13.0741706",
            "address": "Saavira Kambada Basadi, Solapur-Mangalore Highway, Miyyar, Karkala taluk, Udupi district, Karnataka, 574107, India"
        },
        "konaje": {
            "locType": "village",
            "blogLinks": [
                "http://www.amuct.org/more/aifucto-conference/549-places-to-visit-in-and-around-mangalore"
            ],
            "longitude": "74.928293",
            "closest_to": "udupi",
            "latitude": "12.8201692",
            "address": "Konaje, Mangaluru taluk, Dakshina Kannada, Karnataka, India"
        },
        "venugopala": {
            "locType": "place_of_worship",
            "blogLinks": [
                "http://www.amuct.org/more/aifucto-conference/549-places-to-visit-in-and-around-mangalore"
            ],
            "longitude": "76.6520460624027",
            "closest_to": "udupi",
            "latitude": "12.30078135",
            "address": "Sri Venugopala Swami Devasthana, Tyagaraja Road, Vani Vilas, Mysuru, Mysuru taluk, Mysuru district, Karnataka, 570001, India"
        },
        "virupaksha temple": {
            "locType": "place_of_worship",
            "blogLinks": [
                "https://en.wikipedia.org/wiki/Tourism_in_North_Karnataka"
            ],
            "longitude": "76.4587777156223",
            "closest_to": "udupi",
            "latitude": "15.3351754",
            "address": "Virupaksha Temple, Hampi Bazaar, Hampe, Hosapete taluk, Bellary district, Karnataka, 583239, India"
        },
        "kabini": {
            "locType": "river",
            "blogLinks": [
                "https://www.quora.com/What-are-the-best-places-to-visit-in-Karnataka-India",
                "https://en.wikipedia.org/wiki/Tourism_in_North_Karnataka"
            ],
            "longitude": "76.4152088",
            "closest_to": "udupi",
            "latitude": "12.0140065",
            "address": "Kabini, Heggadadevanakote taluk, Mysuru district, Karnataka, India"
        },
        "malpe": {
            "locType": "village",
            "blogLinks": [
                "https://www.thrillophilia.com/places-to-visit-near-mangalore",
                "https://en.wikipedia.org/wiki/Tourism_in_North_Karnataka",
                "http://wikitravel.org/en/Udupi",
                "http://www.indiatravelblog.com/resources/3743-Tourist-Attractions-at-Udupi-Karnataka.aspx",
                "http://www.amuct.org/more/aifucto-conference/549-places-to-visit-in-and-around-mangalore",
                "https://www.tripoto.com/travel-guide/udupi/trips",
                "https://www.quora.com/What-are-the-best-places-to-visit-in-Karnataka-India"
            ],
            "longitude": "74.7036914",
            "closest_to": "udupi",
            "latitude": "13.3507423",
            "address": "Malpe, Udupi taluku, Udupi district, Karnataka, India"
        },
        "new city": {
            "locType": "supermarket",
            "blogLinks": [
                "https://en.wikipedia.org/wiki/Bellary"
            ],
            "longitude": "77.6736268",
            "closest_to": "bellary",
            "latitude": "12.9851864",
            "address": "New City Super Market, Kaggadasspura Main Road, Putanna Garden, C V Raman Nagar, A Narayanapura, Bangalore Urban, Karnataka, 560093, India"
        },
        "gurupura river": {
            "locType": "river",
            "blogLinks": [
                "https://www.thrillophilia.com/places-to-visit-near-mangalore"
            ],
            "longitude": "75.0304308",
            "closest_to": "udupi",
            "latitude": "13.005679",
            "address": "Gurupura - Phalguni, Bantwal taluk, Dakshina Kannada, Karnataka, India"
        },
        "raichur": {
            "locType": "county",
            "blogLinks": [
                "https://en.wikipedia.org/wiki/Bellary",
                "https://www.yatra.com/india-tourism/karnataka",
                "http://www.mapsofindia.com/maps/karnataka/"
            ],
            "longitude": "77.166667",
            "closest_to": "bellary",
            "latitude": "16.083333",
            "address": "Raichur, Raichur district, Karnataka, India"
        },
        "chola": {
            "locType": "yes",
            "blogLinks": [
                "https://en.wikipedia.org/wiki/Tourism_in_North_Karnataka"
            ],
            "longitude": "76.098782",
            "closest_to": "udupi",
            "latitude": "13.0023906",
            "address": "Chola Gold Loan, Bengaluru - Mangaluru Road, Ravindra Nagar, Santhe Pete, Hassan, Hasana taluk, Hassan district, Karnataka, 573201, India"
        },
        "ullal": {
            "locType": "town",
            "blogLinks": [
                "http://www.amuct.org/more/aifucto-conference/549-places-to-visit-in-and-around-mangalore"
            ],
            "longitude": "74.8407018",
            "closest_to": "udupi",
            "latitude": "12.8201288",
            "address": "Ullal, Mangaluru taluk, Dakshina Kannada, Karnataka, 574159, India"
        },
        "chandramouleshwara temple": {
            "locType": "place_of_worship",
            "blogLinks": [
                "http://www.indiatravelblog.com/resources/3761-Udupi-Tourist-Places.aspx",
                "http://www.indiatravelblog.com/resources/3743-Tourist-Attractions-at-Udupi-Karnataka.aspx"
            ],
            "longitude": "74.8024264",
            "closest_to": "udupi",
            "latitude": "13.0636768",
            "address": "Chandramouleshwara Temple, Edapally - Panvel Highway, Kolnad, Karnad, Padu Panambur, Mangaluru taluk, Dakshina Kannada, Karnataka, 575025, India"
        },
        "kuknur": {
            "locType": "village",
            "blogLinks": [
                "https://en.wikipedia.org/wiki/Tourism_in_North_Karnataka"
            ],
            "longitude": "75.9934934",
            "closest_to": "udupi",
            "latitude": "15.4902753",
            "address": "Kukanura, Yelaburga taluku, Koppal district, Karnataka, 583232, India"
        },
        "kundapura": {
            "locType": "town",
            "blogLinks": [
                "http://wikitravel.org/en/Udupi"
            ],
            "longitude": "74.6915722",
            "closest_to": "udupi",
            "latitude": "13.6250993",
            "address": "Kundapura, \u0c95\u0cc1\u0c82\u0ca6\u0cbe\u0caa\u0cc1\u0cb0 \u0ca4\u0cbe\u0cb2\u0cc2\u0c95\u0cc1, Udupi district, Karnataka, 576200, India"
        },
        "manjusha museum": {
            "locType": "museum",
            "blogLinks": [
                "https://en.wikipedia.org/wiki/Tourism_in_North_Karnataka"
            ],
            "longitude": "75.3821342838196",
            "closest_to": "udupi",
            "latitude": "12.95116975",
            "address": "Manjusha Museum, SH37, Dharmasthala, Beltangadi taluk, Dakshina Kannada, Karnataka, 574216, India"
        },
        "pattadakal": {
            "locType": "attraction",
            "blogLinks": [
                "https://en.wikipedia.org/wiki/Tourism_in_North_Karnataka"
            ],
            "longitude": "75.815884048161",
            "closest_to": "bellary",
            "latitude": "15.9506349",
            "address": "Pattadakal Temples, SH14, \u0cac\u0cbe\u0c9a\u0cbf\u0ca8\u0c97\u0cc1\u0ca1\u0ccd\u0ca1, Badami taluku, Bagalkote district, Karnataka, 587211, India"
        },
        "kodasalli dam": {
            "locType": "dam",
            "blogLinks": [
                "https://www.quora.com/What-are-the-best-places-to-visit-in-Karnataka-India"
            ],
            "longitude": "74.5353892832085",
            "closest_to": "udupi",
            "latitude": "14.91893295",
            "address": "Kodasalli Dam, Yallapura taluk, Uttara Kannada, Karnataka, India"
        },
        "anantapur": {
            "locType": "yes",
            "blogLinks": [
                "https://en.wikipedia.org/wiki/Bellary"
            ],
            "longitude": "77.7596024",
            "closest_to": "bellary",
            "latitude": "13.7972948",
            "address": "RTO Karnataka, Srinagar - Kanyakumari Highway, Paragodu, Bagepalli taluk, Chikkaballapura district, Karnataka, 561207, India"
        },
        "udupi railway": {
            "locType": "station",
            "blogLinks": [
                "http://www.indiatravelblog.com/resources/3761-Udupi-Tourist-Places.aspx"
            ],
            "longitude": "74.7710217",
            "closest_to": "udupi",
            "latitude": "13.3360878",
            "address": "Udupi Railway Station, Railway Godown Road, Indrali, Udupi, Udupi taluku, Udupi district, Karnataka, 576101, India"
        },
        "rock garden": {
            "locType": "waterfall",
            "blogLinks": [
                "https://en.wikipedia.org/wiki/Tourism_in_North_Karnataka"
            ],
            "longitude": "75.6142269",
            "closest_to": "udupi",
            "latitude": "12.2248591",
            "address": "Waterfalls by the Rock site, Madikeri taluku, Kodagu, Karnataka, India"
        },
        "sanduru": {
            "locType": "town",
            "blogLinks": [
                "https://en.wikipedia.org/wiki/Bellary"
            ],
            "longitude": "76.5435934",
            "closest_to": "udupi",
            "latitude": "15.084389",
            "address": "Sanduru, Sanduru taluk, Bellary district, Karnataka, 583119, India"
        },
        "siddheshwara": {
            "locType": "pharmacy",
            "blogLinks": [
                "https://en.wikipedia.org/wiki/Tourism_in_North_Karnataka"
            ],
            "longitude": "77.5876527",
            "closest_to": "bellary",
            "latitude": "13.0797146",
            "address": "Siddheshwara Medicals, Judicial Layout, Allalasandra, Bangalore, 7th Main Road, Judicial Layout, Bengaluru, Bangalore Urban, Karnataka, 560001, India"
        },
        "banavasi": {
            "locType": "town",
            "blogLinks": [
                "https://en.wikipedia.org/wiki/Tourism_in_North_Karnataka"
            ],
            "longitude": "75.0129845",
            "closest_to": "udupi",
            "latitude": "14.5389738",
            "address": "Banavasi, Shirasi taluk, Uttara Kannada, Karnataka, India"
        },
        "tungabhadra dam": {
            "locType": "dam",
            "blogLinks": [
                "https://www.tripoto.com/travel-guide/bellary"
            ],
            "longitude": "76.3339514796436",
            "closest_to": "udupi",
            "latitude": "15.2639032",
            "address": "Tungabhadra Dam, Hosapete taluk, Bellary district, Karnataka, India"
        },
        "itagi": {
            "locType": "village",
            "blogLinks": [
                "https://en.wikipedia.org/wiki/Tourism_in_North_Karnataka"
            ],
            "longitude": "75.6701043",
            "closest_to": "udupi",
            "latitude": "14.550374",
            "address": "Itagi, Ranebennuru taluk, Haveri district, Karnataka, India"
        },
        "bagalkot": {
            "locType": "city",
            "blogLinks": [
                "https://www.quora.com/What-are-the-best-places-to-visit-in-Karnataka-India"
            ],
            "longitude": "75.6967919",
            "closest_to": "bellary",
            "latitude": "16.1853166",
            "address": "Bagalakote, Bagalakote taluk, Bagalkote district, Karnataka, India"
        },
        "varada": {
            "locType": "river",
            "blogLinks": [
                "https://en.wikipedia.org/wiki/Tourism_in_North_Karnataka"
            ],
            "longitude": "75.47206",
            "closest_to": "udupi",
            "latitude": "14.8717792",
            "address": "Varada, Savanura taluk, Haveri district, Karnataka, India"
        },
        "bangalore bangalore": {
            "locType": "city",
            "blogLinks": [
                "https://www.quora.com/What-are-the-best-places-to-visit-in-Karnataka-India"
            ],
            "longitude": "77.5912997",
            "closest_to": "bellary",
            "latitude": "12.9791198",
            "address": "Bengaluru, Bangalore Urban, Karnataka, 560001, India"
        },
        "mysore district": {
            "locType": "city",
            "blogLinks": [
                "https://en.wikipedia.org/wiki/Tourism_in_North_Karnataka"
            ],
            "longitude": "76.6553609",
            "closest_to": "udupi",
            "latitude": "12.3051828",
            "address": "Mysuru, Mysuru taluk, Mysuru district, Karnataka, 570001, India"
        },
        "bankpur fort": {
            "locType": "archaeological_site",
            "blogLinks": [
                "https://en.wikipedia.org/wiki/Tourism_in_North_Karnataka"
            ],
            "longitude": "75.2512090188504",
            "closest_to": "udupi",
            "latitude": "14.9231815",
            "address": "Bankapura Fort, SH137, Guddada Channapura, Shiggaon taluk, Haveri district, Karnataka, 581202, India"
        },
        "chalukya": {
            "locType": "residential",
            "blogLinks": [
                "https://en.wikipedia.org/wiki/Tourism_in_North_Karnataka"
            ],
            "longitude": "77.5192989605445",
            "closest_to": "udupi",
            "latitude": "12.9617207",
            "address": "Chalukya Nagar, Chandra Layout, GKW Layout, Bangalore Urban, Karnataka, 560072, India"
        },
        "vijayanagar": {
            "locType": "station",
            "blogLinks": [
                "http://www.hoparoundindia.com/karnataka/attractions/bellary.aspx"
            ],
            "longitude": "77.5375757",
            "closest_to": "udupi",
            "latitude": "12.9713392",
            "address": "Vijayanagar, Chord Road, Marenahalli, Vijaya Nagar, Binny Layout, Bangalore Urban, Karnataka, 560040, India"
        },
        "gudavi": {
            "locType": "village",
            "blogLinks": [
                "https://en.wikipedia.org/wiki/Tourism_in_North_Karnataka"
            ],
            "longitude": "75.009649",
            "closest_to": "udupi",
            "latitude": "14.4400296",
            "address": "Gudavi, Soraba taluk, Shimoga district, Karnataka, India"
        },
        "hebbe falls": {
            "locType": "attraction",
            "blogLinks": [
                "https://en.wikipedia.org/wiki/Tourism_in_North_Karnataka"
            ],
            "longitude": "75.7253701",
            "closest_to": "udupi",
            "latitude": "13.5414025",
            "address": "Hebbe falls, Kemmannagundi Road, Attigundi, Chikkamagaluru taluku, Chikkamagaluru district, Karnataka, India"
        },
        "ranganathittu bird sanctuary": {
            "locType": "attraction",
            "blogLinks": [
                "https://www.yatra.com/india-tourism/karnataka",
                "https://en.wikipedia.org/wiki/Tourism_in_North_Karnataka"
            ],
            "longitude": "76.6553081",
            "closest_to": "udupi",
            "latitude": "12.4238524",
            "address": "Ranganathittu Bird Sanctuary, SH154, Palahalli, Srirangapattana taluk, Mandya district, Karnataka, 571438, India"
        },
        "krishnarajendra hill station": {
            "locType": "park",
            "blogLinks": [
                "http://www.indiatravelblog.com/resources/3761-Udupi-Tourist-Places.aspx",
                "http://www.indiatravelblog.com/resources/3743-Tourist-Attractions-at-Udupi-Karnataka.aspx"
            ],
            "longitude": "77.583027619944",
            "closest_to": "bellary",
            "latitude": "12.96370475",
            "address": "Silver Jubilee Park, Narasimharaja Road, Ganigarpet, Kalasipalya, Bengaluru, Bangalore Urban, Karnataka, 560001, India"
        },
        "belavadi": {
            "locType": "village",
            "blogLinks": [
                "https://en.wikipedia.org/wiki/Tourism_in_North_Karnataka"
            ],
            "longitude": "75.3760773",
            "closest_to": "udupi",
            "latitude": "13.5284899",
            "address": "Belavadi, Koppa taluk, Chikkamagaluru district, Karnataka, India"
        },
        "kannada": {
            "locType": "administrative",
            "blogLinks": [
                "https://www.thrillophilia.com/places-to-visit-near-mangalore",
                "https://en.wikipedia.org/wiki/Bellary",
                "http://www.amuct.org/more/aifucto-conference/549-places-to-visit-in-and-around-mangalore",
                "https://www.quora.com/What-are-the-best-places-to-visit-in-Karnataka-India"
            ],
            "longitude": "75.1008028650794",
            "closest_to": "udupi",
            "latitude": "12.8114089",
            "address": "Dakshina Kannada, Karnataka, India"
        },
        "ujire": {
            "locType": "village",
            "blogLinks": [
                "https://www.quora.com/What-are-the-best-places-to-visit-in-Karnataka-India"
            ],
            "longitude": "75.3301061",
            "closest_to": "udupi",
            "latitude": "12.9954619",
            "address": "Ujire, Beltangadi taluk, Dakshina Kannada, Karnataka, India"
        },
        "ballari district": {
            "locType": "city",
            "blogLinks": [
                "https://en.wikipedia.org/wiki/Bellary"
            ],
            "longitude": "76.9125211",
            "closest_to": "udupi",
            "latitude": "15.1467299",
            "address": "Ballari, Bellary taluk, Bellary district, Karnataka, India"
        },
        "shravanabelagola": {
            "locType": "town",
            "blogLinks": [
                "https://www.thrillophilia.com/places-to-visit-near-mangalore",
                "https://en.wikipedia.org/wiki/Tourism_in_North_Karnataka"
            ],
            "longitude": "76.4869997",
            "closest_to": "udupi",
            "latitude": "12.8581305",
            "address": "Shravanabelagola, Channarayapattana taluk, Hassan district, Karnataka, 573135, India"
        },
        "chitradurga": {
            "locType": "town",
            "blogLinks": [
                "http://www.mapsofindia.com/maps/karnataka/",
                "https://en.wikipedia.org/wiki/Bellary",
                "https://www.yatra.com/india-tourism/karnataka",
                "https://en.wikipedia.org/wiki/Tourism_in_North_Karnataka"
            ],
            "longitude": "76.4005122",
            "closest_to": "udupi",
            "latitude": "14.2266443",
            "address": "Chitradurga, Chitradurga taluku, Chitradurga district, Karnataka, 577500, India"
        },
        "karavali hotel": {
            "locType": "yes",
            "blogLinks": [
                "http://www.indiatravelblog.com/resources/3761-Udupi-Tourist-Places.aspx"
            ],
            "longitude": "76.1014776083443",
            "closest_to": "udupi",
            "latitude": "13.00404425",
            "address": "Karavali Hotel, Racecourse Road, Ravindra Nagar, K R Puram, Hassan, Hasana taluk, Hassan district, Karnataka, 573201, India"
        },
        "chamarajanagar": {
            "locType": "station",
            "blogLinks": [
                "http://www.mapsofindia.com/maps/karnataka/",
                "https://en.wikipedia.org/wiki/Tourism_in_North_Karnataka"
            ],
            "longitude": "76.9331345",
            "closest_to": "udupi",
            "latitude": "11.9346624",
            "address": "Chamarajanagar, Nanjangudu-Chamarajanagar Road, Kadahalli, Chamarajanagara taluk, Chamarajanagar district, Karnataka, 571313, India"
        },
        "lakkundi": {
            "locType": "village",
            "blogLinks": [
                "https://en.wikipedia.org/wiki/Tourism_in_North_Karnataka"
            ],
            "longitude": "76.4084687",
            "closest_to": "bellary",
            "latitude": "16.5255464",
            "address": "Lakkundi, Muddebihala taluku, Bijapur district, Karnataka, India"
        },
        "tungabhadra": {
            "locType": "river",
            "blogLinks": [
                "http://www.hoparoundindia.com/karnataka/attractions/bellary.aspx",
                "http://wikitravel.org/en/Mantralayam",
                "https://www.tripoto.com/travel-guide/bellary",
                "https://en.wikipedia.org/wiki/Tourism_in_North_Karnataka"
            ],
            "longitude": "76.4931607",
            "closest_to": "udupi",
            "latitude": "15.3446123",
            "address": "Tungabhadra, Gangavati taluku, Koppal district, Karnataka, India"
        },
        "anshi national park": {
            "locType": "national_park",
            "blogLinks": [
                "https://en.wikipedia.org/wiki/Tourism_in_North_Karnataka"
            ],
            "longitude": "74.3934408094182",
            "closest_to": "udupi",
            "latitude": "14.9994424",
            "address": "Anshi National Park, SH46, Bidoli, Joida taluk, Uttara Kannada, Karnataka, India"
        },
        "subramanya": {
            "locType": "commercial",
            "blogLinks": [
                "https://www.thrillophilia.com/places-to-visit-near-mangalore",
                "http://www.amuct.org/more/aifucto-conference/549-places-to-visit-in-and-around-mangalore",
                "https://en.wikipedia.org/wiki/Tourism_in_North_Karnataka"
            ],
            "longitude": "77.6015800913134",
            "closest_to": "bellary",
            "latitude": "12.9251206",
            "address": "Subramanya Arcade, Marenahalli, Bengaluru, Bangalore Urban, Karnataka, 560001, India"
        },
        "naganur": {
            "locType": "village",
            "blogLinks": [
                "https://en.wikipedia.org/wiki/Tourism_in_North_Karnataka"
            ],
            "longitude": "74.4824431",
            "closest_to": "udupi",
            "latitude": "16.073351",
            "address": "Naganur, Hukkeri taluku, Belgaum district, Karnataka, India"
        },
        "kapu beach": {
            "locType": "beach",
            "blogLinks": [
                "http://wikitravel.org/en/Udupi"
            ],
            "longitude": "74.7388930883129",
            "closest_to": "udupi",
            "latitude": "13.2187564",
            "address": "Kapu Beach, NH66, Mallaru, Udupi taluku, Udupi district, Karnataka, India"
        },
        "cubbon park": {
            "locType": "station",
            "blogLinks": [
                "https://www.yatra.com/india-tourism/karnataka",
                "https://www.quora.com/What-are-the-best-places-to-visit-in-Karnataka-India"
            ],
            "longitude": "77.5977565",
            "closest_to": "bellary",
            "latitude": "12.9808487",
            "address": "Cubbon Park, Cubbon Road, Tasker Town, Shivajinagar, Bengaluru, Bangalore Urban, Karnataka, 560001, India"
        },
        "kumta": {
            "locType": "town",
            "blogLinks": [
                "https://en.wikipedia.org/wiki/Tourism_in_North_Karnataka"
            ],
            "longitude": "74.4107617",
            "closest_to": "udupi",
            "latitude": "14.4261647",
            "address": "Kumta, Kumata taluk, Uttara Kannada, Karnataka, India"
        },
        "dakshin kannada": {
            "locType": "restaurant",
            "blogLinks": [
                "https://www.thrillophilia.com/places-to-visit-near-mangalore"
            ],
            "longitude": "75.0309089",
            "closest_to": "udupi",
            "latitude": "12.8827367",
            "address": "Dakshin Court, NH73, Kaikunje, Bantwal Cross Road, Bantwal taluk, Dakshina Kannada, Karnataka, India"
        },
        "panvel": {
            "locType": "trunk",
            "blogLinks": [
                "http://www.indiatravelblog.com/resources/3761-Udupi-Tourist-Places.aspx"
            ],
            "longitude": "74.797245",
            "closest_to": "udupi",
            "latitude": "13.0505856",
            "address": "Edapally - Panvel Highway, Kolnad, Karnad, Padu Panambur, Mangaluru taluk, Dakshina Kannada, Karnataka, 575025, India"
        },
        "tirupati": {
            "locType": "village",
            "blogLinks": [
                "https://en.wikipedia.org/wiki/Bellary",
                "https://www.quora.com/What-are-the-best-places-to-visit-in-Karnataka-India"
            ],
            "longitude": "76.2727455",
            "closest_to": "udupi",
            "latitude": "13.3289007",
            "address": "Malekallu Tirupathi, Arasikere taluku, Hassan district, Karnataka, India"
        },
        "south": {
            "locType": "residential",
            "blogLinks": [
                "http://wikitravel.org/en/Udupi",
                "https://en.wikipedia.org/wiki/Tourism_in_North_Karnataka"
            ],
            "longitude": "77.8040874",
            "closest_to": "bellary",
            "latitude": "13.2942848",
            "address": "s, Vijayapura, Devanahalli taluk, Bangalore Rural, Karnataka, 562135, India"
        },
        "ooty": {
            "locType": "primary",
            "blogLinks": [
                "https://www.quora.com/What-are-the-best-places-to-visit-in-Karnataka-India"
            ],
            "longitude": "76.6586807",
            "closest_to": "udupi",
            "latitude": "12.2774807",
            "address": "Ooty Road, Vidyaranyapuram, Mysuru, Mysuru taluk, Mysuru district, Karnataka, 570001, India"
        },
        "arabhavi": {
            "locType": "village",
            "blogLinks": [
                "https://en.wikipedia.org/wiki/Tourism_in_North_Karnataka"
            ],
            "longitude": "74.8213227",
            "closest_to": "bellary",
            "latitude": "16.2193552",
            "address": "Arabhavi, Gokak taluku, Belgaum district, Karnataka, India"
        },
        "bylakuppe": {
            "locType": "village",
            "blogLinks": [
                "http://www.amuct.org/more/aifucto-conference/549-places-to-visit-in-and-around-mangalore"
            ],
            "longitude": "75.9953435",
            "closest_to": "udupi",
            "latitude": "12.4292508",
            "address": "Bylakuppe, Piriyapattana taluk, Mysuru district, Karnataka, India"
        },
        "belvai": {
            "locType": "village",
            "blogLinks": [
                "https://www.thrillophilia.com/places-to-visit-near-mangalore"
            ],
            "longitude": "74.9961914",
            "closest_to": "udupi",
            "latitude": "13.1281264",
            "address": "Belvai, Mangaluru taluk, Dakshina Kannada, Karnataka, India"
        },
        "kurnool": {
            "locType": "hotel",
            "blogLinks": [
                "https://en.wikipedia.org/wiki/Bellary"
            ],
            "longitude": "77.4217916",
            "closest_to": "bellary",
            "latitude": "15.9394081",
            "address": "Karnataka Guest House, Jadcherla - Hagari Road, Kurnool, Andhra Pradesh, India"
        },
        "malpe beach": {
            "locType": "marina",
            "blogLinks": [
                "https://www.tripoto.com/travel-guide/udupi/trips",
                "http://wikitravel.org/en/Udupi",
                "https://www.thrillophilia.com/places-to-visit-near-mangalore"
            ],
            "longitude": "74.6977767",
            "closest_to": "udupi",
            "latitude": "13.3610748",
            "address": "Malpe Beach, Malpe Road, Adi Udupi, Malpe, Udupi taluku, Udupi district, Karnataka, 576101, India"
        },
        "gulmohar": {
            "locType": "residential",
            "blogLinks": [
                "https://www.quora.com/What-are-the-best-places-to-visit-in-Karnataka-India"
            ],
            "longitude": "77.745811757371",
            "closest_to": "bellary",
            "latitude": "12.9841671",
            "address": "MIMS Gulmohar Villas, Kadugodi, Prashanth Extension, Bangalore Urban, Karnataka, 56066, India"
        },
        "navaratna": {
            "locType": "hotel",
            "blogLinks": [
                "http://wikitravel.org/en/Mantralayam"
            ],
            "longitude": "74.8417866628344",
            "closest_to": "udupi",
            "latitude": "12.8716695",
            "address": "Hotel Navaratna Palace, Karnad Sadashiva Rao Road, Dongerkeri, Attavar, Mangaluru, Mangaluru taluk, Dakshina Kannada, Karnataka, 575001, India"
        },
        "river shambhavi": {
            "locType": "river",
            "blogLinks": [
                "http://www.amuct.org/more/aifucto-conference/549-places-to-visit-in-and-around-mangalore"
            ],
            "longitude": "74.9068128",
            "closest_to": "udupi",
            "latitude": "13.1353612",
            "address": "Shambhavi, Karkala taluk, Udupi district, Karnataka, India"
        },
        "fort hill": {
            "locType": "locality",
            "blogLinks": [
                "http://www.hoparoundindia.com/karnataka/attractions/bellary.aspx"
            ],
            "longitude": "74.5255651",
            "closest_to": "udupi",
            "latitude": "15.8581696",
            "address": "Belgaum Fort, Belagavi, Belagavi taluku, Belgaum district, Karnataka, 590001, India"
        },
        "singapore": {
            "locType": "neighbourhood",
            "blogLinks": [
                "https://www.tripoto.com/travel-guide/udupi/trips",
                "https://www.yatra.com/india-tourism/karnataka"
            ],
            "longitude": "77.5483703",
            "closest_to": "udupi",
            "latitude": "12.8861812",
            "address": "Singapore Gardens, Vajrahalli, Bengaluru, Bangalore Urban, Karnataka, 560001, India"
        },
        "hampi bazaar": {
            "locType": "unclassified",
            "blogLinks": [
                "https://www.tripoto.com/travel-guide/bellary"
            ],
            "longitude": "76.4621571",
            "closest_to": "udupi",
            "latitude": "15.3347585",
            "address": "Hampi Bazaar, Hampe, Hosapete taluk, Bellary district, Karnataka, 583239, India"
        },
        "kudremukh": {
            "locType": "village",
            "blogLinks": [
                "https://www.thrillophilia.com/places-to-visit-near-mangalore",
                "https://en.wikipedia.org/wiki/Tourism_in_North_Karnataka"
            ],
            "longitude": "75.2523304",
            "closest_to": "udupi",
            "latitude": "13.2144007",
            "address": "Kudremukha, Mudigere taluk, Chikkamagaluru district, Karnataka, India"
        },
        "bangalore palace": {
            "locType": "attraction",
            "blogLinks": [
                "https://www.yatra.com/india-tourism/karnataka"
            ],
            "longitude": "77.5920094892276",
            "closest_to": "bellary",
            "latitude": "12.9985963",
            "address": "Bangalore Palace, Jayamahal Road, Jayamahal Extension, Jayamahal, Bengaluru, Bangalore Urban, Karnataka, 560001, India"
        },
        "tungabhadra river": {
            "locType": "river",
            "blogLinks": [
                "https://www.tripoto.com/travel-guide/bellary"
            ],
            "longitude": "76.4931607",
            "closest_to": "udupi",
            "latitude": "15.3446123",
            "address": "Tungabhadra, Gangavati taluku, Koppal district, Karnataka, India"
        },
        "koppal district": {
            "locType": "administrative",
            "blogLinks": [
                "https://en.wikipedia.org/wiki/Tourism_in_North_Karnataka"
            ],
            "longitude": "76.310639117029",
            "closest_to": "udupi",
            "latitude": "15.57825725",
            "address": "Koppal district, Karnataka, India"
        },
        "uttara kannada district": {
            "locType": "county",
            "blogLinks": [
                "https://www.quora.com/What-are-the-best-places-to-visit-in-Karnataka-India"
            ],
            "longitude": "74.583333",
            "closest_to": "udupi",
            "latitude": "14.883333",
            "address": "Uttara Kannada, Karnataka, India"
        },
        "karavali": {
            "locType": "restaurant",
            "blogLinks": [
                "http://wikitravel.org/en/Udupi"
            ],
            "longitude": "77.5535559",
            "closest_to": "udupi",
            "latitude": "12.9306311",
            "address": "Karavali Lunch Home, 45, Kathriguppe Main Road, Seven Hills Layout, Kathriguppe, Bengaluru, Bangalore Urban, Karnataka, 560085, India"
        },
        "afzalpur": {
            "locType": "town",
            "blogLinks": [
                "https://en.wikipedia.org/wiki/Tourism_in_North_Karnataka"
            ],
            "longitude": "76.3605783",
            "closest_to": "bellary",
            "latitude": "17.2005764",
            "address": "Afzalpur, Afzalpura taluku, Kalaburagi district, Karnataka, 585301, India"
        },
        "bikarnakatte": {
            "locType": "neighbourhood",
            "blogLinks": [
                "http://www.amuct.org/more/aifucto-conference/549-places-to-visit-in-and-around-mangalore"
            ],
            "longitude": "74.8669178",
            "closest_to": "udupi",
            "latitude": "12.8850245",
            "address": "Bikarnakatte, Nanthoor, Mangaluru, Mangaluru taluk, Dakshina Kannada, Karnataka, 575001, India"
        },
        "sarovara": {
            "locType": "restaurant",
            "blogLinks": [
                "http://wikitravel.org/en/Udupi"
            ],
            "longitude": "77.5818071",
            "closest_to": "bellary",
            "latitude": "12.8943291",
            "address": "Sarovara, 14th Main Road, Jagruthi Colony, Puttenahalli, Bengaluru, Bangalore Urban, Karnataka, 560001, India"
        },
        "tagore park": {
            "locType": "suburb",
            "blogLinks": [
                "https://www.thrillophilia.com/places-to-visit-near-mangalore"
            ],
            "longitude": "77.595715",
            "closest_to": "bellary",
            "latitude": "13.0227204",
            "address": "Rabindranath Tagore Nagar, Bengaluru, Bangalore Urban, Karnataka, 560001, India"
        },
        "vijayanagara": {
            "locType": "village",
            "blogLinks": [
                "https://en.wikipedia.org/wiki/Bellary",
                "https://en.wikipedia.org/wiki/Tourism_in_North_Karnataka"
            ],
            "longitude": "74.7380455",
            "closest_to": "bellary",
            "latitude": "16.3270486",
            "address": "Vijayanagara, Chikodi taluk, Belgaum district, Karnataka, India"
        },
        "st. aloysius chapel": {
            "locType": "place_of_worship",
            "blogLinks": [
                "https://www.thrillophilia.com/places-to-visit-near-mangalore"
            ],
            "longitude": "74.8453615",
            "closest_to": "udupi",
            "latitude": "12.8737995",
            "address": "St. Aloysius Chapel, St Aloysius Internal Road, Dongerkeri, Mallikatte, Mangaluru, Mangaluru taluk, Dakshina Kannada, Karnataka, 575001, India"
        },
        "mantralayam road": {
            "locType": "station",
            "blogLinks": [
                "http://wikitravel.org/en/Mantralayam"
            ],
            "longitude": "77.2991575",
            "closest_to": "bellary",
            "latitude": "15.9482315",
            "address": "Mantralayam Road, SH61, Manvi taluku, Raichur district, Karnataka, India"
        },
        "bandaje falls": {
            "locType": "track",
            "blogLinks": [
                "https://www.quora.com/What-are-the-best-places-to-visit-in-Karnataka-India"
            ],
            "longitude": "75.3809448",
            "closest_to": "udupi",
            "latitude": "13.0801279",
            "address": "Bandaje to Bandaje falls, Bangadi, Beltangadi taluk, Dakshina Kannada, Karnataka, 574290, India"
        },
        "lakya dam": {
            "locType": "dam",
            "blogLinks": [
                "https://www.thrillophilia.com/places-to-visit-near-mangalore"
            ],
            "longitude": "75.2271128",
            "closest_to": "udupi",
            "latitude": "13.2189611",
            "address": "Lakya Dam, Mudigere taluk, Chikkamagaluru district, Karnataka, India"
        },
        "kanakapura road": {
            "locType": "trunk",
            "blogLinks": [
                "https://en.wikipedia.org/wiki/Tourism_in_North_Karnataka"
            ],
            "longitude": "77.5733483",
            "closest_to": "bellary",
            "latitude": "12.9064528",
            "address": "Kanakapura Road, Rajotsava Nagar, Kaderenahalli, Bengaluru, Bangalore Urban, Karnataka, 560001, India"
        },
        "krishna": {
            "locType": "river",
            "blogLinks": [
                "http://wikitravel.org/en/Udupi"
            ],
            "longitude": "77.0529845",
            "closest_to": "bellary",
            "latitude": "16.5209569",
            "address": "Krishna, Shahapura taluku, Yadagiri district, Karnataka, India"
        },
        "lakshmi": {
            "locType": "cinema",
            "blogLinks": [
                "https://www.tripoto.com/travel-guide/bellary"
            ],
            "longitude": "77.6075298044091",
            "closest_to": "bellary",
            "latitude": "12.9251835",
            "address": "Lakshmi, Tavarekere Main Road, Sadgunte Palya, Madivala, Bengaluru, Bangalore Urban, Karnataka, 560001, India"
        },
        "somanathapura": {
            "locType": "village",
            "blogLinks": [
                "https://www.quora.com/What-are-the-best-places-to-visit-in-Karnataka-India"
            ],
            "longitude": "77.9957587",
            "closest_to": "bellary",
            "latitude": "13.75905",
            "address": "Somanathapura, Bagepalli taluk, Chikkaballapura district, Karnataka, India"
        },
        "dharma river": {
            "locType": "park",
            "blogLinks": [
                "https://en.wikipedia.org/wiki/Tourism_in_North_Karnataka"
            ],
            "longitude": "77.5575864485219",
            "closest_to": "udupi",
            "latitude": "12.98914885",
            "address": "Dharma Naidu Udhyanavana, 44th cross, Rajajinagar 4th Block, Rajaji Nagar, Bengaluru, Bangalore Urban, Karnataka, 560001, India"
        },
        "taluk": {
            "locType": "atm",
            "blogLinks": [
                "http://wikitravel.org/en/Udupi"
            ],
            "longitude": "76.6639936",
            "closest_to": "udupi",
            "latitude": "12.3084901",
            "address": "Karnataka, Shalivahana Road, Nazarbad, Mysuru, Mysuru taluk, Mysuru district, Karnataka, 570001, India"
        },
        "jindal vijaynagar airport": {
            "locType": "aerodrome",
            "blogLinks": [
                "https://en.wikipedia.org/wiki/Bellary"
            ],
            "longitude": "76.6334746",
            "closest_to": "udupi",
            "latitude": "15.1743056",
            "address": "Jindal Vijaynagar Airport, Kudligi Road, Vaddu, Sanduru taluk, Bellary district, Karnataka, 583123, India"
        },
        "mangalore city": {
            "locType": "city",
            "blogLinks": [
                "https://www.thrillophilia.com/places-to-visit-near-mangalore",
                "http://www.amuct.org/more/aifucto-conference/549-places-to-visit-in-and-around-mangalore"
            ],
            "longitude": "74.8430082",
            "closest_to": "udupi",
            "latitude": "12.8698101",
            "address": "Mangaluru, Mangaluru taluk, Dakshina Kannada, Karnataka, 575001, India"
        },
        "badami": {
            "locType": "town",
            "blogLinks": [
                "https://en.wikipedia.org/wiki/Tourism_in_North_Karnataka"
            ],
            "longitude": "75.6807865",
            "closest_to": "udupi",
            "latitude": "15.9203874",
            "address": "Badami, Badami taluku, Bagalkote district, Karnataka, 587200, India"
        },
        "court road": {
            "locType": "tertiary",
            "blogLinks": [
                "http://wikitravel.org/en/Udupi"
            ],
            "longitude": "76.9334095",
            "closest_to": "bellary",
            "latitude": "15.147449",
            "address": "Court Road, Ballari, Bellary taluk, Bellary district, Karnataka, 583103, India"
        },
        "halebid": {
            "locType": "village",
            "blogLinks": [
                "https://www.yatra.com/india-tourism/karnataka"
            ],
            "longitude": "75.9918793",
            "closest_to": "udupi",
            "latitude": "13.2167959",
            "address": "Halebidu, Beluru taluk, Hassan district, Karnataka, 573121, India"
        },
        "kamala": {
            "locType": "school",
            "blogLinks": [
                "https://en.wikipedia.org/wiki/Tourism_in_North_Karnataka"
            ],
            "longitude": "77.5664867",
            "closest_to": "bellary",
            "latitude": "12.9339482",
            "address": "Kamala Nehru Patashala (Emmanual English School), 5th A Cross Road, Yediyur, Thyagaraja Nagar, Bengaluru, Bangalore Urban, Karnataka, 560001, India"
        },
        "karwar": {
            "locType": "town",
            "blogLinks": [
                "https://www.tripoto.com/travel-guide/udupi/trips",
                "https://en.wikipedia.org/wiki/Bellary",
                "http://www.amuct.org/more/aifucto-conference/549-places-to-visit-in-and-around-mangalore",
                "https://en.wikipedia.org/wiki/Tourism_in_North_Karnataka"
            ],
            "longitude": "74.1319229",
            "closest_to": "udupi",
            "latitude": "14.8120931",
            "address": "Karwar, Karavara taluk, Uttara Kannada, Karnataka, 581300, India"
        },
        "bellary": {
            "locType": "county",
            "blogLinks": [
                "https://en.wikipedia.org/wiki/Tourism_in_North_Karnataka",
                "http://www.hoparoundindia.com/karnataka/attractions/bellary.aspx",
                "http://www.indiatravelblog.com/resources/3761-Udupi-Tourist-Places.aspx",
                "https://www.ixigo.com/by-bus-service/udupi-to-bellary-by-bus",
                "https://en.wikipedia.org/wiki/Bellary",
                "https://www.yatra.com/india-tourism/karnataka",
                "http://wikitravel.org/en/Mantralayam",
                "http://www.indiatravelblog.com/resources/3743-Tourist-Attractions-at-Udupi-Karnataka.aspx",
                "http://www.mapsofindia.com/maps/karnataka/"
            ],
            "longitude": "76.8323648",
            "closest_to": "udupi",
            "latitude": "15.2485413",
            "address": "Bellary, Bellary district, Karnataka, India"
        },
        "' river varahi": {
            "locType": "river",
            "blogLinks": [
                "https://en.wikipedia.org/wiki/Tourism_in_North_Karnataka"
            ],
            "longitude": "74.9489117",
            "closest_to": "udupi",
            "latitude": "13.6582668",
            "address": "Varahi, \u0c95\u0cc1\u0c82\u0ca6\u0cbe\u0caa\u0cc1\u0cb0 \u0ca4\u0cbe\u0cb2\u0cc2\u0c95\u0cc1, Udupi district, Karnataka, India"
        },
        "tumkur": {
            "locType": "county",
            "blogLinks": [
                "http://www.mapsofindia.com/maps/karnataka/",
                "https://www.yatra.com/india-tourism/karnataka",
                "https://en.wikipedia.org/wiki/Tourism_in_North_Karnataka"
            ],
            "longitude": "77.0002445",
            "closest_to": "udupi",
            "latitude": "13.4999406",
            "address": "Tumakuru, Tumkur district, Karnataka, India"
        },
        "kudalasangama": {
            "locType": "village",
            "blogLinks": [
                "https://en.wikipedia.org/wiki/Tourism_in_North_Karnataka"
            ],
            "longitude": "76.0604244",
            "closest_to": "bellary",
            "latitude": "16.2033992",
            "address": "Kudala Sangama, Hunagunda taluku, Bagalkote district, Karnataka, India"
        },
        "taluk office": {
            "locType": "commercial",
            "blogLinks": [
                "http://wikitravel.org/en/Udupi"
            ],
            "longitude": "78.0517635286665",
            "closest_to": "bellary",
            "latitude": "13.3976392",
            "address": "Taluk Office, Chintamani, Chintamani taluk, Chikkaballapura district, Karnataka, India"
        },
        "gomateshwara": {
            "locType": "place_of_worship",
            "blogLinks": [
                "https://www.thrillophilia.com/places-to-visit-near-mangalore"
            ],
            "longitude": "76.4846128",
            "closest_to": "udupi",
            "latitude": "12.8540505",
            "address": "Bahubali Statue, SH8, Shravanabelagola, Channarayapattana taluk, Hassan district, Karnataka, 573135, India"
        },
        "mundargi": {
            "locType": "hamlet",
            "blogLinks": [
                "https://en.wikipedia.org/wiki/Bellary"
            ],
            "longitude": "77.1777795",
            "closest_to": "bellary",
            "latitude": "16.7700414",
            "address": "Mundargi Thanda, Yadagiri taluku, Yadagiri district, Karnataka, India"
        },
        "mangalore international airport": {
            "locType": "aerodrome",
            "blogLinks": [
                "http://wikitravel.org/en/Udupi",
                "https://www.yatra.com/india-tourism/karnataka",
                "http://www.indiatravelblog.com/resources/3761-Udupi-Tourist-Places.aspx"
            ],
            "longitude": "74.887492668144",
            "closest_to": "udupi",
            "latitude": "12.95518575",
            "address": "Mangalore International Airport, Airport Entry Road, Gandhinagar, Kenjar, Mangaluru taluk, Dakshina Kannada, Karnataka, 575015, India"
        },
        "bhatkal": {
            "locType": "town",
            "blogLinks": [
                "https://en.wikipedia.org/wiki/Tourism_in_North_Karnataka"
            ],
            "longitude": "74.5485295",
            "closest_to": "udupi",
            "latitude": "13.9952114",
            "address": "Bhatkal, Bhatkala taluk, Uttara Kannada, Karnataka, 581320, India"
        },
        "mercara": {
            "locType": "town",
            "blogLinks": [
                "https://en.wikipedia.org/wiki/Tourism_in_North_Karnataka"
            ],
            "longitude": "75.740031",
            "closest_to": "udupi",
            "latitude": "12.4204003",
            "address": "Madikeri, Madikeri taluku, Kodagu, Karnataka, India"
        },
        "kumaradhara river": {
            "locType": "river",
            "blogLinks": [
                "https://www.thrillophilia.com/places-to-visit-near-mangalore"
            ],
            "longitude": "75.4390597",
            "closest_to": "udupi",
            "latitude": "12.7370168",
            "address": "Kumaradhara, Putturu taluk, Dakshina Kannada, Karnataka, India"
        },
        "nagarhole national park": {
            "locType": "national_park",
            "blogLinks": [
                "https://en.wikipedia.org/wiki/Tourism_in_North_Karnataka"
            ],
            "longitude": "76.1537073415874",
            "closest_to": "udupi",
            "latitude": "12.0600362",
            "address": "Nagarahole National Park, Virajpet taluk, Kodagu, Karnataka, India"
        },
        "varadaraja": {
            "locType": "fuel",
            "blogLinks": [
                "https://en.wikipedia.org/wiki/Tourism_in_North_Karnataka"
            ],
            "longitude": "77.5542736",
            "closest_to": "udupi",
            "latitude": "13.005885",
            "address": "Varadaraja Petrol / Gas Station, Dr. Rajkumar Road, Rajajinagar 1st Block, Subrahmanya Nagar, Bengaluru, Bangalore Urban, Karnataka, 560001, India"
        },
        "sagara": {
            "locType": "town",
            "blogLinks": [
                "http://www.amuct.org/more/aifucto-conference/549-places-to-visit-in-and-around-mangalore",
                "https://en.wikipedia.org/wiki/Tourism_in_North_Karnataka"
            ],
            "longitude": "75.0262551",
            "closest_to": "udupi",
            "latitude": "14.1666594",
            "address": "Sagara, Sagara taluk, Shimoga district, Karnataka, 577400, India"
        },
        "belve village": {
            "locType": "village",
            "blogLinks": [
                "http://wikitravel.org/en/Udupi"
            ],
            "longitude": "74.9249251",
            "closest_to": "udupi",
            "latitude": "13.5271121",
            "address": "Belve, \u0c95\u0cc1\u0c82\u0ca6\u0cbe\u0caa\u0cc1\u0cb0 \u0ca4\u0cbe\u0cb2\u0cc2\u0c95\u0cc1, Udupi district, Karnataka, India"
        },
        "bengaluru": {
            "locType": "city",
            "blogLinks": [
                "http://www.indiatravelblog.com/resources/3761-Udupi-Tourist-Places.aspx",
                "http://www.indiatravelblog.com/resources/3743-Tourist-Attractions-at-Udupi-Karnataka.aspx"
            ],
            "longitude": "77.5912997",
            "closest_to": "bellary",
            "latitude": "12.9791198",
            "address": "Bengaluru, Bangalore Urban, Karnataka, 560001, India"
        },
        "north": {
            "locType": "service",
            "blogLinks": [
                "http://www.hoparoundindia.com/karnataka/attractions/bellary.aspx"
            ],
            "longitude": "77.7660547",
            "closest_to": "bellary",
            "latitude": "13.0217151",
            "address": "N, Chaithanya Samarpan, Kadugodi, Kannamangala, Bangalore Urban, Karnataka, 560066, India"
        },
        "sangameshwara": {
            "locType": "village",
            "blogLinks": [
                "https://en.wikipedia.org/wiki/Tourism_in_North_Karnataka"
            ],
            "longitude": "74.87651",
            "closest_to": "udupi",
            "latitude": "15.184341",
            "address": "Sangameshwara, Kalaghatagi taluku, Dharwad district, Karnataka, India"
        },
        "hassan district": {
            "locType": "administrative",
            "blogLinks": [
                "https://en.wikipedia.org/wiki/Tourism_in_North_Karnataka"
            ],
            "longitude": "76.1745460751981",
            "closest_to": "udupi",
            "latitude": "13.0315068",
            "address": "Hassan district, Karnataka, India"
        },
        "udupi": {
            "locType": "city",
            "blogLinks": [
                "https://www.thrillophilia.com/places-to-visit-near-mangalore",
                "https://en.wikipedia.org/wiki/Tourism_in_North_Karnataka",
                "http://www.indiatravelblog.com/resources/3761-Udupi-Tourist-Places.aspx",
                "http://wikitravel.org/en/Udupi",
                "http://www.indiatravelblog.com/resources/3743-Tourist-Attractions-at-Udupi-Karnataka.aspx",
                "http://www.amuct.org/more/aifucto-conference/549-places-to-visit-in-and-around-mangalore",
                "https://www.tripoto.com/travel-guide/udupi/trips",
                "https://www.quora.com/What-are-the-best-places-to-visit-in-Karnataka-India",
                "http://www.mapsofindia.com/maps/karnataka/"
            ],
            "longitude": "74.7473232",
            "closest_to": "udupi",
            "latitude": "13.3419169",
            "address": "Udupi, Udupi taluku, Udupi district, Karnataka, 576101, India"
        },
        "india": {
            "locType": "administrative",
            "blogLinks": [
                "https://www.thrillophilia.com/places-to-visit-near-mangalore",
                "https://www.tripoto.com/travel-guide/bellary",
                "http://www.karnatakatourism.org/",
                "https://en.wikipedia.org/wiki/Tourism_in_North_Karnataka",
                "http://distancecalculator.globefeed.com/India_Distance_Calculator.asp?state=19",
                "http://www.indiatravelblog.com/resources/3761-Udupi-Tourist-Places.aspx",
                "http://wikitravel.org/en/Udupi",
                "https://en.wikipedia.org/wiki/Bellary",
                "https://www.yatra.com/india-tourism/karnataka",
                "http://wikitravel.org/en/Mantralayam",
                "http://www.indiatravelblog.com/resources/3743-Tourist-Attractions-at-Udupi-Karnataka.aspx",
                "http://www.amuct.org/more/aifucto-conference/549-places-to-visit-in-and-around-mangalore",
                "https://www.tripoto.com/travel-guide/udupi/trips",
                "https://www.quora.com/What-are-the-best-places-to-visit-in-Karnataka-India",
                "http://www.mapsofindia.com/maps/karnataka/"
            ],
            "longitude": "75.7223521",
            "closest_to": "udupi",
            "latitude": "14.5203896",
            "address": "Karnataka, India"
        },
        "bellary district": {
            "locType": "administrative",
            "blogLinks": [
                "https://en.wikipedia.org/wiki/Tourism_in_North_Karnataka"
            ],
            "longitude": "76.7137978546465",
            "closest_to": "udupi",
            "latitude": "15.20597305",
            "address": "Bellary district, Karnataka, India"
        },
        "carmel hill": {
            "locType": "college",
            "blogLinks": [
                "http://www.amuct.org/more/aifucto-conference/549-places-to-visit-in-and-around-mangalore"
            ],
            "longitude": "77.5878579721226",
            "closest_to": "bellary",
            "latitude": "12.99345635",
            "address": "Mount Carmel College, Palace Road, Chakravarty Layout, Vasantnagar, Bengaluru, Bangalore Urban, Karnataka, 560001, India"
        },
        "hadagali": {
            "locType": "village",
            "blogLinks": [
                "https://en.wikipedia.org/wiki/Bellary"
            ],
            "longitude": "75.9370122",
            "closest_to": "bellary",
            "latitude": "16.8109502",
            "address": "Hadagali, Vijayapura taluk, Bijapur district, Karnataka, India"
        },
        "mangalore mangalore": {
            "locType": "boatyard",
            "blogLinks": [
                "http://www.amuct.org/more/aifucto-conference/549-places-to-visit-in-and-around-mangalore"
            ],
            "longitude": "74.8227040793795",
            "closest_to": "udupi",
            "latitude": "12.87337955",
            "address": "Bharti Shipyard Limited, Mangalore, Mangaluru, Mangaluru taluk, Dakshina Kannada, Karnataka, 575001, India"
        },
        "mangalore": {
            "locType": "city",
            "blogLinks": [
                "https://www.thrillophilia.com/places-to-visit-near-mangalore",
                "https://en.wikipedia.org/wiki/Tourism_in_North_Karnataka",
                "http://www.indiatravelblog.com/resources/3761-Udupi-Tourist-Places.aspx",
                "http://wikitravel.org/en/Udupi",
                "https://en.wikipedia.org/wiki/Bellary",
                "https://www.yatra.com/india-tourism/karnataka",
                "http://wikitravel.org/en/Mantralayam",
                "http://www.amuct.org/more/aifucto-conference/549-places-to-visit-in-and-around-mangalore",
                "https://www.tripoto.com/travel-guide/udupi/trips",
                "https://www.quora.com/What-are-the-best-places-to-visit-in-Karnataka-India"
            ],
            "longitude": "74.8430082",
            "closest_to": "udupi",
            "latitude": "12.8698101",
            "address": "Mangaluru, Mangaluru taluk, Dakshina Kannada, Karnataka, 575001, India"
        },
        "udupi hotel": {
            "locType": "hotel",
            "blogLinks": [
                "https://www.tripoto.com/travel-guide/udupi/trips"
            ],
            "longitude": "74.8346487",
            "closest_to": "udupi",
            "latitude": "14.6157772",
            "address": "Udupi Hotel, Nataraj Raod, Sirsi, Shirasi taluk, Uttara Kannada, Karnataka, 581400, India"
        },
        "samse": {
            "locType": "village",
            "blogLinks": [
                "https://www.quora.com/What-are-the-best-places-to-visit-in-Karnataka-India"
            ],
            "longitude": "75.3332678",
            "closest_to": "udupi",
            "latitude": "13.1894244",
            "address": "Samse, Mudigere taluk, Chikkamagaluru district, Karnataka, India"
        },
        "malaprabha": {
            "locType": "river",
            "blogLinks": [
                "https://en.wikipedia.org/wiki/Tourism_in_North_Karnataka"
            ],
            "longitude": "75.1982668",
            "closest_to": "udupi",
            "latitude": "15.8914192",
            "address": "Malaprabha, Ramadurga taluku, Belgaum district, Karnataka, India"
        },
        "attur - karkala": {
            "locType": "path",
            "blogLinks": [
                "http://www.amuct.org/more/aifucto-conference/549-places-to-visit-in-and-around-mangalore"
            ],
            "longitude": "74.9726114",
            "closest_to": "udupi",
            "latitude": "13.2050513",
            "address": "Way to Attur Pond, Karkala, Karkala taluk, Udupi district, Karnataka, 574104, India"
        },
        "mantralayam": {
            "locType": "station",
            "blogLinks": [
                "http://wikitravel.org/en/Mantralayam"
            ],
            "longitude": "77.2991575",
            "closest_to": "bellary",
            "latitude": "15.9482315",
            "address": "Mantralayam Road, SH61, Manvi taluku, Raichur district, Karnataka, India"
        },
        "irupu falls": {
            "locType": "attraction",
            "blogLinks": [
                "https://en.wikipedia.org/wiki/Tourism_in_North_Karnataka"
            ],
            "longitude": "75.9839484",
            "closest_to": "udupi",
            "latitude": "11.9667954",
            "address": "Iruppu Falls, SH89, Taila, Virajpet taluk, Kodagu, Karnataka, 571217, India"
        },
        "ghataprabha river": {
            "locType": "river",
            "blogLinks": [
                "https://en.wikipedia.org/wiki/Tourism_in_North_Karnataka"
            ],
            "longitude": "74.9165235",
            "closest_to": "bellary",
            "latitude": "16.2124344",
            "address": "Ghataprabha, Gokak taluku, Belgaum district, Karnataka, India"
        },
        "kalpana": {
            "locType": "cinema",
            "blogLinks": [
                "http://wikitravel.org/en/Udupi"
            ],
            "longitude": "74.7506815",
            "closest_to": "udupi",
            "latitude": "13.3360433",
            "address": "Kalpana, Kavi Muddana Marg, Indiranagara, Udupi, Udupi taluku, Udupi district, Karnataka, 576101, India"
        },
        "katte": {
            "locType": "canal",
            "blogLinks": [
                "http://www.amuct.org/more/aifucto-conference/549-places-to-visit-in-and-around-mangalore"
            ],
            "longitude": "76.7242558",
            "closest_to": "udupi",
            "latitude": "12.089364",
            "address": "Katte, Nanjanagudu taluk, Mysuru district, Karnataka, India"
        },
        "belthangady": {
            "locType": "school",
            "blogLinks": [
                "https://www.quora.com/What-are-the-best-places-to-visit-in-Karnataka-India"
            ],
            "longitude": "75.2789924801603",
            "closest_to": "udupi",
            "latitude": "12.9899316",
            "address": "Government Model Primary School Belthangady, NH73, Guruvayankere, Beltangadi taluk, Dakshina Kannada, Karnataka, India"
        },
        "kodagu": {
            "locType": "administrative",
            "blogLinks": [
                "http://www.mapsofindia.com/maps/karnataka/",
                "http://www.amuct.org/more/aifucto-conference/549-places-to-visit-in-and-around-mangalore",
                "https://www.quora.com/What-are-the-best-places-to-visit-in-Karnataka-India",
                "https://en.wikipedia.org/wiki/Tourism_in_North_Karnataka"
            ],
            "longitude": "75.6677235950852",
            "closest_to": "udupi",
            "latitude": "12.38117345",
            "address": "Kodagu, Karnataka, India"
        },
        "panaji": {
            "locType": "trunk",
            "blogLinks": [
                "https://www.quora.com/What-are-the-best-places-to-visit-in-Karnataka-India"
            ],
            "longitude": "74.4876784",
            "closest_to": "udupi",
            "latitude": "15.4422981",
            "address": "Belgaum - Panaji Highway, Londa, Khanapura taluku, Belgaum district, Karnataka, India"
        },
        "uttara kannada": {
            "locType": "administrative",
            "blogLinks": [
                "http://www.indiatravelblog.com/resources/3761-Udupi-Tourist-Places.aspx",
                "http://www.amuct.org/more/aifucto-conference/549-places-to-visit-in-and-around-mangalore",
                "https://en.wikipedia.org/wiki/Tourism_in_North_Karnataka"
            ],
            "longitude": "74.4729163045979",
            "closest_to": "udupi",
            "latitude": "14.6726379",
            "address": "Uttara Kannada, Karnataka, India"
        },
        "dubare": {
            "locType": "attraction",
            "blogLinks": [
                "https://www.quora.com/What-are-the-best-places-to-visit-in-Karnataka-India"
            ],
            "longitude": "75.9066719",
            "closest_to": "udupi",
            "latitude": "12.3716865",
            "address": "Dubare Elephant Camp, SH91, Dodda Bettageri, Somawarpet taluk, Kodagu, Karnataka, India"
        },
        "ballari": {
            "locType": "city",
            "blogLinks": [
                "https://en.wikipedia.org/wiki/Bellary"
            ],
            "longitude": "76.9125211",
            "closest_to": "udupi",
            "latitude": "15.1467299",
            "address": "Ballari, Bellary taluk, Bellary district, Karnataka, India"
        },
        "bellary road": {
            "locType": "trunk",
            "blogLinks": [
                "https://www.quora.com/What-are-the-best-places-to-visit-in-Karnataka-India"
            ],
            "longitude": "77.5915237",
            "closest_to": "bellary",
            "latitude": "13.0465345",
            "address": "Bellary Road, Kanaka Nagar, Hebbal, Bengaluru, Bangalore Urban, Karnataka, 560001, India"
        },
        "chikmagalur": {
            "locType": "county",
            "blogLinks": [
                "https://www.thrillophilia.com/places-to-visit-near-mangalore",
                "https://www.yatra.com/india-tourism/karnataka",
                "http://www.amuct.org/more/aifucto-conference/549-places-to-visit-in-and-around-mangalore"
            ],
            "longitude": "75.5",
            "closest_to": "udupi",
            "latitude": "13.5",
            "address": "Chikmagalur, Chikkamagaluru district, Karnataka, India"
        },
        "kanakapura": {
            "locType": "town",
            "blogLinks": [
                "https://www.quora.com/What-are-the-best-places-to-visit-in-Karnataka-India"
            ],
            "longitude": "77.4199095",
            "closest_to": "udupi",
            "latitude": "12.5450268",
            "address": "Kanakapura, Kanakapura taluk, Ramanagara district, Karnataka, 562117, India"
        },
        "nippani": {
            "locType": "town",
            "blogLinks": [
                "https://en.wikipedia.org/wiki/Tourism_in_North_Karnataka"
            ],
            "longitude": "74.3842372",
            "closest_to": "bellary",
            "latitude": "16.4020402",
            "address": "Nippani, Chikodi taluk, Belgaum district, Karnataka, 591237, India"
        },
        "puttige": {
            "locType": "place_of_worship",
            "blogLinks": [
                "http://www.amuct.org/more/aifucto-conference/549-places-to-visit-in-and-around-mangalore"
            ],
            "longitude": "77.567216",
            "closest_to": "bellary",
            "latitude": "12.9413592",
            "address": "Puttige Mutt, Bull Temple Road, 5th Main Road, Yediyur, Hanumantha Nagar, Bengaluru, Bangalore Urban, Karnataka, 560001, India"
        },
        "brahmagiri": {
            "locType": "peak",
            "blogLinks": [
                "https://www.thrillophilia.com/places-to-visit-near-mangalore"
            ],
            "longitude": "75.490746",
            "closest_to": "udupi",
            "latitude": "12.3868578",
            "address": "Brahmagiri, Madikeri taluku, Kodagu, Karnataka, India"
        },
        "banashankari temple": {
            "locType": "place_of_worship",
            "blogLinks": [
                "https://en.wikipedia.org/wiki/Tourism_in_North_Karnataka"
            ],
            "longitude": "77.5731752886765",
            "closest_to": "bellary",
            "latitude": "12.91568785",
            "address": "Banashankari Temple, Kanakapura Road, JP Nagar 1st Phase, Kaderenahalli, Bengaluru, Bangalore Urban, Karnataka, 560001, India"
        },
        "udupi udupi": {
            "locType": "city",
            "blogLinks": [
                "http://www.indiatravelblog.com/resources/3761-Udupi-Tourist-Places.aspx"
            ],
            "longitude": "74.7473232",
            "closest_to": "udupi",
            "latitude": "13.3419169",
            "address": "Udupi, Udupi taluku, Udupi district, Karnataka, 576101, India"
        },
        "sagara taluk": {
            "locType": "administrative",
            "blogLinks": [
                "https://en.wikipedia.org/wiki/Tourism_in_North_Karnataka"
            ],
            "longitude": "74.9610874491152",
            "closest_to": "udupi",
            "latitude": "14.09993045",
            "address": "Sagara taluk, Shimoga district, Karnataka, India"
        },
        "ratha beedi": {
            "locType": "path",
            "blogLinks": [
                "http://wikitravel.org/en/Udupi"
            ],
            "longitude": "75.3322859",
            "closest_to": "udupi",
            "latitude": "12.9966235",
            "address": "Ratha Beedi, Ujire, Beltangadi taluk, Dakshina Kannada, Karnataka, India"
        },
        "bagalkote": {
            "locType": "administrative",
            "blogLinks": [
                "http://www.mapsofindia.com/maps/karnataka/",
                "https://en.wikipedia.org/wiki/Tourism_in_North_Karnataka"
            ],
            "longitude": "75.5825586777167",
            "closest_to": "bellary",
            "latitude": "16.28998085",
            "address": "Bagalkote district, Karnataka, India"
        },
        "kadri hills": {
            "locType": "suburb",
            "blogLinks": [
                "http://www.amuct.org/more/aifucto-conference/549-places-to-visit-in-and-around-mangalore"
            ],
            "longitude": "74.860152",
            "closest_to": "udupi",
            "latitude": "12.8935998",
            "address": "Kadri Hills, Mangaluru, Mangaluru taluk, Dakshina Kannada, Karnataka, 575001, India"
        },
        "shringeri": {
            "locType": "village",
            "blogLinks": [
                "http://www.amuct.org/more/aifucto-conference/549-places-to-visit-in-and-around-mangalore"
            ],
            "longitude": "75.0621168",
            "closest_to": "udupi",
            "latitude": "14.7221214",
            "address": "Shringeri, Hanagal taluk, Haveri district, Karnataka, India"
        },
        "sannati": {
            "locType": "village",
            "blogLinks": [
                "https://en.wikipedia.org/wiki/Tourism_in_North_Karnataka"
            ],
            "longitude": "76.9080631",
            "closest_to": "bellary",
            "latitude": "16.8293201",
            "address": "Sannati, Chitapura taluku, Kalaburagi district, Karnataka, India"
        },
        "bhadra river": {
            "locType": "river",
            "blogLinks": [
                "https://en.wikipedia.org/wiki/Tourism_in_North_Karnataka"
            ],
            "longitude": "75.527118",
            "closest_to": "udupi",
            "latitude": "13.4888356",
            "address": "Bhadra, Chikkamagaluru taluku, Chikkamagaluru district, Karnataka, India"
        },
        "dubai": {
            "locType": "gift",
            "blogLinks": [
                "https://www.yatra.com/india-tourism/karnataka"
            ],
            "longitude": "77.6067717",
            "closest_to": "bellary",
            "latitude": "12.9737065",
            "address": "Dubai Plaza, Rest House Road, Shantala Nagar, Ashok Nagar, Bengaluru, Bangalore Urban, Karnataka, 560001, India"
        },
        "kumara parvatha": {
            "locType": "peak",
            "blogLinks": [
                "http://www.amuct.org/more/aifucto-conference/549-places-to-visit-in-and-around-mangalore"
            ],
            "longitude": "75.6865652",
            "closest_to": "udupi",
            "latitude": "12.6623315",
            "address": "Kumara Parvatha, Somawarpet taluk, Kodagu, Karnataka, India"
        },
        "annapoorneshwari temple": {
            "locType": "place_of_worship",
            "blogLinks": [
                "https://www.quora.com/What-are-the-best-places-to-visit-in-Karnataka-India"
            ],
            "longitude": "74.9006001",
            "closest_to": "udupi",
            "latitude": "12.97910715",
            "address": "Sri Ambika Annapoorneshwari Temple, SH101, Sunkadakatte, Mangaluru taluk, Dakshina Kannada, Karnataka, India"
        },
        "bheemeshwari": {
            "locType": "locality",
            "blogLinks": [
                "http://www.indiatravelblog.com/resources/3761-Udupi-Tourist-Places.aspx",
                "http://www.indiatravelblog.com/resources/3743-Tourist-Attractions-at-Udupi-Karnataka.aspx",
                "https://en.wikipedia.org/wiki/Tourism_in_North_Karnataka"
            ],
            "longitude": "77.2778171",
            "closest_to": "udupi",
            "latitude": "12.3124122",
            "address": "Bheemeshwari, Muttatti, Malavalli taluk, Mandya district, Karnataka, India"
        },
        "southern india": {
            "locType": "commercial",
            "blogLinks": [
                "https://www.yatra.com/india-tourism/karnataka"
            ],
            "longitude": "77.6227757667762",
            "closest_to": "bellary",
            "latitude": "12.92588785",
            "address": "Survey Of India - Southern Zone, Madivala, Bengaluru, Bangalore Urban, Karnataka, 560001, India"
        },
        "shivanasamudra": {
            "locType": "village",
            "blogLinks": [
                "https://en.wikipedia.org/wiki/Tourism_in_North_Karnataka"
            ],
            "longitude": "77.1703215",
            "closest_to": "udupi",
            "latitude": "12.2719056",
            "address": "Shivanasamudra, Kollegala taluk, Chamarajanagar district, Karnataka, India"
        },
        "raghavendra swamy": {
            "locType": "place_of_worship",
            "blogLinks": [
                "http://distancecalculator.globefeed.com/India_Distance_Calculator.asp?state=19",
                "https://www.ixigo.com/by-bus-service/udupi-to-bellary-by-bus"
            ],
            "longitude": "77.563636",
            "closest_to": "bellary",
            "latitude": "12.9276061",
            "address": "Banashankari Raghavendra Swamy Mutt, 24th Main Road, Yediyur, Banashankari 2nd Stage, Bengaluru, Bangalore Urban, Karnataka, 560001, India"
        },
        "district hospital": {
            "locType": "hospital",
            "blogLinks": [
                "https://en.wikipedia.org/wiki/Bellary"
            ],
            "longitude": "74.7423038",
            "closest_to": "udupi",
            "latitude": "13.3340175",
            "address": "District Hospital, Nairkere Road, Ambalapadi, Udupi, Udupi taluku, Udupi district, Karnataka, 576101, India"
        },
        "sauparnika river": {
            "locType": "river",
            "blogLinks": [
                "http://www.amuct.org/more/aifucto-conference/549-places-to-visit-in-and-around-mangalore"
            ],
            "longitude": "74.739988",
            "closest_to": "udupi",
            "latitude": "13.771549",
            "address": "Sauparnika, \u0c95\u0cc1\u0c82\u0ca6\u0cbe\u0caa\u0cc1\u0cb0 \u0ca4\u0cbe\u0cb2\u0cc2\u0c95\u0cc1, Udupi district, Karnataka, India"
        },
        "mangalore airport": {
            "locType": "aerodrome",
            "blogLinks": [
                "https://www.thrillophilia.com/places-to-visit-near-mangalore"
            ],
            "longitude": "74.887492668144",
            "closest_to": "udupi",
            "latitude": "12.95518575",
            "address": "Mangalore International Airport, Airport Entry Road, Gandhinagar, Kenjar, Mangaluru taluk, Dakshina Kannada, Karnataka, 575015, India"
        },
        "toranagallu": {
            "locType": "village",
            "blogLinks": [
                "https://en.wikipedia.org/wiki/Bellary"
            ],
            "longitude": "76.6780987",
            "closest_to": "udupi",
            "latitude": "15.1959663",
            "address": "Toranagallu, Sanduru taluk, Bellary district, Karnataka, 583123, India"
        },
        "bengaluru international airport": {
            "locType": "aerodrome",
            "blogLinks": [
                "http://www.indiatravelblog.com/resources/3761-Udupi-Tourist-Places.aspx"
            ],
            "longitude": "77.7065674158539",
            "closest_to": "bellary",
            "latitude": "13.2042586",
            "address": "Kempegowda International Airport (KIA), Bengaluru, Restricted Lane, Anneshvara, Devanahalli taluk, Bangalore Rural, Karnataka, 560300, India"
        },
        "nagareshwara": {
            "locType": "place_of_worship",
            "blogLinks": [
                "https://en.wikipedia.org/wiki/Tourism_in_North_Karnataka"
            ],
            "longitude": "77.3934679",
            "closest_to": "bellary",
            "latitude": "16.8662525",
            "address": "Nagareshwara Temple, SH126, Dantapur, Yadagiri taluku, Yadagiri district, Karnataka, India"
        },
        "venur": {
            "locType": "village",
            "blogLinks": [
                "https://www.thrillophilia.com/places-to-visit-near-mangalore",
                "http://www.amuct.org/more/aifucto-conference/549-places-to-visit-in-and-around-mangalore",
                "https://en.wikipedia.org/wiki/Tourism_in_North_Karnataka"
            ],
            "longitude": "75.1443252",
            "closest_to": "udupi",
            "latitude": "13.0122097",
            "address": "Venoor, Beltangadi taluk, Dakshina Kannada, Karnataka, 574242, India"
        },
        "narasimha swamy temple": {
            "locType": "place_of_worship",
            "blogLinks": [
                "https://en.wikipedia.org/wiki/Tourism_in_North_Karnataka"
            ],
            "longitude": "76.2427318",
            "closest_to": "udupi",
            "latitude": "13.0943931",
            "address": "Narasimha Swamy Temple, Attavara Mudigere Road, Attavara, Hasana taluk, Hassan district, Karnataka, India"
        },
        "pune": {
            "locType": "trunk",
            "blogLinks": [
                "https://en.wikipedia.org/wiki/Bellary"
            ],
            "longitude": "76.9479122",
            "closest_to": "bellary",
            "latitude": "17.8199745",
            "address": "Pune - Machilipatnam Highway, Kaudiyala, Basavakalyana taluku, Bidar district, Karnataka, India"
        },
        "gulbarga district": {
            "locType": "county",
            "blogLinks": [
                "https://en.wikipedia.org/wiki/Tourism_in_North_Karnataka"
            ],
            "longitude": "77.083333",
            "closest_to": "bellary",
            "latitude": "17.166667",
            "address": "Kalaburgi, Kalaburagi district, Karnataka, India"
        },
        "mogaveera": {
            "locType": "yes",
            "blogLinks": [
                "https://www.thrillophilia.com/places-to-visit-near-mangalore"
            ],
            "longitude": "74.8262750607477",
            "closest_to": "udupi",
            "latitude": "13.45454075",
            "address": "Primary school, Mogaveera pete, Kokkarne Santekatte Road, Suralu, Udupi taluku, Udupi district, Karnataka, India"
        },
        "gurupura": {
            "locType": "village",
            "blogLinks": [
                "http://www.amuct.org/more/aifucto-conference/549-places-to-visit-in-and-around-mangalore"
            ],
            "longitude": "75.7161587",
            "closest_to": "udupi",
            "latitude": "13.6686411",
            "address": "Gurupura, Tarikere taluku, Chikkamagaluru district, Karnataka, India"
        },
        "hassan": {
            "locType": "town",
            "blogLinks": [
                "https://www.quora.com/What-are-the-best-places-to-visit-in-Karnataka-India",
                "https://en.wikipedia.org/wiki/Tourism_in_North_Karnataka"
            ],
            "longitude": "76.0992703",
            "closest_to": "udupi",
            "latitude": "13.0070817",
            "address": "Hassan, Hasana taluk, Hassan district, Karnataka, 573201, India"
        },
        "kr hills": {
            "locType": "bus_stop",
            "blogLinks": [
                "http://www.indiatravelblog.com/resources/3761-Udupi-Tourist-Places.aspx",
                "http://www.indiatravelblog.com/resources/3743-Tourist-Attractions-at-Udupi-Karnataka.aspx"
            ],
            "longitude": "77.5461096",
            "closest_to": "udupi",
            "latitude": "12.9069945",
            "address": "KR Hospital, Dr. Vishnuvardhan Road, Seven Hills Layout, Chikkalasandra, Bengaluru, Bangalore Urban, Karnataka, 560001, India"
        },
        "hong kong": {
            "locType": "restaurant",
            "blogLinks": [
                "https://www.yatra.com/india-tourism/karnataka"
            ],
            "longitude": "77.6768991",
            "closest_to": "bellary",
            "latitude": "13.020749",
            "address": "Hong Kong Noodles, Kalkere Main road, Ramamurthy Nagar, Varanasi, Bangalore Urban, Karnataka, 600042, India"
        },
        "bankapura": {
            "locType": "town",
            "blogLinks": [
                "https://en.wikipedia.org/wiki/Tourism_in_North_Karnataka"
            ],
            "longitude": "75.2639298",
            "closest_to": "udupi",
            "latitude": "14.9217443",
            "address": "Bankapura, Shiggaon taluk, Haveri district, Karnataka, 581202, India"
        },
        "bannerghatta": {
            "locType": "village",
            "blogLinks": [
                "https://en.wikipedia.org/wiki/Tourism_in_North_Karnataka"
            ],
            "longitude": "77.5789509",
            "closest_to": "bellary",
            "latitude": "12.813337",
            "address": "Bannerghatta, Bangalore Urban, Karnataka, India"
        },
        "sirigere": {
            "locType": "village",
            "blogLinks": [
                "https://en.wikipedia.org/wiki/Tourism_in_North_Karnataka"
            ],
            "longitude": "76.2051907",
            "closest_to": "udupi",
            "latitude": "14.2840739",
            "address": "Sirigere, Chitradurga taluku, Chitradurga district, Karnataka, India"
        },
        "bijapur": {
            "locType": "city",
            "blogLinks": [
                "http://www.mapsofindia.com/maps/karnataka/",
                "https://www.yatra.com/india-tourism/karnataka",
                "https://www.quora.com/What-are-the-best-places-to-visit-in-Karnataka-India",
                "https://en.wikipedia.org/wiki/Tourism_in_North_Karnataka"
            ],
            "longitude": "75.7175387",
            "closest_to": "bellary",
            "latitude": "16.8269911",
            "address": "Vijayapura, Vijayapura taluk, Bijapur district, Karnataka, 586101, India"
        },
        "gotagodi village": {
            "locType": "village",
            "blogLinks": [
                "https://en.wikipedia.org/wiki/Tourism_in_North_Karnataka"
            ],
            "longitude": "75.0452834",
            "closest_to": "udupi",
            "latitude": "14.7634556",
            "address": "Gotagodi, Hanagal taluk, Haveri district, Karnataka, India"
        },
        "belgaum fort": {
            "locType": "locality",
            "blogLinks": [
                "https://en.wikipedia.org/wiki/Tourism_in_North_Karnataka"
            ],
            "longitude": "74.5255651",
            "closest_to": "udupi",
            "latitude": "15.8581696",
            "address": "Belgaum Fort, Belagavi, Belagavi taluku, Belgaum district, Karnataka, 590001, India"
        },
        "india karnataka": {
            "locType": "atm",
            "blogLinks": [
                "https://www.quora.com/What-are-the-best-places-to-visit-in-Karnataka-India"
            ],
            "longitude": "76.6639936",
            "closest_to": "udupi",
            "latitude": "12.3084901",
            "address": "Karnataka, Shalivahana Road, Nazarbad, Mysuru, Mysuru taluk, Mysuru district, Karnataka, 570001, India"
        },
        "varur": {
            "locType": "village",
            "blogLinks": [
                "https://en.wikipedia.org/wiki/Tourism_in_North_Karnataka"
            ],
            "longitude": "75.1387568",
            "closest_to": "udupi",
            "latitude": "15.2077105",
            "address": "Varur, Hubballi taluku, Dharwad district, Karnataka, India"
        },
        "haveri district": {
            "locType": "administrative",
            "blogLinks": [
                "https://en.wikipedia.org/wiki/Tourism_in_North_Karnataka"
            ],
            "longitude": "75.3845674304742",
            "closest_to": "udupi",
            "latitude": "14.714635",
            "address": "Haveri district, Karnataka, India"
        },
        "lakshmi temple": {
            "locType": "place_of_worship",
            "blogLinks": [
                "https://www.tripoto.com/travel-guide/bellary"
            ],
            "longitude": "74.9916",
            "closest_to": "udupi",
            "latitude": "15.459122",
            "address": "Lakshmi Temple, SH34, Channabasaveshwara Layout, Kamalapura, Dharwad, Dharawada taluku, Dharwad district, Karnataka, 580001, India"
        },
        "delhi": {
            "locType": "trunk",
            "blogLinks": [
                "https://en.wikipedia.org/wiki/Bellary"
            ],
            "longitude": "77.6666062",
            "closest_to": "bellary",
            "latitude": "12.9212473",
            "address": "Outer Ring Road, Green Glen Layout, Iblur, Bengaluru, Bangalore Urban, Karnataka, 560001, India"
        },
        "nandi hills": {
            "locType": "hotel",
            "blogLinks": [
                "https://www.quora.com/What-are-the-best-places-to-visit-in-Karnataka-India"
            ],
            "longitude": "77.7194741670394",
            "closest_to": "bellary",
            "latitude": "13.268142",
            "address": "Nandi Upahara, Nandhi Hills Road, Kottige Thimmanahalli, Devanahalli taluk, Bangalore Rural, Karnataka, India"
        },
        "karnataka state": {
            "locType": "university",
            "blogLinks": [
                "http://www.indiatravelblog.com/resources/3761-Udupi-Tourist-Places.aspx",
                "http://www.indiatravelblog.com/resources/3743-Tourist-Attractions-at-Udupi-Karnataka.aspx"
            ],
            "longitude": "76.6236231",
            "closest_to": "udupi",
            "latitude": "12.315382",
            "address": "Karnataka State Open University, \u0cb9\u0cc1\u0ca3\u0cb8\u0cc2\u0cb0\u0cc1 \u0cb0\u0cb8\u0ccd\u0ca4\u0cc6, Gokulam, Mysuru, Mysuru taluk, Mysuru district, Karnataka, 570001, India"
        },
        "karnatka": {
            "locType": "bank",
            "blogLinks": [
                "https://en.wikipedia.org/wiki/Bellary"
            ],
            "longitude": "77.5679508",
            "closest_to": "bellary",
            "latitude": "12.9500847",
            "address": "Karnatka Rajya Kaigarika Sahakari Bank, Bull Temple Road, Mavalli, Chamarajapete, Bengaluru, Bangalore Urban, Karnataka, 560001, India"
        },
        "sri krishna temple": {
            "locType": "unclassified",
            "blogLinks": [
                "https://www.tripoto.com/travel-guide/udupi/trips"
            ],
            "longitude": "77.6437236",
            "closest_to": "bellary",
            "latitude": "12.9791699",
            "address": "Sri Krishna Temple Road, Old Binnamangala, Hoysala Nagar, Bengaluru, Bangalore Urban, Karnataka, 560001, India"
        },
        "emirates": {
            "locType": "restaurant",
            "blogLinks": [
                "https://www.yatra.com/india-tourism/karnataka"
            ],
            "longitude": "77.5572955",
            "closest_to": "udupi",
            "latitude": "13.0192135",
            "address": "Emirates, Rahman Khan Road, Rajajinagar 1st Block, Yeshwantpur, Deewanarapalya, Bangalore Urban, Karnataka, 560022, India"
        },
        "queens": {
            "locType": "clinic",
            "blogLinks": [
                "https://www.tripoto.com/travel-guide/bellary"
            ],
            "longitude": "77.5874909",
            "closest_to": "bellary",
            "latitude": "12.9903369",
            "address": "Queens Nursing Home, Cunningham Road, Chakravarty Layout, Vasantnagar, Bengaluru, Bangalore Urban, Karnataka, 560001, India"
        },
        "oxford": {
            "locType": "books",
            "blogLinks": [
                "https://en.wikipedia.org/wiki/Bellary"
            ],
            "longitude": "77.7178402",
            "closest_to": "bellary",
            "latitude": "12.9660236",
            "address": "Oxford, I T P L Main Road, Kundalahalli Colony, AECS Layout, Sitaramapalya, Bangalore Urban, Karnataka, 560048, India"
        },
        "bajpe": {
            "locType": "village",
            "blogLinks": [
                "http://www.indiatravelblog.com/resources/3761-Udupi-Tourist-Places.aspx"
            ],
            "longitude": "74.8847082",
            "closest_to": "udupi",
            "latitude": "12.9820549",
            "address": "Bajpe, Mangaluru taluk, Dakshina Kannada, Karnataka, India"
        },
        "halebidu": {
            "locType": "village",
            "blogLinks": [
                "https://en.wikipedia.org/wiki/Tourism_in_North_Karnataka"
            ],
            "longitude": "76.4607075",
            "closest_to": "udupi",
            "latitude": "12.359893",
            "address": "Halebidu, Hunasuru taluk, Mysuru district, Karnataka, India"
        },
        "bagalkot district": {
            "locType": "city",
            "blogLinks": [
                "https://en.wikipedia.org/wiki/Tourism_in_North_Karnataka"
            ],
            "longitude": "75.6967919",
            "closest_to": "bellary",
            "latitude": "16.1853166",
            "address": "Bagalakote, Bagalakote taluk, Bagalkote district, Karnataka, India"
        },
        "mandya district": {
            "locType": "administrative",
            "blogLinks": [
                "http://www.indiatravelblog.com/resources/3761-Udupi-Tourist-Places.aspx",
                "http://www.indiatravelblog.com/resources/3743-Tourist-Attractions-at-Udupi-Karnataka.aspx",
                "https://en.wikipedia.org/wiki/Tourism_in_North_Karnataka"
            ],
            "longitude": "76.7302318329607",
            "closest_to": "udupi",
            "latitude": "12.6336348",
            "address": "Mandya district, Karnataka, India"
        },
        "kundapur": {
            "locType": "school",
            "blogLinks": [
                "http://wikitravel.org/en/Udupi",
                "http://www.amuct.org/more/aifucto-conference/549-places-to-visit-in-and-around-mangalore"
            ],
            "longitude": "74.6906749",
            "closest_to": "udupi",
            "latitude": "13.6343509",
            "address": "United Basel mission church Higher Primary School, Kundapur, Chikkansal Road, Vaderahobali, Kundapura, \u0c95\u0cc1\u0c82\u0ca6\u0cbe\u0caa\u0cc1\u0cb0 \u0ca4\u0cbe\u0cb2\u0cc2\u0c95\u0cc1, Udupi district, Karnataka, 576200, India"
        },
        "nagarahole": {
            "locType": "river",
            "blogLinks": [
                "https://en.wikipedia.org/wiki/Tourism_in_North_Karnataka"
            ],
            "longitude": "76.2286805",
            "closest_to": "udupi",
            "latitude": "12.0229466",
            "address": "Nagarahole, Heggadadevanakote taluk, Mysuru district, Karnataka, India"
        },
        "narayana": {
            "locType": "village",
            "blogLinks": [
                "https://en.wikipedia.org/wiki/Tourism_in_North_Karnataka"
            ],
            "longitude": "76.201037",
            "closest_to": "udupi",
            "latitude": "13.9181889",
            "address": "Narayana Gondanahalli, Holalkere taluk, Chitradurga district, Karnataka, India"
        },
        "kadapa": {
            "locType": "construction",
            "blogLinks": [
                "https://en.wikipedia.org/wiki/Bellary"
            ],
            "longitude": "78.3792674",
            "closest_to": "bellary",
            "latitude": "13.1859851",
            "address": "Kadapa - Madanapalle - Bengaluru New Line (u/c), Srinivaspur Mulbagal Road, Kadiripura, Mulubagilu taluk, Kolar district, Karnataka, 563131, India"
        },
        "kozhikode": {
            "locType": "primary",
            "blogLinks": [
                "https://www.quora.com/What-are-the-best-places-to-visit-in-Karnataka-India"
            ],
            "longitude": "76.6598864",
            "closest_to": "udupi",
            "latitude": "12.2926117",
            "address": "Kozhikode - Kollegal Highway, Ittigegudu, Mysuru, Mysuru taluk, Mysuru district, Karnataka, 570001, India"
        },
        "gulbarga": {
            "locType": "county",
            "blogLinks": [
                "http://www.mapsofindia.com/maps/karnataka/",
                "https://en.wikipedia.org/wiki/Tourism_in_North_Karnataka"
            ],
            "longitude": "77.083333",
            "closest_to": "bellary",
            "latitude": "17.166667",
            "address": "Kalaburgi, Kalaburagi district, Karnataka, India"
        },
        "bandipur national park": {
            "locType": "national_park",
            "blogLinks": [
                "https://www.quora.com/What-are-the-best-places-to-visit-in-Karnataka-India",
                "https://en.wikipedia.org/wiki/Tourism_in_North_Karnataka"
            ],
            "longitude": "76.4314968740264",
            "closest_to": "udupi",
            "latitude": "11.76682425",
            "address": "Bandipur National Park, Kozhikode - Kollegal Highway, Gundlupet taluk, Chamarajanagar district, Karnataka, India"
        },
        "belgaum district": {
            "locType": "administrative",
            "blogLinks": [
                "http://www.indiatravelblog.com/resources/3761-Udupi-Tourist-Places.aspx",
                "http://www.indiatravelblog.com/resources/3743-Tourist-Attractions-at-Udupi-Karnataka.aspx"
            ],
            "longitude": "74.8896592460527",
            "closest_to": "bellary",
            "latitude": "16.1631253",
            "address": "Belgaum district, Karnataka, India"
        },
        "udupi karnataka": {
            "locType": "city",
            "blogLinks": [
                "http://www.indiatravelblog.com/resources/3761-Udupi-Tourist-Places.aspx"
            ],
            "longitude": "74.7473232",
            "closest_to": "udupi",
            "latitude": "13.3419169",
            "address": "Udupi, Udupi taluku, Udupi district, Karnataka, 576101, India"
        },
        "kerala": {
            "locType": "restaurant",
            "blogLinks": [
                "http://www.indiatravelblog.com/resources/3761-Udupi-Tourist-Places.aspx",
                "http://wikitravel.org/en/Udupi",
                "https://www.yatra.com/india-tourism/karnataka",
                "http://www.indiatravelblog.com/resources/3743-Tourist-Attractions-at-Udupi-Karnataka.aspx",
                "http://www.amuct.org/more/aifucto-conference/549-places-to-visit-in-and-around-mangalore",
                "https://www.quora.com/What-are-the-best-places-to-visit-in-Karnataka-India",
                "http://www.mapsofindia.com/maps/karnataka/"
            ],
            "longitude": "77.6382683",
            "closest_to": "bellary",
            "latitude": "12.9726449",
            "address": "New Life Kerala Mess, Sai Baba Mandira Road, Mottappanapalaya, Indiranagar, Bengaluru, Bangalore Urban, Karnataka, 560001, India"
        },
        "gadag district": {
            "locType": "administrative",
            "blogLinks": [
                "https://en.wikipedia.org/wiki/Tourism_in_North_Karnataka"
            ],
            "longitude": "75.6807542794645",
            "closest_to": "udupi",
            "latitude": "15.416337",
            "address": "Gadag district, Karnataka, India"
        },
        "goa": {
            "locType": "restaurant",
            "blogLinks": [
                "http://wikitravel.org/en/Udupi",
                "https://en.wikipedia.org/wiki/Bellary",
                "https://en.wikipedia.org/wiki/Tourism_in_North_Karnataka"
            ],
            "longitude": "77.6200027",
            "closest_to": "bellary",
            "latitude": "12.9750047",
            "address": "Carnival De Goa, Bhaskaran Road, Gupta Layout, Halasuru, Bengaluru, Bangalore Urban, Karnataka, 560001, India"
        },
        "mookambika": {
            "locType": "place_of_worship",
            "blogLinks": [
                "https://en.wikipedia.org/wiki/Tourism_in_North_Karnataka"
            ],
            "longitude": "74.8145296",
            "closest_to": "udupi",
            "latitude": "13.8638043",
            "address": "Mukambika Devasthana, NH766C;SH26, Halkal, \u0c95\u0cc1\u0c82\u0ca6\u0cbe\u0caa\u0cc1\u0cb0 \u0ca4\u0cbe\u0cb2\u0cc2\u0c95\u0cc1, Udupi district, Karnataka, 576220, India"
        },
        "sanganakallu": {
            "locType": "village",
            "blogLinks": [
                "https://en.wikipedia.org/wiki/Bellary"
            ],
            "longitude": "76.9671823",
            "closest_to": "bellary",
            "latitude": "15.1738536",
            "address": "Sanganakallu, Bellary taluk, Bellary district, Karnataka, India"
        },
        "shankar building": {
            "locType": "restaurant",
            "blogLinks": [
                "http://wikitravel.org/en/Udupi"
            ],
            "longitude": "77.6405519",
            "closest_to": "bellary",
            "latitude": "13.0259923",
            "address": "Ginger Greens, 122/4, Outer Ring Road, GNR Gardens, Kalyan Nagar, Chelekere, Bangalore Urban, Karnataka, 560043, India"
        },
        "sringeri": {
            "locType": "town",
            "blogLinks": [
                "https://www.quora.com/What-are-the-best-places-to-visit-in-Karnataka-India"
            ],
            "longitude": "75.2553718",
            "closest_to": "udupi",
            "latitude": "13.4261724",
            "address": "Sringeri, Sringeri taluku, Chikkamagaluru district, Karnataka, 577592, India"
        },
        "bahubali": {
            "locType": "place_of_worship",
            "blogLinks": [
                "https://www.thrillophilia.com/places-to-visit-near-mangalore",
                "http://www.amuct.org/more/aifucto-conference/549-places-to-visit-in-and-around-mangalore",
                "https://en.wikipedia.org/wiki/Tourism_in_North_Karnataka"
            ],
            "longitude": "76.4846128",
            "closest_to": "udupi",
            "latitude": "12.8540505",
            "address": "Bahubali Statue, SH8, Shravanabelagola, Channarayapattana taluk, Hassan district, Karnataka, 573135, India"
        },
        "tannirbhavi": {
            "locType": "beach",
            "blogLinks": [
                "https://www.thrillophilia.com/places-to-visit-near-mangalore"
            ],
            "longitude": "74.8132559697314",
            "closest_to": "udupi",
            "latitude": "12.8953559",
            "address": "Tannirbhavi Beach, Matadakani Road, Bokkapatna, Kudroli, Mangaluru, Mangaluru taluk, Dakshina Kannada, Karnataka, 575001, India"
        },
        "hampi": {
            "locType": "village",
            "blogLinks": [
                "http://www.mapsofindia.com/maps/karnataka/",
                "https://www.tripoto.com/travel-guide/bellary",
                "https://www.quora.com/What-are-the-best-places-to-visit-in-Karnataka-India",
                "https://en.wikipedia.org/wiki/Tourism_in_North_Karnataka"
            ],
            "longitude": "76.4606199",
            "closest_to": "udupi",
            "latitude": "15.3359769",
            "address": "Hampe, Hosapete taluk, Bellary district, Karnataka, 583239, India"
        },
        "bandipur": {
            "locType": "village",
            "blogLinks": [
                "https://en.wikipedia.org/wiki/Tourism_in_North_Karnataka"
            ],
            "longitude": "76.6285739",
            "closest_to": "udupi",
            "latitude": "11.6662708",
            "address": "Bandipur, Gundlupet taluk, Chamarajanagar district, Karnataka, India"
        },