{
    "mentions": {
        "kannada": {
            "locType": "administrative",
            "blogLinks": [
                "https://en.wikipedia.org/wiki/Bellary"
            ],
            "longitude": "75.1008028650794",
            "closest_to": "thirthahalli",
            "latitude": "12.8114089",
            "address": "Dakshina Kannada, Karnataka, India"
        },
        "karwar": {
            "locType": "town",
            "blogLinks": [
                "https://en.wikipedia.org/wiki/Bellary"
            ],
            "longitude": "74.1319229",
            "closest_to": "thirthahalli",
            "latitude": "14.8120931",
            "address": "Karwar, Karavara taluk, Uttara Kannada, Karnataka, 581300, India"
        },
        "kudligi road": {
            "locType": "primary",
            "blogLinks": [
                "http://www.indiatravelblog.com/resources/3597-Visiting-Places-Sandur-Bellary-Karnataka.aspx"
            ],
            "longitude": "76.6307008",
            "closest_to": "thirthahalli",
            "latitude": "15.1826949",
            "address": "Kudligi Road, Vaddu, Sanduru taluk, Bellary district, Karnataka, 583123, India"
        },
        "ramanagara": {
            "locType": "town",
            "blogLinks": [
                "http://www.mapsofindia.com/maps/karnataka/"
            ],
            "longitude": "74.4900863",
            "closest_to": "thirthahalli",
            "latitude": "15.422047",
            "address": "Ramanagara, Khanapura taluku, Belgaum district, Karnataka, India"
        },
        "bijapur": {
            "locType": "city",
            "blogLinks": [
                "http://www.nivalink.com/destination/hampi",
                "http://www.mapsofindia.com/maps/karnataka/"
            ],
            "longitude": "75.7175387",
            "closest_to": "bellary",
            "latitude": "16.8269911",
            "address": "Vijayapura, Vijayapura taluk, Bijapur district, Karnataka, 586101, India"
        },
        "bellary fort": {
            "locType": "castle",
            "blogLinks": [
                "http://www.ticketgoose.com/bus-tickets/bellary-to-thirthahalli"
            ],
            "longitude": "76.9090283",
            "closest_to": "thirthahalli",
            "latitude": "15.1481211",
            "address": "Upper Hill Outer Fort Wall, Uphill Fort Entry Road, Ballari, Bellary taluk, Bellary district, Karnataka, 5831XX, India"
        },
        "sagar town": {
            "locType": "town",
            "blogLinks": [
                "http://wikitravel.org/en/Shimoga"
            ],
            "longitude": "75.0262551",
            "closest_to": "thirthahalli",
            "latitude": "14.1666594",
            "address": "Sagara, Sagara taluk, Shimoga district, Karnataka, 577400, India"
        },
        "varadahalli": {
            "locType": "village",
            "blogLinks": [
                "http://wikitravel.org/en/Shimoga"
            ],
            "longitude": "75.3323142",
            "closest_to": "thirthahalli",
            "latitude": "14.8568018",
            "address": "Varadahalli, Haveri taluku, Haveri district, Karnataka, India"
        },
        "vittala": {
            "locType": "yes",
            "blogLinks": [
                "https://www.tripoto.com/travel-guide/bellary/places-to-visit"
            ],
            "longitude": "76.6237847175927",
            "closest_to": "thirthahalli",
            "latitude": "12.30129655",
            "address": "Vijaya Vittala PU College, Sahukar Chennaiah Road, Sarasvatipuram, Mysuru, Mysuru taluk, Mysuru district, Karnataka, 570001, India"
        },
        "koppal": {
            "locType": "town",
            "blogLinks": [
                "http://www.mapsofindia.com/maps/karnataka/"
            ],
            "longitude": "76.1547421",
            "closest_to": "thirthahalli",
            "latitude": "15.3484144",
            "address": "Koppala, Koppala taluku, Koppal district, Karnataka, 583231, India"
        },
        "vidyanagar airport": {
            "locType": "aerodrome",
            "blogLinks": [
                "http://www.ticketgoose.com/bus-tickets/bellary-to-thirthahalli"
            ],
            "longitude": "76.6334746",
            "closest_to": "thirthahalli",
            "latitude": "15.1743056",
            "address": "Jindal Vijaynagar Airport, Kudligi Road, Vaddu, Sanduru taluk, Bellary district, Karnataka, 583123, India"
        },
        "tunga": {
            "locType": "river",
            "blogLinks": [
                "http://www.ticketgoose.com/bus-tickets/bellary-to-thirthahalli",
                "http://www.ticketgoose.com/bus-tickets/thoranagatte-to-thirthahalli"
            ],
            "longitude": "75.3221835",
            "closest_to": "thirthahalli",
            "latitude": "13.6632221",
            "address": "Tunga, Tirthahalli taluk, Shimoga district, Karnataka, India"
        },
        "mandya district": {
            "locType": "administrative",
            "blogLinks": [
                "http://www.indiatravelblog.com/resources/3597-Visiting-Places-Sandur-Bellary-Karnataka.aspx"
            ],
            "longitude": "76.7302318329607",
            "closest_to": "thirthahalli",
            "latitude": "12.6336348",
            "address": "Mandya district, Karnataka, India"
        },
        "lakshmi temple": {
            "locType": "place_of_worship",
            "blogLinks": [
                "https://www.tripoto.com/travel-guide/bellary/places-to-visit"
            ],
            "longitude": "74.9916",
            "closest_to": "thirthahalli",
            "latitude": "15.459122",
            "address": "Lakshmi Temple, SH34, Channabasaveshwara Layout, Kamalapura, Dharwad, Dharawada taluku, Dharwad district, Karnataka, 580001, India"
        },
        "lakshmi": {
            "locType": "cinema",
            "blogLinks": [
                "https://www.tripoto.com/travel-guide/bellary/places-to-visit"
            ],
            "longitude": "77.6075298044091",
            "closest_to": "bellary",
            "latitude": "12.9251835",
            "address": "Lakshmi, Tavarekere Main Road, Sadgunte Palya, Madivala, Bengaluru, Bangalore Urban, Karnataka, 560001, India"
        },
        "nandi hills": {
            "locType": "hotel",
            "blogLinks": [
                "http://www.mapsofindia.com/karnataka/tourism/"
            ],
            "longitude": "77.7194741670394",
            "closest_to": "bellary",
            "latitude": "13.268142",
            "address": "Nandi Upahara, Nandhi Hills Road, Kottige Thimmanahalli, Devanahalli taluk, Bangalore Rural, Karnataka, India"
        },
        "karnataka state": {
            "locType": "university",
            "blogLinks": [
                "http://www.indiatravelblog.com/resources/3597-Visiting-Places-Sandur-Bellary-Karnataka.aspx",
                "http://wikitravel.org/en/Shimoga"
            ],
            "longitude": "76.6236231",
            "closest_to": "thirthahalli",
            "latitude": "12.315382",
            "address": "Karnataka State Open University, \u0cb9\u0cc1\u0ca3\u0cb8\u0cc2\u0cb0\u0cc1 \u0cb0\u0cb8\u0ccd\u0ca4\u0cc6, Gokulam, Mysuru, Mysuru taluk, Mysuru district, Karnataka, 570001, India"
        },
        "bangalore": {
            "locType": "city",
            "blogLinks": [
                "https://www.tripoto.com/travel-guide/bellary/places-to-visit",
                "http://www.nivalink.com/destination/hampi",
                "http://www.nivalink.com/destination/thirthahalli",
                "https://en.wikipedia.org/wiki/Bellary",
                "http://www.indiatravelblog.com/resources/3597-Visiting-Places-Sandur-Bellary-Karnataka.aspx",
                "http://wikitravel.org/en/Shimoga",
                "http://www.ticketgoose.com/bus-tickets/thoranagatte-to-thirthahalli",
                "http://www.mapsofindia.com/karnataka/tourism/"
            ],
            "longitude": "77.5912997",
            "closest_to": "bellary",
            "latitude": "12.9791198",
            "address": "Bengaluru, Bangalore Urban, Karnataka, 560001, India"
        },
        "karnatka": {
            "locType": "bank",
            "blogLinks": [
                "https://en.wikipedia.org/wiki/Bellary"
            ],
            "longitude": "77.5679508",
            "closest_to": "bellary",
            "latitude": "12.9500847",
            "address": "Karnatka Rajya Kaigarika Sahakari Bank, Bull Temple Road, Mavalli, Chamarajapete, Bengaluru, Bangalore Urban, Karnataka, 560001, India"
        },
        "hemakuta hill": {
            "locType": "peak",
            "blogLinks": [
                "https://www.tripoto.com/travel-guide/bellary/places-to-visit"
            ],
            "longitude": "76.4602971",
            "closest_to": "thirthahalli",
            "latitude": "15.332915",
            "address": "Hemakuta Hill, Hosapete taluk, Bellary district, Karnataka, India"
        },
        "kalinga": {
            "locType": "primary",
            "blogLinks": [
                "https://www.tripoto.com/travel-guide/bellary/places-to-visit"
            ],
            "longitude": "77.5907477",
            "closest_to": "bellary",
            "latitude": "12.9625615",
            "address": "Mission Road (Kalinga Rao Road), Sampangirama Nagar, Shanti Nagar, Bengaluru, Bangalore Urban, Karnataka, 560001, India"
        },
        "hoysaleswara temple": {
            "locType": "place_of_worship",
            "blogLinks": [
                "http://www.mapsofindia.com/karnataka/tourism/"
            ],
            "longitude": "75.9941649",
            "closest_to": "thirthahalli",
            "latitude": "13.2127193",
            "address": "Hoysaleswara Temple, SH21, Halebidu, Beluru taluk, Hassan district, Karnataka, 573121, India"
        },
        "bellary fort bellary fort": {
            "locType": "castle",
            "blogLinks": [
                "http://karnatakatour.info/category/best-tourist-places-in-karnataka/page/4/"
            ],
            "longitude": "76.9090283",
            "closest_to": "thirthahalli",
            "latitude": "15.1481211",
            "address": "Upper Hill Outer Fort Wall, Uphill Fort Entry Road, Ballari, Bellary taluk, Bellary district, Karnataka, 5831XX, India"
        },
        "bellary airport": {
            "locType": "aerodrome",
            "blogLinks": [
                "https://en.wikipedia.org/wiki/Bellary"
            ],
            "longitude": "76.8813908",
            "closest_to": "thirthahalli",
            "latitude": "15.1615409",
            "address": "Bellary Airport, Hosapete Road, Ballari, Bellary taluk, Bellary district, Karnataka, 583104, India"
        },
        "mandya": {
            "locType": "town",
            "blogLinks": [
                "http://www.mapsofindia.com/maps/karnataka/"
            ],
            "longitude": "76.8937392",
            "closest_to": "thirthahalli",
            "latitude": "12.5217836",
            "address": "Mandya, Mandya taluk, Mandya district, Karnataka, 571401, India"
        },
        "halebid": {
            "locType": "village",
            "blogLinks": [
                "http://www.mapsofindia.com/karnataka/tourism/"
            ],
            "longitude": "75.9918793",
            "closest_to": "thirthahalli",
            "latitude": "13.2167959",
            "address": "Halebidu, Beluru taluk, Hassan district, Karnataka, 573121, India"
        },
        "shimoga district of of karnataka": {
            "locType": "administrative",
            "blogLinks": [
                "http://www.ticketgoose.com/bus-tickets/bellary-to-thirthahalli",
                "http://www.ticketgoose.com/bus-tickets/thoranagatte-to-thirthahalli"
            ],
            "longitude": "75.1312533993886",
            "closest_to": "thirthahalli",
            "latitude": "14.0558284",
            "address": "Shimoga district, Karnataka, India"
        },
        "pattadakal": {
            "locType": "attraction",
            "blogLinks": [
                "http://www.mapsofindia.com/karnataka/tourism/"
            ],
            "longitude": "75.815884048161",
            "closest_to": "bellary",
            "latitude": "15.9506349",
            "address": "Pattadakal Temples, SH14, \u0cac\u0cbe\u0c9a\u0cbf\u0ca8\u0c97\u0cc1\u0ca1\u0ccd\u0ca1, Badami taluku, Bagalkote district, Karnataka, 587211, India"
        },
        "queens": {
            "locType": "clinic",
            "blogLinks": [
                "https://www.tripoto.com/travel-guide/bellary/places-to-visit"
            ],
            "longitude": "77.5874909",
            "closest_to": "bellary",
            "latitude": "12.9903369",
            "address": "Queens Nursing Home, Cunningham Road, Chakravarty Layout, Vasantnagar, Bengaluru, Bangalore Urban, Karnataka, 560001, India"
        },
        "madras": {
            "locType": "station",
            "blogLinks": [
                "https://en.wikipedia.org/wiki/Bellary"
            ],
            "longitude": "77.6449595",
            "closest_to": "bellary",
            "latitude": "12.9859442",
            "address": "Swami Vivekananda Road, Swamy Vivekananda Road (Old Madras Road), Sudgunte Palya, Baiyyappanahalli, Benniganahalli, Bangalore Urban, Karnataka, 560016, India"
        },
        "kishkindha": {
            "locType": "place_of_worship",
            "blogLinks": [
                "http://www.indiatravelblog.com/resources/3597-Visiting-Places-Sandur-Bellary-Karnataka.aspx"
            ],
            "longitude": "76.4696373",
            "closest_to": "thirthahalli",
            "latitude": "15.3546186",
            "address": "Kishkindha, SH130, Basapura, Koppala taluku, Koppal district, Karnataka, India"
        },
        "mysuru": {
            "locType": "city",
            "blogLinks": [
                "http://www.indiatravelblog.com/resources/3597-Visiting-Places-Sandur-Bellary-Karnataka.aspx"
            ],
            "longitude": "76.6553609",
            "closest_to": "thirthahalli",
            "latitude": "12.3051828",
            "address": "Mysuru, Mysuru taluk, Mysuru district, Karnataka, 570001, India"
        },
        "bellary": {
            "locType": "county",
            "blogLinks": [
                "https://www.tripoto.com/travel-guide/bellary/places-to-visit",
                "http://www.ticketgoose.com/bus-tickets/bellary-to-thirthahalli",
                "http://www.distancesfrom.com/distance-from-Bellary-to-Thirthahalli/DistanceHistory/352430.aspx",
                "http://www.distancesfrom.com/in/map-from-Bellary-to-Bellary-via-Chitradurga-Shimoga-Thirthahalli/MapHistory/15971562.aspx",
                "http://www.nivalink.com/destination/thirthahalli",
                "https://en.wikipedia.org/wiki/Bellary",
                "http://www.indiatravelblog.com/resources/3597-Visiting-Places-Sandur-Bellary-Karnataka.aspx",
                "http://www.distancesfrom.com/in/how-far-is-Kollur-from-Shimoga-via-Thirthahalli/HowFarHistory/33418864.aspx",
                "http://www.mapsofindia.com/maps/karnataka/"
            ],
            "longitude": "76.8323648",
            "closest_to": "bellary",
            "latitude": "15.2485413",
            "address": "Bellary, Bellary district, Karnataka, India"
        },
        "kundapura": {
            "locType": "town",
            "blogLinks": [
                "http://www.nivalink.com/destination/thirthahalli"
            ],
            "longitude": "74.6915722",
            "closest_to": "thirthahalli",
            "latitude": "13.6250993",
            "address": "Kundapura, \u0c95\u0cc1\u0c82\u0ca6\u0cbe\u0caa\u0cc1\u0cb0 \u0ca4\u0cbe\u0cb2\u0cc2\u0c95\u0cc1, Udupi district, Karnataka, 576200, India"
        },
        "tumkur": {
            "locType": "county",
            "blogLinks": [
                "http://www.mapsofindia.com/maps/karnataka/"
            ],
            "longitude": "77.0002445",
            "closest_to": "thirthahalli",
            "latitude": "13.4999406",
            "address": "Tumakuru, Tumkur district, Karnataka, India"
        },
        "ganjam": {
            "locType": "village",
            "blogLinks": [
                "http://www.indiatravelblog.com/resources/3597-Visiting-Places-Sandur-Bellary-Karnataka.aspx"
            ],
            "longitude": "76.7059545",
            "closest_to": "thirthahalli",
            "latitude": "12.414365",
            "address": "Ganjam, Srirangapattana taluk, Mandya district, Karnataka, India"
        },
        "belur": {
            "locType": "town",
            "blogLinks": [
                "http://www.mapsofindia.com/karnataka/tourism/"
            ],
            "longitude": "75.8634851",
            "closest_to": "thirthahalli",
            "latitude": "13.1645671",
            "address": "Belur, Beluru taluk, Hassan district, Karnataka, 573115, India"
        },
        "kudalasangama": {
            "locType": "village",
            "blogLinks": [
                "http://wikitravel.org/en/Shimoga"
            ],
            "longitude": "76.0604244",
            "closest_to": "bellary",
            "latitude": "16.2033992",
            "address": "Kudala Sangama, Hunagunda taluku, Bagalkote district, Karnataka, India"
        },
        "mundargi": {
            "locType": "hamlet",
            "blogLinks": [
                "https://en.wikipedia.org/wiki/Bellary"
            ],
            "longitude": "77.1777795",
            "closest_to": "bellary",
            "latitude": "16.7700414",
            "address": "Mundargi Thanda, Yadagiri taluku, Yadagiri district, Karnataka, India"
        },
        "anantapur": {
            "locType": "yes",
            "blogLinks": [
                "https://en.wikipedia.org/wiki/Bellary"
            ],
            "longitude": "77.7596024",
            "closest_to": "bellary",
            "latitude": "13.7972948",
            "address": "RTO Karnataka, Srinagar - Kanyakumari Highway, Paragodu, Bagepalli taluk, Chikkaballapura district, Karnataka, 561207, India"
        },
        "lakshmi narasimha temple": {
            "locType": "place_of_worship",
            "blogLinks": [
                "https://www.tripoto.com/travel-guide/bellary/places-to-visit"
            ],
            "longitude": "76.4751415",
            "closest_to": "thirthahalli",
            "latitude": "13.0109781",
            "address": "Lakshmi Narasimha Temple, SH147, Nuggehalli, Channarayapattana taluk, Hassan district, Karnataka, India"
        },
        "kadapa": {
            "locType": "construction",
            "blogLinks": [
                "https://en.wikipedia.org/wiki/Bellary"
            ],
            "longitude": "78.3792674",
            "closest_to": "bellary",
            "latitude": "13.1859851",
            "address": "Kadapa - Madanapalle - Bengaluru New Line (u/c), Srinivaspur Mulbagal Road, Kadiripura, Mulubagilu taluk, Kolar district, Karnataka, 563131, India"
        },
        "mumbai": {
            "locType": "restaurant",
            "blogLinks": [
                "http://www.ticketgoose.com/bus-tickets/bellary-to-thirthahalli",
                "https://en.wikipedia.org/wiki/Bellary",
                "https://www.tripoto.com/travel-guide/bellary/places-to-visit"
            ],
            "longitude": "77.5718472",
            "closest_to": "bellary",
            "latitude": "13.0002869",
            "address": "Mumbai Spice, 18/2, 10th Cross, Malleswaram, Vyalikaval, Malleswaram, Bengaluru, Bangalore Urban, Karnataka, 560003, India"
        },
        "dakshina kannada": {
            "locType": "administrative",
            "blogLinks": [
                "http://www.mapsofindia.com/maps/karnataka/"
            ],
            "longitude": "75.1008028650794",
            "closest_to": "thirthahalli",
            "latitude": "12.8114089",
            "address": "Dakshina Kannada, Karnataka, India"
        },
        "nittur": {
            "locType": "tertiary",
            "blogLinks": [
                "http://wikitravel.org/en/Shimoga"
            ],
            "longitude": "75.7595937",
            "closest_to": "thirthahalli",
            "latitude": "14.3579814",
            "address": "Malebennur Nittur Road, Nitturu, Harihara taluku, Davanagere district, Karnataka, 577530, India"
        },
        "kurnool": {
            "locType": "hotel",
            "blogLinks": [
                "https://en.wikipedia.org/wiki/Bellary",
                "http://www.nivalink.com/destination/hampi"
            ],
            "longitude": "77.4217916",
            "closest_to": "bellary",
            "latitude": "15.9394081",
            "address": "Karnataka Guest House, Jadcherla - Hagari Road, Kurnool, Andhra Pradesh, India"
        },
        "dr. rajkumar park": {
            "locType": "park",
            "blogLinks": [
                "https://en.wikipedia.org/wiki/Bellary"
            ],
            "longitude": "77.5574645707685",
            "closest_to": "bellary",
            "latitude": "12.9519632",
            "address": "Dr Rajkumar Park, Pipeline Road, Srinagar, Bengaluru, Bangalore Urban, Karnataka, 560001, India"
        },
        "gulbarga": {
            "locType": "county",
            "blogLinks": [
                "http://www.mapsofindia.com/maps/karnataka/"
            ],
            "longitude": "77.083333",
            "closest_to": "bellary",
            "latitude": "17.166667",
            "address": "Kalaburgi, Kalaburagi district, Karnataka, India"
        },
        "belgaum district": {
            "locType": "administrative",
            "blogLinks": [
                "http://www.indiatravelblog.com/resources/3597-Visiting-Places-Sandur-Bellary-Karnataka.aspx"
            ],
            "longitude": "74.8896592460527",
            "closest_to": "bellary",
            "latitude": "16.1631253",
            "address": "Belgaum district, Karnataka, India"
        },
        "sanduru": {
            "locType": "town",
            "blogLinks": [
                "https://en.wikipedia.org/wiki/Bellary"
            ],
            "longitude": "76.5435934",
            "closest_to": "thirthahalli",
            "latitude": "15.084389",
            "address": "Sanduru, Sanduru taluk, Bellary district, Karnataka, 583119, India"
        },
        "river tungabhadra": {
            "locType": "river",
            "blogLinks": [
                "https://www.tripoto.com/travel-guide/bellary/places-to-visit"
            ],
            "longitude": "76.4931607",
            "closest_to": "thirthahalli",
            "latitude": "15.3446123",
            "address": "Tungabhadra, Gangavati taluku, Koppal district, Karnataka, India"
        },
        "thirthahalli": {
            "locType": "trunk",
            "blogLinks": [
                "http://www.distancesfrom.com/in/flight-distance-from-Shimoga-to-Kollur/FlightHistory/33418864.aspx",
                "http://www.ticketgoose.com/bus-tickets/bellary-to-thirthahalli",
                "http://www.distancesfrom.com/in/travel-from-Shimoga-to-Kollur-via-Thirthahalli/TravelFromHistory/33418864.aspx",
                "http://www.distancesfrom.com/distance-from-Bellary-to-Thirthahalli/DistanceHistory/352430.aspx",
                "http://karnatakatour.info/category/best-tourist-places-in-karnataka/page/4/",
                "http://www.nivalink.com/destination/thirthahalli",
                "http://www.indiatravelblog.com/resources/3597-Visiting-Places-Sandur-Bellary-Karnataka.aspx",
                "http://wikitravel.org/en/Shimoga",
                "http://www.distancesfrom.com/in/how-far-is-Kollur-from-Shimoga-via-Thirthahalli/HowFarHistory/33418864.aspx",
                "http://www.ticketgoose.com/bus-tickets/thoranagatte-to-thirthahalli"
            ],
            "longitude": "74.9626368",
            "closest_to": "thirthahalli",
            "latitude": "13.4265327",
            "address": "Thirthahalli - Udupi Highway, Shivapura, Karkala taluk, Udupi district, Karnataka, India"
        },
        "tirthahalli": {
            "locType": "town",
            "blogLinks": [
                "http://www.nivalink.com/destination/thirthahalli"
            ],
            "longitude": "75.2463699",
            "closest_to": "thirthahalli",
            "latitude": "13.6901992",
            "address": "Tirthahalli, Tirthahalli taluk, Shimoga district, Karnataka, 577432, India"
        },
        "tungabhadra dam": {
            "locType": "dam",
            "blogLinks": [
                "https://www.tripoto.com/travel-guide/bellary/places-to-visit"
            ],
            "longitude": "76.3339514796436",
            "closest_to": "thirthahalli",
            "latitude": "15.2639032",
            "address": "Tungabhadra Dam, Hosapete taluk, Bellary district, Karnataka, India"
        },
        "kamalapur": {
            "locType": "yes",
            "blogLinks": [
                "https://www.tripoto.com/travel-guide/bellary/places-to-visit"
            ],
            "longitude": "75.003629911571",
            "closest_to": "thirthahalli",
            "latitude": "15.4456282",
            "address": "Kamalapur Nursing Home, Station Road, Kalyana nagar, Gandhinagar, Dharwad, Dharawada taluku, Dharwad district, Karnataka, 580001, India"
        },
        "pampa": {
            "locType": "secondary",
            "blogLinks": [
                "https://www.tripoto.com/travel-guide/bellary/places-to-visit"
            ],
            "longitude": "77.5719518",
            "closest_to": "bellary",
            "latitude": "12.9581179",
            "address": "Pampa Mahakavi Road, Ranasingpet, Kalasipalya, Bengaluru, Bangalore Urban, Karnataka, 560001, India"
        },
        "anegundi village": {
            "locType": "village",
            "blogLinks": [
                "http://www.indiatravelblog.com/resources/3597-Visiting-Places-Sandur-Bellary-Karnataka.aspx"
            ],
            "longitude": "76.4924232",
            "closest_to": "thirthahalli",
            "latitude": "15.3509583",
            "address": "Anegundi, Gangavati taluku, Koppal district, Karnataka, India"
        },
        "southern india": {
            "locType": "commercial",
            "blogLinks": [
                "https://www.tripoto.com/travel-guide/bellary/places-to-visit"
            ],
            "longitude": "77.6227757667762",
            "closest_to": "bellary",
            "latitude": "12.92588785",
            "address": "Survey Of India - Southern Zone, Madivala, Bengaluru, Bangalore Urban, Karnataka, 560001, India"
        },
        "gavisiddeshwara": {
            "locType": "place_of_worship",
            "blogLinks": [
                "http://www.ticketgoose.com/bus-tickets/bellary-to-thirthahalli"
            ],
            "longitude": "75.0733727",
            "closest_to": "bellary",
            "latitude": "16.7226139",
            "address": "Gavisiddeshwara Temple, SH12, Badachi, Athani taluku, Belgaum district, Karnataka, India"
        },
        "new city": {
            "locType": "supermarket",
            "blogLinks": [
                "https://en.wikipedia.org/wiki/Bellary"
            ],
            "longitude": "77.6736268",
            "closest_to": "bellary",
            "latitude": "12.9851864",
            "address": "New City Super Market, Kaggadasspura Main Road, Putanna Garden, C V Raman Nagar, A Narayanapura, Bangalore Urban, Karnataka, 560093, India"
        },
        "jindal vijaynagar airport": {
            "locType": "aerodrome",
            "blogLinks": [
                "https://en.wikipedia.org/wiki/Bellary"
            ],
            "longitude": "76.6334746",
            "closest_to": "thirthahalli",
            "latitude": "15.1743056",
            "address": "Jindal Vijaynagar Airport, Kudligi Road, Vaddu, Sanduru taluk, Bellary district, Karnataka, 583123, India"
        },
        "kakkabe": {
            "locType": "village",
            "blogLinks": [
                "https://www.tripoto.com/travel-guide/bellary/places-to-visit"
            ],
            "longitude": "75.6444603",
            "closest_to": "thirthahalli",
            "latitude": "12.2571817",
            "address": "Kakkabe, Madikeri taluku, Kodagu, Karnataka, India"
        },
        "sanganakallu": {
            "locType": "village",
            "blogLinks": [
                "https://en.wikipedia.org/wiki/Bellary"
            ],
            "longitude": "76.9671823",
            "closest_to": "bellary",
            "latitude": "15.1738536",
            "address": "Sanganakallu, Bellary taluk, Bellary district, Karnataka, India"
        },
        "chikkamagaluru district of karnataka": {
            "locType": "administrative",
            "blogLinks": [
                "http://karnatakatour.info/category/best-tourist-places-in-karnataka/page/4/"
            ],
            "longitude": "75.6327382353719",
            "closest_to": "thirthahalli",
            "latitude": "13.4005751",
            "address": "Chikkamagaluru district, Karnataka, India"
        },
        "sringeri": {
            "locType": "town",
            "blogLinks": [
                "http://www.nivalink.com/destination/thirthahalli"
            ],
            "longitude": "75.2553718",
            "closest_to": "thirthahalli",
            "latitude": "13.4261724",
            "address": "Sringeri, Sringeri taluku, Chikkamagaluru district, Karnataka, 577592, India"
        },
        "bijapur city": {
            "locType": "city",
            "blogLinks": [
                "http://karnatakatour.info/category/best-tourist-places-in-karnataka/page/4/"
            ],
            "longitude": "75.7175387",
            "closest_to": "bellary",
            "latitude": "16.8269911",
            "address": "Vijayapura, Vijayapura taluk, Bijapur district, Karnataka, 586101, India"
        },
        "black lake": {
            "locType": "bar",
            "blogLinks": [
                "https://en.wikipedia.org/wiki/Bellary"
            ],
            "longitude": "77.6411436",
            "closest_to": "bellary",
            "latitude": "12.9698964",
            "address": "The Black Rabbit, 100 Feet Road( S K Karim Khan Road), Appareddipalaya, Indiranagar, Bengaluru, Bangalore Urban, Karnataka, 560001, India"
        },
        "udupi": {
            "locType": "city",
            "blogLinks": [
                "http://www.mapsofindia.com/karnataka/tourism/",
                "http://www.mapsofindia.com/maps/karnataka/"
            ],
            "longitude": "74.7473232",
            "closest_to": "thirthahalli",
            "latitude": "13.3419169",
            "address": "Udupi, Udupi taluku, Udupi district, Karnataka, 576101, India"
        },
        "kollur route": {
            "locType": "village",
            "blogLinks": [
                "http://www.distancesfrom.com/in/flight-distance-from-Shimoga-to-Kollur/FlightHistory/33418864.aspx"
            ],
            "longitude": "77.4295504",
            "closest_to": "bellary",
            "latitude": "17.5362731",
            "address": "Kollur, Chincholi taluku, Kalaburagi district, Karnataka, India"
        },
        "hampi": {
            "locType": "village",
            "blogLinks": [
                "http://www.nivalink.com/destination/hampi",
                "http://www.karnatakatourism.org/",
                "http://www.ticketgoose.com/bus-tickets/thoranagatte-to-thirthahalli",
                "http://www.mapsofindia.com/karnataka/tourism/",
                "https://www.tripoto.com/travel-guide/bellary/places-to-visit"
            ],
            "longitude": "76.4606199",
            "closest_to": "thirthahalli",
            "latitude": "15.3359769",
            "address": "Hampe, Hosapete taluk, Bellary district, Karnataka, 583239, India"
        },
        "bellary district": {
            "locType": "administrative",
            "blogLinks": [
                "http://www.indiatravelblog.com/resources/3597-Visiting-Places-Sandur-Bellary-Karnataka.aspx"
            ],
            "longitude": "76.7137978546465",
            "closest_to": "thirthahalli",
            "latitude": "15.20597305",
            "address": "Bellary district, Karnataka, India"
        },
        "hadagali": {
            "locType": "village",
            "blogLinks": [
                "https://en.wikipedia.org/wiki/Bellary"
            ],
            "longitude": "75.9370122",
            "closest_to": "bellary",
            "latitude": "16.8109502",
            "address": "Hadagali, Vijayapura taluk, Bijapur district, Karnataka, India"
        },
        "srirangapatna": {
            "locType": "town",
            "blogLinks": [
                "http://www.indiatravelblog.com/resources/3597-Visiting-Places-Sandur-Bellary-Karnataka.aspx"
            ],
            "longitude": "76.6850743",
            "closest_to": "thirthahalli",
            "latitude": "12.4225604",
            "address": "Srirangapatna, Srirangapattana taluk, Mandya district, Karnataka, 571438, India"
        },
        "badami of karnataka": {
            "locType": "administrative",
            "blogLinks": [
                "http://www.mapsofindia.com/karnataka/tourism/"
            ],
            "longitude": "75.6419100722642",
            "closest_to": "bellary",
            "latitude": "15.98301895",
            "address": "Badami taluku, Bagalkote district, Karnataka, India"
        },
        "dharwad": {
            "locType": "city",
            "blogLinks": [
                "http://www.mapsofindia.com/maps/karnataka/"
            ],
            "longitude": "75.0066516",
            "closest_to": "thirthahalli",
            "latitude": "15.4540505",
            "address": "Dharwad, Dharawada taluku, Dharwad district, Karnataka, 580001, India"
        },
        "mangalore": {
            "locType": "city",
            "blogLinks": [
                "http://www.ticketgoose.com/bus-tickets/bellary-to-thirthahalli",
                "http://www.distancesfrom.com/distance-from-Bellary-to-Thirthahalli/DistanceHistory/352430.aspx",
                "https://en.wikipedia.org/wiki/Bellary",
                "http://www.mapsofindia.com/karnataka/tourism/",
                "http://wikitravel.org/en/Shimoga"
            ],
            "longitude": "74.8430082",
            "closest_to": "thirthahalli",
            "latitude": "12.8698101",
            "address": "Mangaluru, Mangaluru taluk, Dakshina Kannada, Karnataka, 575001, India"
        },
        "gokarna": {
            "locType": "town",
            "blogLinks": [
                "http://www.mapsofindia.com/karnataka/tourism/"
            ],
            "longitude": "74.3184418",
            "closest_to": "thirthahalli",
            "latitude": "14.5439629",
            "address": "Gokarna, Kumata taluk, Uttara Kannada, Karnataka, 581326, India"
        },
        "chikkaballapur": {
            "locType": "town",
            "blogLinks": [
                "http://www.mapsofindia.com/maps/karnataka/"
            ],
            "longitude": "77.7306866",
            "closest_to": "bellary",
            "latitude": "13.4352549",
            "address": "Chikkaballapura, Chikkaballapura taluk, Chikkaballapura district, Karnataka, 562101, India"
        },
        "venkatappa art gallery": {
            "locType": "museum",
            "blogLinks": [
                "http://www.mapsofindia.com/karnataka/tourism/"
            ],
            "longitude": "77.5952077",
            "closest_to": "bellary",
            "latitude": "12.9742592",
            "address": "Venkatappa Art Gallery, Kasturba Road, Shantala Nagar, MacIvor Town, Bengaluru, Bangalore Urban, Karnataka, 560001, India"
        },
        "krishnarajendra hill station": {
            "locType": "park",
            "blogLinks": [
                "http://www.indiatravelblog.com/resources/3597-Visiting-Places-Sandur-Bellary-Karnataka.aspx"
            ],
            "longitude": "77.583027619944",
            "closest_to": "bellary",
            "latitude": "12.96370475",
            "address": "Silver Jubilee Park, Narasimharaja Road, Ganigarpet, Kalasipalya, Bengaluru, Bangalore Urban, Karnataka, 560001, India"
        },
        "hindupur": {
            "locType": "primary",
            "blogLinks": [
                "https://en.wikipedia.org/wiki/Bellary"
            ],
            "longitude": "77.5237128",
            "closest_to": "thirthahalli",
            "latitude": "13.3580171",
            "address": "Hindupur ByPass Road, Bachchahalli, Doddaballapura taluk, Bangalore Rural, Karnataka, India"
        },
        "humcha": {
            "locType": "secondary",
            "blogLinks": [
                "http://www.nivalink.com/destination/thirthahalli"
            ],
            "longitude": "75.2098487",
            "closest_to": "thirthahalli",
            "latitude": "13.862013",
            "address": "Humcha Main Road, Huncha, Hosanagara taluk, Shimoga district, Karnataka, India"
        },
        "fort hill": {
            "locType": "locality",
            "blogLinks": [
                "http://karnatakatour.info/category/best-tourist-places-in-karnataka/page/4/"
            ],
            "longitude": "74.5255651",
            "closest_to": "thirthahalli",
            "latitude": "15.8581696",
            "address": "Belgaum Fort, Belagavi, Belagavi taluku, Belgaum district, Karnataka, 590001, India"
        },
        "delhi": {
            "locType": "trunk",
            "blogLinks": [
                "https://en.wikipedia.org/wiki/Bellary"
            ],
            "longitude": "77.6666062",
            "closest_to": "bellary",
            "latitude": "12.9212473",
            "address": "Outer Ring Road, Green Glen Layout, Iblur, Bengaluru, Bangalore Urban, Karnataka, 560001, India"
        },
        "gadag": {
            "locType": "town",
            "blogLinks": [
                "http://www.mapsofindia.com/maps/karnataka/"
            ],
            "longitude": "75.6300786",
            "closest_to": "thirthahalli",
            "latitude": "15.4263647",
            "address": "Gadag, Gadag taluk, Gadag district, Karnataka, 582101, India"
        },
        "chennakesava temple": {
            "locType": "place_of_worship",
            "blogLinks": [
                "http://www.mapsofindia.com/karnataka/tourism/"
            ],
            "longitude": "75.8603311",
            "closest_to": "thirthahalli",
            "latitude": "13.1629239",
            "address": "Chennakesava Temple, NH73, Navilahalli, Beluru taluk, Hassan district, Karnataka, India"
        },
        "nagara": {
            "locType": "village",
            "blogLinks": [
                "http://wikitravel.org/en/Shimoga"
            ],
            "longitude": "75.0328554",
            "closest_to": "thirthahalli",
            "latitude": "13.8236828",
            "address": "Nagara, Hosanagara taluk, Shimoga district, Karnataka, India"
        },
        "pushkarani": {
            "locType": "water",
            "blogLinks": [
                "https://www.tripoto.com/travel-guide/bellary/places-to-visit"
            ],
            "longitude": "74.7063912580927",
            "closest_to": "thirthahalli",
            "latitude": "13.5218095",
            "address": "Pushkarani, NH66, Thekkatte, \u0c95\u0cc1\u0c82\u0ca6\u0cbe\u0caa\u0cc1\u0cb0 \u0ca4\u0cbe\u0cb2\u0cc2\u0c95\u0cc1, Udupi district, Karnataka, 576231, India"
        },
        "kemmangundi": {
            "locType": "village",
            "blogLinks": [
                "http://www.indiatravelblog.com/resources/3597-Visiting-Places-Sandur-Bellary-Karnataka.aspx"
            ],
            "longitude": "75.7520082",
            "closest_to": "thirthahalli",
            "latitude": "13.5463048",
            "address": "Kemmannagundi, Tarikere taluku, Chikkamagaluru district, Karnataka, India"
        },
        "sagar taluk": {
            "locType": "town",
            "blogLinks": [
                "http://wikitravel.org/en/Shimoga"
            ],
            "longitude": "75.0262551",
            "closest_to": "thirthahalli",
            "latitude": "14.1666594",
            "address": "Sagara, Sagara taluk, Shimoga district, Karnataka, 577400, India"
        },
        "chitradurga": {
            "locType": "town",
            "blogLinks": [
                "https://en.wikipedia.org/wiki/Bellary",
                "http://www.distancesfrom.com/in/map-from-Bellary-to-Bellary-via-Chitradurga-Shimoga-Thirthahalli/MapHistory/15971562.aspx",
                "http://www.ticketgoose.com/bus-tickets/thoranagatte-to-thirthahalli",
                "https://www.tripoto.com/travel-guide/bellary/places-to-visit"
            ],
            "longitude": "76.4005122",
            "closest_to": "thirthahalli",
            "latitude": "14.2266443",
            "address": "Chitradurga, Chitradurga taluku, Chitradurga district, Karnataka, 577500, India"
        },
        "chitradurga fort": {
            "locType": "attraction",
            "blogLinks": [
                "http://www.ticketgoose.com/bus-tickets/thoranagatte-to-thirthahalli"
            ],
            "longitude": "76.3948635401208",
            "closest_to": "thirthahalli",
            "latitude": "14.21296355",
            "address": "Chitradurga Fort, Kote Road, Devalagiri 1st Phase, Chitradurga, Chitradurga taluku, Chitradurga district, Karnataka, 577500, India"
        },
        "ballari district": {
            "locType": "city",
            "blogLinks": [
                "https://en.wikipedia.org/wiki/Bellary"
            ],
            "longitude": "76.9125211",
            "closest_to": "thirthahalli",
            "latitude": "15.1467299",
            "address": "Ballari, Bellary taluk, Bellary district, Karnataka, India"
        },
        "kalaseshwara temple": {
            "locType": "place_of_worship",
            "blogLinks": [
                "http://www.nivalink.com/destination/thirthahalli"
            ],
            "longitude": "75.363446975",
            "closest_to": "thirthahalli",
            "latitude": "13.23228505",
            "address": "Kalaseshwara Temple, SH66, Kalasa, Mudigere taluk, Chikkamagaluru district, Karnataka, 577124, India"
        },
        "chamarajanagar": {
            "locType": "station",
            "blogLinks": [
                "http://www.mapsofindia.com/maps/karnataka/"
            ],
            "longitude": "76.9331345",
            "closest_to": "thirthahalli",
            "latitude": "11.9346624",
            "address": "Chamarajanagar, Nanjangudu-Chamarajanagar Road, Kadahalli, Chamarajanagara taluk, Chamarajanagar district, Karnataka, 571313, India"
        },
        "keladi": {
            "locType": "village",
            "blogLinks": [
                "http://wikitravel.org/en/Shimoga"
            ],
            "longitude": "75.0165753",
            "closest_to": "thirthahalli",
            "latitude": "14.2214761",
            "address": "Keladi, Sagara taluk, Shimoga district, Karnataka, India"
        },
        "bengaluru": {
            "locType": "city",
            "blogLinks": [
                "http://www.indiatravelblog.com/resources/3597-Visiting-Places-Sandur-Bellary-Karnataka.aspx",
                "https://www.tripoto.com/travel-guide/bellary/places-to-visit"
            ],
            "longitude": "77.5912997",
            "closest_to": "bellary",
            "latitude": "12.9791198",
            "address": "Bengaluru, Bangalore Urban, Karnataka, 560001, India"
        },
        "uttara kannada": {
            "locType": "administrative",
            "blogLinks": [
                "http://www.distancesfrom.com/in/map-from-Bellary-to-Bellary-via-Chitradurga-Shimoga-Thirthahalli/MapHistory/15971562.aspx"
            ],
            "longitude": "74.4729163045979",
            "closest_to": "thirthahalli",
            "latitude": "14.6726379",
            "address": "Uttara Kannada, Karnataka, India"
        },
        "hasan": {
            "locType": "town",
            "blogLinks": [
                "http://www.mapsofindia.com/karnataka/tourism/"
            ],
            "longitude": "76.0992703",
            "closest_to": "thirthahalli",
            "latitude": "13.0070817",
            "address": "Hassan, Hasana taluk, Hassan district, Karnataka, 573201, India"
        },
        "tungabhadra": {
            "locType": "river",
            "blogLinks": [
                "http://www.nivalink.com/destination/hampi",
                "https://www.tripoto.com/travel-guide/bellary/places-to-visit"
            ],
            "longitude": "76.4931607",
            "closest_to": "thirthahalli",
            "latitude": "15.3446123",
            "address": "Tungabhadra, Gangavati taluku, Koppal district, Karnataka, India"
        },
        "varanasi": {
            "locType": "village",
            "blogLinks": [
                "https://en.wikipedia.org/wiki/Bellary"
            ],
            "longitude": "77.6860657",
            "closest_to": "bellary",
            "latitude": "13.0304962",
            "address": "Varanasi, Bangalore Urban, Karnataka, India"
        },
        "ballari": {
            "locType": "city",
            "blogLinks": [
                "https://en.wikipedia.org/wiki/Bellary"
            ],
            "longitude": "76.9125211",
            "closest_to": "thirthahalli",
            "latitude": "15.1467299",
            "address": "Ballari, Bellary taluk, Bellary district, Karnataka, India"
        },
        "belgaum": {
            "locType": "county",
            "blogLinks": [
                "http://www.indiatravelblog.com/resources/3597-Visiting-Places-Sandur-Bellary-Karnataka.aspx"
            ],
            "longitude": "74.75",
            "closest_to": "bellary",
            "latitude": "16.333333",
            "address": "Belgaum, Belgaum district, Karnataka, India"
        },
        "hyatt hampi": {
            "locType": "hotel",
            "blogLinks": [
                "https://www.tripoto.com/travel-guide/bellary/places-to-visit"
            ],
            "longitude": "76.624310564536",
            "closest_to": "thirthahalli",
            "latitude": "15.1752269",
            "address": "Hyatt Place Hampi, Kudligi Road, Vaddu, Sanduru taluk, Bellary district, Karnataka, 583123, India"
        },
        "talguppa": {
            "locType": "station",
            "blogLinks": [
                "http://wikitravel.org/en/Shimoga"
            ],
            "longitude": "74.9144728",
            "closest_to": "thirthahalli",
            "latitude": "14.2140954",
            "address": "Talguppa, NH69, Kanle, Sagara taluk, Shimoga district, Karnataka, 577430, India"
        },
        "udipi": {
            "locType": "restaurant",
            "blogLinks": [
                "http://www.nivalink.com/destination/thirthahalli"
            ],
            "longitude": "77.652888",
            "closest_to": "bellary",
            "latitude": "12.9530588",
            "address": "Udipi Park, 2nd Cross Road, Muniyappa Layout, Murugeshpalaya, Belure Ambedkar Nagar, Bangalore Urban, Karnataka, 560067, India"
        },
        "bhadravathi": {
            "locType": "town",
            "blogLinks": [
                "http://wikitravel.org/en/Shimoga"
            ],
            "longitude": "75.7030138",
            "closest_to": "thirthahalli",
            "latitude": "13.8474574",
            "address": "Bhadravathi, Bhadravati taluk, Shimoga district, Karnataka, 577300, India"
        },
        "cubbon park": {
            "locType": "station",
            "blogLinks": [
                "http://www.mapsofindia.com/karnataka/tourism/"
            ],
            "longitude": "77.5977565",
            "closest_to": "bellary",
            "latitude": "12.9808487",
            "address": "Cubbon Park, Cubbon Road, Tasker Town, Shivajinagar, Bengaluru, Bangalore Urban, Karnataka, 560001, India"
        },
        "anjaneya hill": {
            "locType": "peak",
            "blogLinks": [
                "https://www.tripoto.com/travel-guide/bellary/places-to-visit"
            ],
            "longitude": "76.4691482",
            "closest_to": "thirthahalli",
            "latitude": "15.3550046",
            "address": "Anjanadri Hill, Gangavati taluku, Koppal district, Karnataka, India"
        },
        "sagara taluk": {
            "locType": "administrative",
            "blogLinks": [
                "http://wikitravel.org/en/Shimoga"
            ],
            "longitude": "74.9610874491152",
            "closest_to": "thirthahalli",
            "latitude": "14.09993045",
            "address": "Sagara taluk, Shimoga district, Karnataka, India"
        },
        "talaguppa": {
            "locType": "town",
            "blogLinks": [
                "http://wikitravel.org/en/Shimoga"
            ],
            "longitude": "74.911064",
            "closest_to": "thirthahalli",
            "latitude": "14.2148828",
            "address": "Talaguppa, Sagara taluk, Shimoga district, Karnataka, 577430, India"
        },
        "sharavathi": {
            "locType": "yes",
            "blogLinks": [
                "http://wikitravel.org/en/Shimoga"
            ],
            "longitude": "77.6216184337102",
            "closest_to": "bellary",
            "latitude": "12.9464709",
            "address": "Sharavathi Block, National Games Village Road, Ambedkar Nagar, Ejipura, Bengaluru, Bangalore Urban, Karnataka, 560001, India"
        },
        "vijaynagar": {
            "locType": "bus_stop",
            "blogLinks": [
                "https://www.tripoto.com/travel-guide/bellary/places-to-visit"
            ],
            "longitude": "77.5376657",
            "closest_to": "thirthahalli",
            "latitude": "12.9720356",
            "address": "Vijaynagar, Chord Road, Marenahalli, Vijaya Nagar, Binny Layout, Bangalore Urban, Karnataka, 560040, India"
        },
        "bagalkote": {
            "locType": "administrative",
            "blogLinks": [
                "http://www.mapsofindia.com/maps/karnataka/"
            ],
            "longitude": "75.5825586777167",
            "closest_to": "bellary",
            "latitude": "16.28998085",
            "address": "Bagalkote district, Karnataka, India"
        },
        "hanuman temple": {
            "locType": "place_of_worship",
            "blogLinks": [
                "https://www.tripoto.com/travel-guide/bellary/places-to-visit"
            ],
            "longitude": "77.5273276",
            "closest_to": "thirthahalli",
            "latitude": "13.0343487",
            "address": "Hanuman Temple, 1st Cross Road, MEI Colony, Peenya, Bengaluru, Bangalore Urban, Karnataka, 560001, India"
        },
        "tirupati": {
            "locType": "village",
            "blogLinks": [
                "https://en.wikipedia.org/wiki/Bellary"
            ],
            "longitude": "76.2727455",
            "closest_to": "thirthahalli",
            "latitude": "13.3289007",
            "address": "Malekallu Tirupathi, Arasikere taluku, Hassan district, Karnataka, India"
        },
        "thirthahalli road": {
            "locType": "trunk",
            "blogLinks": [
                "http://wikitravel.org/en/Shimoga"
            ],
            "longitude": "74.7829657",
            "closest_to": "thirthahalli",
            "latitude": "13.3476314",
            "address": "Malpe - Manipal Road, Indrali, Manipal, Udupi taluku, Udupi district, Karnataka, 576 104, India"
        },
        "ulsoor lake": {
            "locType": "water",
            "blogLinks": [
                "http://www.mapsofindia.com/karnataka/tourism/"
            ],
            "longitude": "77.6191669052984",
            "closest_to": "bellary",
            "latitude": "12.9823891",
            "address": "Halasuru lake, Annaswamy Mudaliar Road, Kothandram Layout, Halasuru, Bengaluru, Bangalore Urban, Karnataka, 560001, India"
        },
        "hospet": {
            "locType": "town",
            "blogLinks": [
                "https://www.tripoto.com/travel-guide/bellary/places-to-visit"
            ],
            "longitude": "76.3870527",
            "closest_to": "thirthahalli",
            "latitude": "15.266079",
            "address": "Hosapete, Hosapete taluk, Bellary district, Karnataka, 583200, India"
        },
        "south": {
            "locType": "residential",
            "blogLinks": [
                "https://www.tripoto.com/travel-guide/bellary/places-to-visit"
            ],
            "longitude": "77.8040874",
            "closest_to": "bellary",
            "latitude": "13.2942848",
            "address": "s, Vijayapura, Devanahalli taluk, Bangalore Rural, Karnataka, 562135, India"
        },
        "kuppalli": {
            "locType": "village",
            "blogLinks": [
                "http://www.ticketgoose.com/bus-tickets/bellary-to-thirthahalli",
                "http://www.ticketgoose.com/bus-tickets/thoranagatte-to-thirthahalli"
            ],
            "longitude": "75.3161341",
            "closest_to": "thirthahalli",
            "latitude": "13.5981399",
            "address": "Kuppalli, Tirthahalli taluk, Shimoga district, Karnataka, India"
        },
        "india": {
            "locType": "administrative",
            "blogLinks": [
                "http://www.mapsofindia.com/maps/karnataka/",
                "http://www.distancesfrom.com/in/flight-distance-from-Shimoga-to-Kollur/FlightHistory/33418864.aspx",
                "http://www.distancesfrom.com/in/travel-from-Shimoga-to-Kollur-via-Thirthahalli/TravelFromHistory/33418864.aspx",
                "http://www.distancesfrom.com/distance-from-Bellary-to-Thirthahalli/DistanceHistory/352430.aspx",
                "http://www.distancesfrom.com/in/map-from-Bellary-to-Bellary-via-Chitradurga-Shimoga-Thirthahalli/MapHistory/15971562.aspx",
                "http://karnatakatour.info/category/best-tourist-places-in-karnataka/page/4/",
                "http://www.nivalink.com/destination/hampi",
                "https://en.wikipedia.org/wiki/Bellary",
                "http://www.indiatravelblog.com/resources/3597-Visiting-Places-Sandur-Bellary-Karnataka.aspx",
                "http://wikitravel.org/en/Shimoga",
                "http://www.distancesfrom.com/in/how-far-is-Kollur-from-Shimoga-via-Thirthahalli/HowFarHistory/33418864.aspx",
                "http://www.mapsofindia.com/karnataka/tourism/",
                "https://www.tripoto.com/travel-guide/bellary/places-to-visit"
            ],
            "longitude": "75.7223521",
            "closest_to": "thirthahalli",
            "latitude": "14.5203896",
            "address": "Karnataka, India"
        },
        "hoysala": {
            "locType": "administrative",
            "blogLinks": [
                "http://www.mapsofindia.com/karnataka/tourism/"
            ],
            "longitude": "77.6375990817051",
            "closest_to": "bellary",
            "latitude": "12.97813815",
            "address": "Hoysala Nagar, Bengaluru, Bangalore Urban, Karnataka, 560001, India"
        },
        "harakere": {
            "locType": "village",
            "blogLinks": [
                "http://wikitravel.org/en/Shimoga"
            ],
            "longitude": "75.5619307",
            "closest_to": "thirthahalli",
            "latitude": "13.9014234",
            "address": "Harakere, Shivamogga taluku, Shimoga district, Karnataka, India"
        },
        "central jail of bellary": {
            "locType": "prison",
            "blogLinks": [
                "https://en.wikipedia.org/wiki/Bellary"
            ],
            "longitude": "76.9253840594437",
            "closest_to": "thirthahalli",
            "latitude": "15.15050865",
            "address": "Ballari Central Jail, Jail Road, Ballari, Bellary taluk, Bellary district, Karnataka, 583101, India"
        },
        "vitthala": {
            "locType": "footway",
            "blogLinks": [
                "https://www.tripoto.com/travel-guide/bellary/places-to-visit"
            ],
            "longitude": "76.4705005",
            "closest_to": "thirthahalli",
            "latitude": "15.3376716",
            "address": "Way to Vitthala Temple, Hampe, Hosapete taluk, Bellary district, Karnataka, 583239, India"
        },
        "orissa": {
            "locType": "restaurant",
            "blogLinks": [
                "https://www.tripoto.com/travel-guide/bellary/places-to-visit"
            ],
            "longitude": "77.6448007",
            "closest_to": "bellary",
            "latitude": "12.9622425",
            "address": "Little Orissa, 18th Main Road, Babasaheb Colony, Kodihalli, Bengaluru, Bangalore Urban, Karnataka, 560001, India"
        },
        "bellary route via chitradurga": {
            "locType": "zoo",
            "blogLinks": [
                "http://www.distancesfrom.com/in/map-from-Bellary-to-Bellary-via-Chitradurga-Shimoga-Thirthahalli/MapHistory/15971562.aspx"
            ],
            "longitude": "76.0604902",
            "closest_to": "thirthahalli",
            "latitude": "14.3883025",
            "address": "Karnataka Forest Department Mini Zoo Anagodu, NH48, Yemmehatti, Chitradurga taluku, Chitradurga district, Karnataka, 577519, India"
        },
        "bijapur district": {
            "locType": "administrative",
            "blogLinks": [
                "http://karnatakatour.info/category/best-tourist-places-in-karnataka/page/4/"
            ],
            "longitude": "75.897147327785",
            "closest_to": "bellary",
            "latitude": "16.81105965",
            "address": "Bijapur district, Karnataka, India"
        },
        "kodagu": {
            "locType": "administrative",
            "blogLinks": [
                "https://www.tripoto.com/travel-guide/bellary/places-to-visit",
                "http://www.mapsofindia.com/karnataka/tourism/",
                "http://www.mapsofindia.com/maps/karnataka/"
            ],
            "longitude": "75.6677235950852",
            "closest_to": "thirthahalli",
            "latitude": "12.38117345",
            "address": "Kodagu, Karnataka, India"
        },
        "kerala": {
            "locType": "restaurant",
            "blogLinks": [
                "http://www.indiatravelblog.com/resources/3597-Visiting-Places-Sandur-Bellary-Karnataka.aspx",
                "http://www.mapsofindia.com/maps/karnataka/"
            ],
            "longitude": "77.6382683",
            "closest_to": "bellary",
            "latitude": "12.9726449",
            "address": "New Life Kerala Mess, Sai Baba Mandira Road, Mottappanapalaya, Indiranagar, Bengaluru, Bangalore Urban, Karnataka, 560001, India"
        },
        "new delhi": {
            "locType": "college",
            "blogLinks": [
                "https://en.wikipedia.org/wiki/Bellary"
            ],
            "longitude": "76.6142178649055",
            "closest_to": "thirthahalli",
            "latitude": "12.30911465",
            "address": "Regional Institute of Education, Chaduranga Road, Jayalakshmipuram, Mysuru, Mysuru taluk, Mysuru district, Karnataka, 570001, India"
        },
        "chikkamagaluru": {
            "locType": "city",
            "blogLinks": [
                "http://karnatakatour.info/category/best-tourist-places-in-karnataka/page/4/"
            ],
            "longitude": "75.7738743",
            "closest_to": "thirthahalli",
            "latitude": "13.318014",
            "address": "Chikkamagaluru, Chikkamagaluru taluku, Chikkamagaluru district, Karnataka, 577101, India"
        },
        "maharashtra": {
            "locType": "bank",
            "blogLinks": [
                "https://en.wikipedia.org/wiki/Bellary",
                "http://www.mapsofindia.com/maps/karnataka/"
            ],
            "longitude": "77.5856013",
            "closest_to": "bellary",
            "latitude": "12.9049455",
            "address": "Bank of Maharashtra, 24th Main, K R Layout, Puttenahalli, Bengaluru, Bangalore Urban, Karnataka, 560001, India"
        },
        "bheemeshwari": {
            "locType": "locality",
            "blogLinks": [
                "http://www.indiatravelblog.com/resources/3597-Visiting-Places-Sandur-Bellary-Karnataka.aspx"
            ],
            "longitude": "77.2778171",
            "closest_to": "thirthahalli",
            "latitude": "12.3124122",
            "address": "Bheemeshwari, Muttatti, Malavalli taluk, Mandya district, Karnataka, India"
        },
        "badavilinga temple": {
            "locType": "monument",
            "blogLinks": [
                "https://www.tripoto.com/travel-guide/bellary/places-to-visit"
            ],
            "longitude": "76.4590954",
            "closest_to": "thirthahalli",
            "latitude": "15.3293243",
            "address": "Badavilinga Temple, Hampi Kamalapura Road, Hampe, Hosapete taluk, Bellary district, Karnataka, 583239, India"
        },
        "badami": {
            "locType": "town",
            "blogLinks": [
                "http://www.nivalink.com/destination/hampi"
            ],
            "longitude": "75.6807865",
            "closest_to": "bellary",
            "latitude": "15.9203874",
            "address": "Badami, Badami taluku, Bagalkote district, Karnataka, 587200, India"
        },
        "goa": {
            "locType": "restaurant",
            "blogLinks": [
                "https://en.wikipedia.org/wiki/Bellary"
            ],
            "longitude": "77.6200027",
            "closest_to": "bellary",
            "latitude": "12.9750047",
            "address": "Carnival De Goa, Bhaskaran Road, Gupta Layout, Halasuru, Bengaluru, Bangalore Urban, Karnataka, 560001, India"
        },
        "shimoga": {
            "locType": "city",
            "blogLinks": [
                "http://karnatakatour.info/category/best-tourist-places-in-karnataka/page/4/"
            ],
            "longitude": "75.569737",
            "closest_to": "thirthahalli",
            "latitude": "13.9311723",
            "address": "Shivamogga, Shivamogga taluku, Shimoga district, Karnataka, 577200, India"
        },
        "kuruvalli": {
            "locType": "village",
            "blogLinks": [
                "http://www.ticketgoose.com/bus-tickets/bellary-to-thirthahalli",
                "http://www.ticketgoose.com/bus-tickets/thoranagatte-to-thirthahalli"
            ],
            "longitude": "76.9715043",
            "closest_to": "bellary",
            "latitude": "15.6717367",
            "address": "Kuruvalli, Siruguppa taluku, Bellary district, Karnataka, India"
        },
        "district hospital": {
            "locType": "hospital",
            "blogLinks": [
                "https://en.wikipedia.org/wiki/Bellary"
            ],
            "longitude": "74.7423038",
            "closest_to": "thirthahalli",
            "latitude": "13.3340175",
            "address": "District Hospital, Nairkere Road, Ambalapadi, Udupi, Udupi taluku, Udupi district, Karnataka, 576101, India"
        },
        "tumakuru": {
            "locType": "county",
            "blogLinks": [
                "https://en.wikipedia.org/wiki/Bellary"
            ],
            "longitude": "77.0002445",
            "closest_to": "thirthahalli",
            "latitude": "13.4999406",
            "address": "Tumakuru, Tumkur district, Karnataka, India"
        },
        "hampi bazaar": {
            "locType": "unclassified",
            "blogLinks": [
                "http://www.nivalink.com/destination/hampi",
                "https://www.tripoto.com/travel-guide/bellary/places-to-visit"
            ],
            "longitude": "76.4621571",
            "closest_to": "thirthahalli",
            "latitude": "15.3347585",
            "address": "Hampi Bazaar, Hampe, Hosapete taluk, Bellary district, Karnataka, 583239, India"
        },
        "kollur": {
            "locType": "village",
            "blogLinks": [
                "http://www.distancesfrom.com/in/flight-distance-from-Shimoga-to-Kollur/FlightHistory/33418864.aspx",
                "http://www.distancesfrom.com/in/how-far-is-Kollur-from-Shimoga-via-Thirthahalli/HowFarHistory/33418864.aspx",
                "http://www.distancesfrom.com/in/travel-from-Shimoga-to-Kollur-via-Thirthahalli/TravelFromHistory/33418864.aspx",
                "http://wikitravel.org/en/Shimoga"
            ],
            "longitude": "74.8137959",
            "closest_to": "thirthahalli",
            "latitude": "13.8634049",
            "address": "Kollur, \u0c95\u0cc1\u0c82\u0ca6\u0cbe\u0caa\u0cc1\u0cb0 \u0ca4\u0cbe\u0cb2\u0cc2\u0c95\u0cc1, Udupi district, Karnataka, 576220, India"
        },
        "hubli": {
            "locType": "city",
            "blogLinks": [
                "http://www.nivalink.com/destination/thirthahalli",
                "https://en.wikipedia.org/wiki/Bellary",
                "http://www.ticketgoose.com/bus-tickets/thoranagatte-to-thirthahalli",
                "http://www.nivalink.com/destination/hampi"
            ],
            "longitude": "75.1379848",
            "closest_to": "thirthahalli",
            "latitude": "15.3518378",
            "address": "Hubballi - \u0cb9\u0cc1\u0cac\u0ccd\u0cac\u0cb3\u0ccd\u0cb3\u0cbf, Hubballi taluku, Dharwad district, Karnataka, 580020, India"
        },
        "garden": {
            "locType": "orchard",
            "blogLinks": [
                "http://www.mapsofindia.com/karnataka/tourism/"
            ],
            "longitude": "77.9285817637065",
            "closest_to": "bellary",
            "latitude": "13.19253335",
            "address": "garden, N Hosahalli, Hosakote taluk, Bangalore Rural, Karnataka, India"
        },
        "mount abu": {
            "locType": "place_of_worship",
            "blogLinks": [
                "https://www.tripoto.com/travel-guide/bellary/places-to-visit"
            ],
            "longitude": "77.5927317",
            "closest_to": "bellary",
            "latitude": "12.9429538",
            "address": "Masjid Abu Bakr (RAA), 3rd Cross Road, Pukraj Layout, Someshwaranagar, Bengaluru, Bangalore Urban, Karnataka, 560001, India"
        },
        "tungabhadra river": {
            "locType": "river",
            "blogLinks": [
                "http://www.nivalink.com/destination/hampi",
                "https://www.tripoto.com/travel-guide/bellary/places-to-visit"
            ],
            "longitude": "76.4931607",
            "closest_to": "thirthahalli",
            "latitude": "15.3446123",
            "address": "Tungabhadra, Gangavati taluku, Koppal district, Karnataka, India"
        },
        "taranagara": {
            "locType": "village",
            "blogLinks": [
                "http://www.indiatravelblog.com/resources/3597-Visiting-Places-Sandur-Bellary-Karnataka.aspx"
            ],
            "longitude": "76.6066284",
            "closest_to": "thirthahalli",
            "latitude": "15.1317009",
            "address": "Taranagara, Sanduru taluk, Bellary district, Karnataka, India"
        },
        "karnataka": {
            "locType": "atm",
            "blogLinks": [
                "https://www.tripoto.com/travel-guide/bellary/places-to-visit",
                "http://www.ticketgoose.com/bus-tickets/bellary-to-thirthahalli",
                "http://www.ticketgoose.com/bus-tickets/thoranagatte-to-thirthahalli",
                "http://www.distancesfrom.com/in/flight-distance-from-Shimoga-to-Kollur/FlightHistory/33418864.aspx",
                "http://www.distancesfrom.com/in/travel-from-Shimoga-to-Kollur-via-Thirthahalli/TravelFromHistory/33418864.aspx",
                "http://www.karnatakatourism.org/",
                "http://www.distancesfrom.com/distance-from-Bellary-to-Thirthahalli/DistanceHistory/352430.aspx",
                "http://www.distancesfrom.com/in/map-from-Bellary-to-Bellary-via-Chitradurga-Shimoga-Thirthahalli/MapHistory/15971562.aspx",
                "http://karnatakatour.info/category/best-tourist-places-in-karnataka/page/4/",
                "http://www.nivalink.com/destination/hampi",
                "http://www.nivalink.com/destination/thirthahalli",
                "https://en.wikipedia.org/wiki/Bellary",
                "http://www.indiatravelblog.com/resources/3597-Visiting-Places-Sandur-Bellary-Karnataka.aspx",
                "http://wikitravel.org/en/Shimoga",
                "http://www.distancesfrom.com/in/how-far-is-Kollur-from-Shimoga-via-Thirthahalli/HowFarHistory/33418864.aspx",
                "http://www.mapsofindia.com/karnataka/tourism/",
                "http://www.mapsofindia.com/maps/karnataka/"
            ],
            "longitude": "76.6639936",
            "closest_to": "thirthahalli",
            "latitude": "12.3084901",
            "address": "Karnataka, Shalivahana Road, Nazarbad, Mysuru, Mysuru taluk, Mysuru district, Karnataka, 570001, India"
        },
        "river tunga": {
            "locType": "river",
            "blogLinks": [
                "http://www.ticketgoose.com/bus-tickets/bellary-to-thirthahalli",
                "http://www.ticketgoose.com/bus-tickets/thoranagatte-to-thirthahalli"
            ],
            "longitude": "75.3221835",
            "closest_to": "thirthahalli",
            "latitude": "13.6632221",
            "address": "Tunga, Tirthahalli taluk, Shimoga district, Karnataka, India"
        },
        "davangere": {
            "locType": "commercial",
            "blogLinks": [
                "http://www.ticketgoose.com/bus-tickets/thoranagatte-to-thirthahalli"
            ],
            "longitude": "75.9197507909343",
            "closest_to": "thirthahalli",
            "latitude": "14.4664457",
            "address": "Davangere City Corporation Offices, K.B. Extension, Davanagere, Davanagere taluku, Davanagere district, Karnataka, 577000, India"
        },
        "pune": {
            "locType": "trunk",
            "blogLinks": [
                "http://www.ticketgoose.com/bus-tickets/bellary-to-thirthahalli",
                "https://en.wikipedia.org/wiki/Bellary"
            ],
            "longitude": "76.9479122",
            "closest_to": "bellary",
            "latitude": "17.8199745",
            "address": "Pune - Machilipatnam Highway, Kaudiyala, Basavakalyana taluku, Bidar district, Karnataka, India"
        },
        "malnad": {
            "locType": "hospital",
            "blogLinks": [
                "http://www.nivalink.com/destination/thirthahalli"
            ],
            "longitude": "75.7715495",
            "closest_to": "thirthahalli",
            "latitude": "13.3160351",
            "address": "Malnad Hospital, Mudigere-Kadur Road, Chikkamagaluru, Chikkamagaluru taluku, Chikkamagaluru district, Karnataka, 577101, India"
        },
        "toranagallu": {
            "locType": "village",
            "blogLinks": [
                "https://en.wikipedia.org/wiki/Bellary"
            ],
            "longitude": "76.6780987",
            "closest_to": "thirthahalli",
            "latitude": "15.1959663",
            "address": "Toranagallu, Sanduru taluk, Bellary district, Karnataka, 583123, India"
        },
        "kr hills": {
            "locType": "bus_stop",
            "blogLinks": [
                "http://www.indiatravelblog.com/resources/3597-Visiting-Places-Sandur-Bellary-Karnataka.aspx"
            ],
            "longitude": "77.5461096",
            "closest_to": "bellary",
            "latitude": "12.9069945",
            "address": "KR Hospital, Dr. Vishnuvardhan Road, Seven Hills Layout, Chikkalasandra, Bengaluru, Bangalore Urban, Karnataka, 560001, India"
        },
        "chandragiri": {
            "locType": "peak",
            "blogLinks": [
                "https://www.tripoto.com/travel-guide/bellary/places-to-visit"
            ],
            "longitude": "76.4878052",
            "closest_to": "thirthahalli",
            "latitude": "12.8617132",
            "address": "Chandragiri, Channarayapattana taluk, Hassan district, Karnataka, India"
        },
        "vijayanagara": {
            "locType": "village",
            "blogLinks": [
                "https://en.wikipedia.org/wiki/Bellary",
                "http://www.nivalink.com/destination/hampi"
            ],
            "longitude": "74.7380455",
            "closest_to": "bellary",
            "latitude": "16.3270486",
            "address": "Vijayanagara, Chikodi taluk, Belgaum district, Karnataka, India"
        },
        "soraba": {
            "locType": "village",
            "blogLinks": [
                "http://wikitravel.org/en/Shimoga"
            ],
            "longitude": "75.0921749",
            "closest_to": "thirthahalli",
            "latitude": "14.3794806",
            "address": "Soraba, Soraba taluk, Shimoga district, Karnataka, 577429, India"
        },
        "kannur": {
            "locType": "construction",
            "blogLinks": [
                "http://www.nivalink.com/destination/thirthahalli"
            ],
            "longitude": "74.8858161",
            "closest_to": "thirthahalli",
            "latitude": "12.8487602",
            "address": "Netravati bridge - Kannur Bypass Road (Proposed), Padil, Bajal, Mangaluru taluk, Dakshina Kannada, Karnataka, 575007, India"
        },
        "sagar": {
            "locType": "town",
            "blogLinks": [
                "http://wikitravel.org/en/Shimoga"
            ],
            "longitude": "75.0262551",
            "closest_to": "thirthahalli",
            "latitude": "14.1666594",
            "address": "Sagara, Sagara taluk, Shimoga district, Karnataka, 577400, India"
        },
        "oxford": {
            "locType": "books",
            "blogLinks": [
                "https://en.wikipedia.org/wiki/Bellary"
            ],
            "longitude": "77.7178402",
            "closest_to": "bellary",
            "latitude": "12.9660236",
            "address": "Oxford, I T P L Main Road, Kundalahalli Colony, AECS Layout, Sitaramapalya, Bangalore Urban, Karnataka, 560048, India"
        },
        "durga temple": {
            "locType": "place_of_worship",
            "blogLinks": [
                "https://www.tripoto.com/travel-guide/bellary/places-to-visit"
            ],
            "longitude": "77.6125928",
            "closest_to": "bellary",
            "latitude": "12.9057731",
            "address": "Durga Temple, 29th Main, Mahadeshwara Nagara, BTM Layout, Bengaluru, Bangalore Urban, Karnataka, 560001, India"
        },
        "north kerala": {
            "locType": "restaurant",
            "blogLinks": [
                "http://www.nivalink.com/destination/thirthahalli"
            ],
            "longitude": "77.6382683",
            "closest_to": "bellary",
            "latitude": "12.9726449",
            "address": "New Life Kerala Mess, Sai Baba Mandira Road, Mottappanapalaya, Indiranagar, Bengaluru, Bangalore Urban, Karnataka, 560001, India"
        }
    },
    "thirthahalli": {
        "osm_id": "374064965",
        "licence": "Data \u00a9 OpenStreetMap contributors, ODbL 1.0. http://www.openstreetmap.org/copyright",
        "osm_type": "way",
        "importance": 0.3,
        "lat": "13.4265327",
        "place_id": "146734997",
        "display_name": "Thirthahalli - Udupi Highway, Shivapura, Karkala taluk, Udupi district, Karnataka, India",
        "class": "highway",
        "boundingbox": [
            "13.4262888",
            "13.4265327",
            "74.9623428",
            "74.9626368"
        ],
        "type": "trunk",
        "lon": "74.9626368"
    },
    "bellary": {
        "osm_id": "316417114",
        "display_name": "Bellary, Bellary district, Karnataka, India",
        "importance": 0.65,
        "place_id": "1393549",
        "class": "place",
        "boundingbox": [
            "14.6085413",
            "15.8885413",
            "76.1923648",
            "77.4723648"
        ],
        "type": "county",
        "lon": "76.8323648",
        "licence": "Data \u00a9 OpenStreetMap contributors, ODbL 1.0. http://www.openstreetmap.org/copyright",
        "osm_type": "node",
        "lat": "15.2485413",
        "icon": "https://nominatim.openstreetmap.org/images/mapicons/poi_boundary_administrative.p.20.png"
    }
}