{
    "bidar": {
        "lat": "18.083333",
        "class": "place",
        "importance": 0.65,
        "osm_type": "node",
        "lon": "77.333333",
        "place_id": "1400874",
        "display_name": "Bidar, Bidar district, Karnataka, India",
        "osm_id": "316417319",
        "boundingbox": [
            "17.443333",
            "18.723333",
            "76.693333",
            "77.973333"
        ],
        "type": "county",
        "licence": "Data \u00a9 OpenStreetMap contributors, ODbL 1.0. http://www.openstreetmap.org/copyright",
        "icon": "https://nominatim.openstreetmap.org/images/mapicons/poi_boundary_administrative.p.20.png"
    },
    "sakleshpur": {
        "lat": "12.9434349",
        "class": "place",
        "importance": 0.4,
        "osm_type": "node",
        "lon": "75.7862318",
        "place_id": "6499206",
        "display_name": "Sakaleshpura, Sakaleshapura taluk, Hassan district, Karnataka, 573134, India",
        "osm_id": "670593480",
        "boundingbox": [
            "12.9034349",
            "12.9834349",
            "75.7462318",
            "75.8262318"
        ],
        "type": "town",
        "licence": "Data \u00a9 OpenStreetMap contributors, ODbL 1.0. http://www.openstreetmap.org/copyright",
        "icon": "https://nominatim.openstreetmap.org/images/mapicons/poi_place_town.p.20.png"
    },
    "mentions": {
        "kamalapura": {
            "blogLinks": [
                "https://www.tripoto.com/weekend-getaways/from-sakleshpur"
            ],
            "longitude": "75.7316366",
            "address": "Kamalapura, Harihara taluku, Davanagere district, Karnataka, India",
            "latitude": "14.4449672",
            "locType": "village",
            "closest_to": "sakleshpur"
        },
        "railway station": {
            "blogLinks": [
                "https://www.tripoto.com/weekend-getaways/from-sakleshpur"
            ],
            "longitude": "77.515738",
            "address": "Railway Station, Gauribidanuru taluk, Chikkaballapura district, Karnataka, India",
            "latitude": "13.5029417",
            "locType": "village",
            "closest_to": "sakleshpur"
        },
        "river kaveri": {
            "blogLinks": [
                "https://www.tripoto.com/weekend-getaways/from-sakleshpur"
            ],
            "longitude": "77.0635531",
            "address": "Kaveri, Kollegala taluk, Chamarajanagar district, Karnataka, India",
            "latitude": "12.1687878",
            "locType": "river",
            "closest_to": "sakleshpur"
        },
        "madras": {
            "blogLinks": [
                "https://www.tripoto.com/weekend-getaways/from-sakleshpur"
            ],
            "longitude": "77.6449595",
            "address": "Swami Vivekananda Road, Swamy Vivekananda Road (Old Madras Road), Sudgunte Palya, Baiyyappanahalli, Benniganahalli, Bangalore Urban, Karnataka, 560016, India",
            "latitude": "12.9859442",
            "locType": "station",
            "closest_to": "sakleshpur"
        },
        "madurai": {
            "blogLinks": [
                "https://www.tripoto.com/weekend-getaways/from-sakleshpur"
            ],
            "longitude": "77.6320535",
            "address": "Madurai Idly Shop, 5th Main Road, Teachers Colony, HSR Layout, Bengaluru, Bangalore Urban, Karnataka, 560001, India",
            "latitude": "12.9185419",
            "locType": "restaurant",
            "closest_to": "sakleshpur"
        },
        "kumara": {
            "blogLinks": [
                "http://www.holidayiq.com/destinations/sakleshpur/"
            ],
            "longitude": "75.6865652",
            "address": "Kumara Parvatha, Somawarpet taluk, Kodagu, Karnataka, India",
            "latitude": "12.6623315",
            "locType": "peak",
            "closest_to": "sakleshpur"
        },
        "ramanagara": {
            "blogLinks": [
                "http://www.mapsofindia.com/maps/karnataka/"
            ],
            "longitude": "74.4900863",
            "address": "Ramanagara, Khanapura taluku, Belgaum district, Karnataka, India",
            "latitude": "15.422047",
            "locType": "town",
            "closest_to": "sakleshpur"
        },
        "hemavathi river": {
            "blogLinks": [
                "http://www.holidayiq.com/destinations/sakleshpur/"
            ],
            "longitude": "76.0556931",
            "address": "Hemavathi Reservoir, Hasana taluk, Hassan district, Karnataka, India",
            "latitude": "12.8267596",
            "locType": "dam",
            "closest_to": "sakleshpur"
        },
        "omkareshwara temple": {
            "blogLinks": [
                "https://www.tripoto.com/weekend-getaways/from-sakleshpur"
            ],
            "longitude": "75.741304",
            "address": "Omkareshwara Temple, Main Road, Madikeri, Madikeri taluku, Kodagu, Karnataka, India",
            "latitude": "12.420546",
            "locType": "place_of_worship",
            "closest_to": "sakleshpur"
        },
        "srirangapattana": {
            "blogLinks": [
                "http://www.holidayiq.com/destinations/sakleshpur/"
            ],
            "longitude": "76.703932434547",
            "address": "Srirangapattana taluk, Mandya district, Karnataka, India",
            "latitude": "12.40148225",
            "locType": "administrative",
            "closest_to": "sakleshpur"
        },
        "pampa": {
            "blogLinks": [
                "https://www.tripoto.com/weekend-getaways/from-sakleshpur"
            ],
            "longitude": "77.5719518",
            "address": "Pampa Mahakavi Road, Ranasingpet, Kalasipalya, Bengaluru, Bangalore Urban, Karnataka, 560001, India",
            "latitude": "12.9581179",
            "locType": "secondary",
            "closest_to": "sakleshpur"
        },
        "karanji lake": {
            "blogLinks": [
                "http://blog.indianluxurytrains.com/2014/09/best-places-to-visit-in-karnataka.html"
            ],
            "longitude": "77.5474867",
            "address": "Karanji, Aurad taluku, Bidar district, Karnataka, India",
            "latitude": "18.2681849",
            "locType": "village",
            "closest_to": "bidar"
        },
        "chennai": {
            "blogLinks": [
                "https://www.makemytrip.com/holidays-india/places-to-visit-bidar.html",
                "https://www.tripoto.com/weekend-getaways/from-sakleshpur"
            ],
            "longitude": "80.2197941",
            "address": "Karnataka Bank, Postal Colony 2nd Street, Postal Colony, Ashok Nagar, Chennai City Corporation Limits, Chennai district, Tamil Nadu, 600033, India",
            "latitude": "13.0365141",
            "locType": "bank",
            "closest_to": "sakleshpur"
        },
        "tamil nadu": {
            "blogLinks": [
                "http://www.thrillophilia.com/blog/20-places-you-need-to-visit-in-india-with-your-best-friend/",
                "https://www.tripoto.com/weekend-getaways/from-sakleshpur",
                "http://www.mapsofindia.com/maps/karnataka/"
            ],
            "longitude": "76.9514152",
            "address": "KARNATAKA BANK, Diwan Bhadur Road, Five Corner, RS Puram, Coimbatore, Coimbatore district, Tamil Nadu, 641001, India",
            "latitude": "11.0025894",
            "locType": "bank",
            "closest_to": "sakleshpur"
        },
        "annapoorna": {
            "blogLinks": [
                "https://www.mekanagadde.com/tourist-places-nearby-to-visit/"
            ],
            "longitude": "74.7952585267652",
            "address": "Annapoorna, Malpe - Manipal Road, End Point, Manipal, Udupi taluku, Udupi district, Karnataka, 576102, India",
            "latitude": "13.3434791",
            "locType": "yes",
            "closest_to": "sakleshpur"
        },
        "prince restaurant": {
            "blogLinks": [
                "https://www.tripoto.com/weekend-getaways/from-sakleshpur"
            ],
            "longitude": "76.4602348",
            "address": "Prince, Hampi Bazaar, Hampe, Hosapete taluk, Bellary district, Karnataka, 583239, India",
            "latitude": "15.3355701",
            "locType": "restaurant",
            "closest_to": "sakleshpur"
        },
        "ganapathi": {
            "blogLinks": [
                "https://www.mekanagadde.com/tourist-places-nearby-to-visit/"
            ],
            "longitude": "77.6297861",
            "address": "Ganapathi, 4th Cross Road, MSO Colony, Cooke Town, Bengaluru, Bangalore Urban, Karnataka, 560001, India",
            "latitude": "13.0015272",
            "locType": "clockmaker",
            "closest_to": "sakleshpur"
        },
        "new delhi": {
            "blogLinks": [
                "https://www.makemytrip.com/holidays-india/places-to-visit-bidar.html"
            ],
            "longitude": "76.6142178649055",
            "address": "Regional Institute of Education, Chaduranga Road, Jayalakshmipuram, Mysuru, Mysuru taluk, Mysuru district, Karnataka, 570001, India",
            "latitude": "12.30911465",
            "locType": "college",
            "closest_to": "sakleshpur"
        },
        "dubai": {
            "blogLinks": [
                "https://www.yatra.com/india-tourism/bidar-travel-guide"
            ],
            "longitude": "77.6067717",
            "address": "Dubai Plaza, Rest House Road, Shantala Nagar, Ashok Nagar, Bengaluru, Bangalore Urban, Karnataka, 560001, India",
            "latitude": "12.9737065",
            "locType": "gift",
            "closest_to": "sakleshpur"
        },
        "chelavara falls": {
            "blogLinks": [
                "http://blog.indianluxurytrains.com/2014/09/best-places-to-visit-in-karnataka.html"
            ],
            "longitude": "75.6734811730693",
            "address": "Chelavara Falls, Madikeri taluku, Kodagu, Karnataka, India",
            "latitude": "12.20601005",
            "locType": "waterfall",
            "closest_to": "sakleshpur"
        },
        "dakshina kannada": {
            "blogLinks": [
                "http://www.holidayiq.com/destinations/sakleshpur/",
                "https://www.tripoto.com/weekend-getaways/from-sakleshpur",
                "http://www.mapsofindia.com/maps/karnataka/"
            ],
            "longitude": "75.1008028650794",
            "address": "Dakshina Kannada, Karnataka, India",
            "latitude": "12.8114089",
            "locType": "administrative",
            "closest_to": "sakleshpur"
        },
        "halebid": {
            "blogLinks": [
                "http://blog.indianluxurytrains.com/2014/09/best-places-to-visit-in-karnataka.html"
            ],
            "longitude": "75.9918793",
            "address": "Halebidu, Beluru taluk, Hassan district, Karnataka, 573121, India",
            "latitude": "13.2167959",
            "locType": "village",
            "closest_to": "sakleshpur"
        },
        "river krishna": {
            "blogLinks": [
                "https://www.thrillophilia.com/places-to-visit-in-hyderabad"
            ],
            "longitude": "77.0529845",
            "address": "Krishna, Shahapura taluku, Yadagiri district, Karnataka, India",
            "latitude": "16.5209569",
            "locType": "river",
            "closest_to": "sakleshpur"
        },
        "kumarakom": {
            "blogLinks": [
                "https://www.makemytrip.com/holidays-india/places-to-visit-bidar.html"
            ],
            "longitude": "77.6382858",
            "address": "Kumarakom, 23, 15th Cross Road, Sector 4, HSR Layout, Bengaluru, Bangalore Urban, Karnataka, 560102, India",
            "latitude": "12.9143715",
            "locType": "restaurant",
            "closest_to": "sakleshpur"
        },
        "maragunda": {
            "blogLinks": [
                "http://www.holidayiq.com/destinations/sakleshpur/"
            ],
            "longitude": "75.6201653",
            "address": "Maragunda, Sakaleshapura taluk, Hassan district, Karnataka, India",
            "latitude": "12.9867236",
            "locType": "village",
            "closest_to": "sakleshpur"
        },
        "bidar fort": {
            "blogLinks": [
                "https://www.yatra.com/india-tourism/bidar-travel-guide",
                "https://www.thrillophilia.com/places-to-visit-in-hyderabad"
            ],
            "longitude": "77.5265890380672",
            "address": "Bidar Fort, Qila Road, Multani Colony, Old City, Bidar, Bidar taluku, Bidar district, Karnataka, 585400, India",
            "latitude": "17.92480435",
            "locType": "castle",
            "closest_to": "sakleshpur"
        },
        "cochin view": {
            "blogLinks": [
                "https://www.makemytrip.com/holidays-india/places-to-visit-bidar.html"
            ],
            "longitude": "74.8390919",
            "address": "Cochin Bakery, Old Kent Road, Pandeshwar, Attavar, Mangaluru, Mangaluru taluk, Dakshina Kannada, Karnataka, 575001, India",
            "latitude": "12.8604752",
            "locType": "confectionery",
            "closest_to": "sakleshpur"
        },
        "srinagar": {
            "blogLinks": [
                "https://www.makemytrip.com/holidays-india/places-to-visit-bidar.html"
            ],
            "longitude": "77.5541768",
            "address": "Srinagar, Bengaluru, Bangalore Urban, Karnataka, 560001, India",
            "latitude": "12.9438817",
            "locType": "suburb",
            "closest_to": "sakleshpur"
        },
        "ooty": {
            "blogLinks": [
                "https://www.tripoto.com/weekend-getaways/from-sakleshpur"
            ],
            "longitude": "76.6586807",
            "address": "Ooty Road, Vidyaranyapuram, Mysuru, Mysuru taluk, Mysuru district, Karnataka, 570001, India",
            "latitude": "12.2774807",
            "locType": "primary",
            "closest_to": "sakleshpur"
        },
        "garden city": {
            "blogLinks": [
                "https://www.tripoto.com/weekend-getaways/from-sakleshpur"
            ],
            "longitude": "80.2197941",
            "address": "Karnataka Bank, Postal Colony 2nd Street, Postal Colony, Ashok Nagar, Chennai City Corporation Limits, Chennai district, Tamil Nadu, 600033, India",
            "latitude": "13.0365141",
            "locType": "bank",
            "closest_to": "sakleshpur"
        },
        "ramappa lake": {
            "blogLinks": [
                "https://www.thrillophilia.com/places-to-visit-in-hyderabad"
            ],
            "longitude": "77.5800418",
            "address": "Ramappa Layout, Puttenahalli, Bengaluru, Bangalore Urban, Karnataka, 560001, India",
            "latitude": "12.8971719",
            "locType": "neighbourhood",
            "closest_to": "sakleshpur"
        },
        "kannada": {
            "blogLinks": [
                "https://www.mekanagadde.com/tourist-places-nearby-to-visit/"
            ],
            "longitude": "75.1008028650794",
            "address": "Dakshina Kannada, Karnataka, India",
            "latitude": "12.8114089",
            "locType": "administrative",
            "closest_to": "sakleshpur"
        },
        "botanical gardens": {
            "blogLinks": [
                "https://www.tripoto.com/weekend-getaways/from-sakleshpur"
            ],
            "longitude": "77.5744817798899",
            "address": "Botanical Garden, Cart road, Judicial Layout, Jakkur, Bangalore Urban, Karnataka, 560065, India",
            "latitude": "13.08099125",
            "locType": "protected_area",
            "closest_to": "sakleshpur"
        },
        "bengal": {
            "blogLinks": [
                "https://www.tripoto.com/weekend-getaways/from-sakleshpur"
            ],
            "longitude": "77.7517038151245",
            "address": "Bengal Lamps, Konadasapura, Bangalore Urban, Karnataka, 560066, India",
            "latitude": "13.0492646",
            "locType": "industrial",
            "closest_to": "sakleshpur"
        },
        "khandala": {
            "blogLinks": [
                "https://www.thrillophilia.com/places-to-visit-in-hyderabad"
            ],
            "longitude": "76.4955579",
            "address": "Khandala, Alanda taluku, Kalaburagi district, Karnataka, India",
            "latitude": "17.6885519",
            "locType": "village",
            "closest_to": "sakleshpur"
        },
        "padmavati": {
            "blogLinks": [
                "https://www.thrillophilia.com/places-to-visit-in-hyderabad"
            ],
            "longitude": "75.1103816",
            "address": "Padmavati Auto Gas, Gokul Road / Airport Road, Dollars Colony, Padmaraj Nagar, Hubballi - \u0cb9\u0cc1\u0cac\u0ccd\u0cac\u0cb3\u0ccd\u0cb3\u0cbf, Hubballi taluku, Dharwad district, Karnataka, 580020, India",
            "latitude": "15.3506616",
            "locType": "fuel",
            "closest_to": "sakleshpur"
        },
        "gadag": {
            "blogLinks": [
                "http://www.mapsofindia.com/maps/karnataka/"
            ],
            "longitude": "75.6300786",
            "address": "Gadag, Gadag taluk, Gadag district, Karnataka, 582101, India",
            "latitude": "15.4263647",
            "locType": "town",
            "closest_to": "sakleshpur"
        },
        "nagarhole national park": {
            "blogLinks": [
                "http://blog.indianluxurytrains.com/2014/09/best-places-to-visit-in-karnataka.html"
            ],
            "longitude": "76.1537073415874",
            "address": "Nagarahole National Park, Virajpet taluk, Kodagu, Karnataka, India",
            "latitude": "12.0600362",
            "locType": "national_park",
            "closest_to": "sakleshpur"
        },
        "virupaksha temple": {
            "blogLinks": [
                "https://www.thrillophilia.com/places-to-visit-in-hyderabad"
            ],
            "longitude": "76.4587777156223",
            "address": "Virupaksha Temple, Hampi Bazaar, Hampe, Hosapete taluk, Bellary district, Karnataka, 583239, India",
            "latitude": "15.3351754",
            "locType": "place_of_worship",
            "closest_to": "sakleshpur"
        },
        "narasimha temple": {
            "blogLinks": [
                "https://www.thrillophilia.com/places-to-visit-in-hyderabad"
            ],
            "longitude": "75.0059062005908",
            "address": "Narasimha Temple, Station Road, Kalyana nagar, Gandhinagar, Dharwad, Dharawada taluku, Dharwad district, Karnataka, 580001, India",
            "latitude": "15.44361305",
            "locType": "place_of_worship",
            "closest_to": "sakleshpur"
        },
        "pink city": {
            "blogLinks": [
                "http://www.thrillophilia.com/blog/20-places-you-need-to-visit-in-india-with-your-best-friend/"
            ],
            "longitude": "77.6563564",
            "address": "Neeladri Road, Electronics City Phase 1, Doddathoguru, Bangalore Urban, Karnataka, 560100, India",
            "latitude": "12.8378867",
            "locType": "bench",
            "closest_to": "sakleshpur"
        },
        "sakaleshpura": {
            "blogLinks": [
                "http://www.holidayiq.com/destinations/sakleshpur/"
            ],
            "longitude": "75.7862318",
            "address": "Sakaleshpura, Sakaleshapura taluk, Hassan district, Karnataka, 573134, India",
            "latitude": "12.9434349",
            "locType": "town",
            "closest_to": "sakleshpur"
        },
        "bidar": {
            "blogLinks": [
                "https://www.makemytrip.com/holidays-india/places-to-visit-bidar.html"
            ],
            "longitude": "77.333333",
            "address": "Bidar, Bidar district, Karnataka, India",
            "latitude": "18.083333",
            "locType": "county",
            "closest_to": "bidar"
        },
        "ashoka road": {
            "blogLinks": [
                "http://www.holidayiq.com/destinations/sakleshpur/"
            ],
            "longitude": "77.6198454",
            "address": "Ashoka Road, Richards Town, St Thomastown, Bengaluru, Bangalore Urban, Karnataka, 560001, India",
            "latitude": "13.0033073",
            "locType": "residential",
            "closest_to": "sakleshpur"
        },
        "coimbatore": {
            "blogLinks": [
                "https://www.makemytrip.com/holidays-india/places-to-visit-bidar.html",
                "https://www.tripoto.com/weekend-getaways/from-sakleshpur"
            ],
            "longitude": "76.6318246",
            "address": "Gundlupet - Coimbatore Highway, Bandipur, Gundlupet taluk, Chamarajanagar district, Karnataka, India",
            "latitude": "11.6793976",
            "locType": "trunk",
            "closest_to": "sakleshpur"
        },
        "raja seat": {
            "blogLinks": [
                "https://www.tripoto.com/weekend-getaways/from-sakleshpur"
            ],
            "longitude": "75.7369653316478",
            "address": "Raja Seat, Mahatma Gandhi Road, Madikeri, Madikeri taluku, Kodagu, Karnataka, India",
            "latitude": "12.41421975",
            "locType": "park",
            "closest_to": "sakleshpur"
        },
        "kukke": {
            "blogLinks": [
                "http://www.holidayiq.com/destinations/sakleshpur/"
            ],
            "longitude": "75.3076538",
            "address": "Kukke, Tirthahalli taluk, Shimoga district, Karnataka, India",
            "latitude": "13.7523964",
            "locType": "village",
            "closest_to": "sakleshpur"
        },
        "chamarajanagar": {
            "blogLinks": [
                "http://www.mapsofindia.com/maps/karnataka/"
            ],
            "longitude": "76.9331345",
            "address": "Chamarajanagar, Nanjangudu-Chamarajanagar Road, Kadahalli, Chamarajanagara taluk, Chamarajanagar district, Karnataka, 571313, India",
            "latitude": "11.9346624",
            "locType": "station",
            "closest_to": "sakleshpur"
        },
        "sikkim": {
            "blogLinks": [
                "http://www.thrillophilia.com/blog/20-places-you-need-to-visit-in-india-with-your-best-friend/"
            ],
            "longitude": "77.6704479",
            "address": "Sikkim Manipal University, Sarjapur Road, Devarabisanahalli, Bellandur, Doddakannelli, Bangalore Urban, Karnataka, 560035, India",
            "latitude": "12.9185721",
            "locType": "yes",
            "closest_to": "sakleshpur"
        },
        "lucknow": {
            "blogLinks": [
                "http://www.thrillophilia.com/blog/20-places-you-need-to-visit-in-india-with-your-best-friend/"
            ],
            "longitude": "77.5660503",
            "address": "Via Lucknow, New BEL Road, Dollar Colony, Raj Mahal Vilas, Jaladarshini Layout, Bangalore Urban, Karnataka, 560094, India",
            "latitude": "13.0367811",
            "locType": "restaurant",
            "closest_to": "sakleshpur"
        },
        "uttara kannada": {
            "blogLinks": [
                "http://www.hoparoundindia.com/karnataka/attractions/bidar.aspx"
            ],
            "longitude": "74.4729163045979",
            "address": "Uttara Kannada, Karnataka, India",
            "latitude": "14.6726379",
            "locType": "administrative",
            "closest_to": "sakleshpur"
        },
        "mecca": {
            "blogLinks": [
                "https://www.thrillophilia.com/places-to-visit-in-hyderabad"
            ],
            "longitude": "77.5509669",
            "address": "masjid e mecca, 7th cross padarayana pura, Hosahalli Main Road, Rajajinagar 6th Block, Goripalya, Bengaluru, Bangalore Urban, Karnataka, 560001, India",
            "latitude": "12.9618838",
            "locType": "place_of_worship",
            "closest_to": "sakleshpur"
        },
        "nelamangala": {
            "blogLinks": [
                "http://www.holidayiq.com/How-To-Reach/From-Bangalore-To-Sakleshpur-293-628"
            ],
            "longitude": "77.3963586",
            "address": "Nelamangala, Nelamangala taluk, Bangalore Rural, Karnataka, India",
            "latitude": "13.0953024",
            "locType": "town",
            "closest_to": "sakleshpur"
        },
        "emerald lake": {
            "blogLinks": [
                "https://www.tripoto.com/weekend-getaways/from-sakleshpur"
            ],
            "longitude": "77.8188013",
            "address": "Emerald Isle Resort, NH75, Lakshmisagara, Kolar taluk, Kolar district, Karnataka, 563133, India",
            "latitude": "13.0833534",
            "locType": "hotel",
            "closest_to": "sakleshpur"
        },
        "venkataramana temple": {
            "blogLinks": [
                "http://blog.indianluxurytrains.com/2014/09/best-places-to-visit-in-karnataka.html"
            ],
            "longitude": "77.6895365754579",
            "address": "Venkataramana Temple, 20th Cross Road, Anantnagar, Sampige Nagara, Bangalore Urban, Karnataka, 560099, India",
            "latitude": "12.8380349",
            "locType": "place_of_worship",
            "closest_to": "sakleshpur"
        },
        "puducherry": {
            "blogLinks": [
                "http://www.thrillophilia.com/blog/20-places-you-need-to-visit-in-india-with-your-best-friend/"
            ],
            "longitude": "79.831569",
            "address": "Karnataka Bank, Mission Street, Grand Bazaar, Puducherry, Puducherry district, Puducherry, 605001, India",
            "latitude": "11.9365727",
            "locType": "bank",
            "closest_to": "sakleshpur"
        },
        "california": {
            "blogLinks": [
                "https://www.makemytrip.com/holidays-india/places-to-visit-bidar.html"
            ],
            "longitude": "77.640789",
            "address": "California Pizza Kitchen, 10th Main Road, Indiranagar 2nd Stage, Indiranagar, Bengaluru, Bangalore Urban, Karnataka, 560001, India",
            "latitude": "12.9759858",
            "locType": "restaurant",
            "closest_to": "sakleshpur"
        },
        "hampi": {
            "blogLinks": [
                "http://blog.indianluxurytrains.com/2014/09/best-places-to-visit-in-karnataka.html",
                "https://www.tripoto.com/weekend-getaways/from-sakleshpur"
            ],
            "longitude": "76.4606199",
            "address": "Hampe, Hosapete taluk, Bellary district, Karnataka, 583239, India",
            "latitude": "15.3359769",
            "locType": "village",
            "closest_to": "sakleshpur"
        },
        "koppal": {
            "blogLinks": [
                "https://www.thrillophilia.com/places-to-visit-in-hyderabad",
                "http://www.mapsofindia.com/maps/karnataka/"
            ],
            "longitude": "76.1547421",
            "address": "Koppala, Koppala taluku, Koppal district, Karnataka, 583231, India",
            "latitude": "15.3484144",
            "locType": "town",
            "closest_to": "sakleshpur"
        },
        "harangi dam": {
            "blogLinks": [
                "http://blog.indianluxurytrains.com/2014/09/best-places-to-visit-in-karnataka.html"
            ],
            "longitude": "75.9056999171375",
            "address": "Harangi dam, Somawarpet taluk, Kodagu, Karnataka, India",
            "latitude": "12.4928663",
            "locType": "dam",
            "closest_to": "sakleshpur"
        },
        "chikmagalur": {
            "blogLinks": [
                "https://www.mekanagadde.com/tourist-places-nearby-to-visit/",
                "https://www.mekanagadde.com/benefits-of-staying-at-a-homestay-in-chikmagalur-sakleshpur/",
                "https://www.mekanagadde.com/take-the-trekking-trail-in-the-western-ghats/"
            ],
            "longitude": "75.5",
            "address": "Chikmagalur, Chikkamagaluru district, Karnataka, India",
            "latitude": "13.5",
            "locType": "county",
            "closest_to": "sakleshpur"
        },
        "west": {
            "blogLinks": [
                "http://www.thrillophilia.com/blog/20-places-you-need-to-visit-in-india-with-your-best-friend/"
            ],
            "longitude": "77.5960999",
            "address": "w, Balmuri Main Road, Hulimavu,, Bannerghatta Road, Mico Arekere Layout 1st Stage, Hulimavu, Bengaluru, Bangalore Urban, Karnataka, 560076, India",
            "latitude": "12.8759384",
            "locType": "clothes",
            "closest_to": "sakleshpur"
        },
        "andhra pradesh": {
            "blogLinks": [
                "http://www.thrillophilia.com/blog/20-places-you-need-to-visit-in-india-with-your-best-friend/",
                "https://www.thrillophilia.com/places-to-visit-in-hyderabad",
                "http://www.mapsofindia.com/maps/karnataka/"
            ],
            "longitude": "79.3452447",
            "address": "Karnataka, West Mada Street, Srivari Temple, Tirumala, Chittoor, Andhra Pradesh, 517504, India",
            "latitude": "13.6841958",
            "locType": "hotel",
            "closest_to": "sakleshpur"
        },
        "singapore": {
            "blogLinks": [
                "https://www.yatra.com/india-tourism/bidar-travel-guide"
            ],
            "longitude": "77.5483703",
            "address": "Singapore Gardens, Vajrahalli, Bengaluru, Bangalore Urban, Karnataka, 560001, India",
            "latitude": "12.8861812",
            "locType": "neighbourhood",
            "closest_to": "sakleshpur"
        },
        "yeshwanthpur": {
            "blogLinks": [
                "http://www.holidayiq.com/destinations/sakleshpur/"
            ],
            "longitude": "77.5451161845771",
            "address": "Yeshwanthpur Yard market, Shankarnagar Main Road, Goragunte Palya, Nandini Layout, Bengaluru, Bangalore Urban, Karnataka, 560001, India",
            "latitude": "13.0159579",
            "locType": "marketplace",
            "closest_to": "sakleshpur"
        },
        "delhi": {
            "blogLinks": [
                "http://blog.indianluxurytrains.com/2014/09/best-places-to-visit-in-karnataka.html",
                "http://www.thrillophilia.com/blog/20-places-you-need-to-visit-in-india-with-your-best-friend/",
                "https://www.makemytrip.com/holidays-india/places-to-visit-bidar.html"
            ],
            "longitude": "77.6666062",
            "address": "Outer Ring Road, Green Glen Layout, Iblur, Bengaluru, Bangalore Urban, Karnataka, 560001, India",
            "latitude": "12.9212473",
            "locType": "trunk",
            "closest_to": "sakleshpur"
        },
        "brahmagiri peak": {
            "blogLinks": [
                "https://www.tripoto.com/weekend-getaways/from-sakleshpur"
            ],
            "longitude": "75.490746",
            "address": "Brahmagiri, Madikeri taluku, Kodagu, Karnataka, India",
            "latitude": "12.3868578",
            "locType": "peak",
            "closest_to": "sakleshpur"
        },
        "railway museum": {
            "blogLinks": [
                "http://blog.indianluxurytrains.com/2014/09/best-places-to-visit-in-karnataka.html"
            ],
            "longitude": "77.6182271274845",
            "address": "Bangalore East Railway Station, Cox Town, Bengaluru, Bangalore Urban, Karnataka, 560001, India",
            "latitude": "13.001147",
            "locType": "railway",
            "closest_to": "sakleshpur"
        },
        "channarayapattana": {
            "blogLinks": [
                "http://www.holidayiq.com/How-To-Reach/From-Bangalore-To-Sakleshpur-293-628"
            ],
            "longitude": "76.3895641",
            "address": "Channarayapattana, Channarayapattana taluk, Hassan district, Karnataka, 573116, India",
            "latitude": "12.9068769",
            "locType": "town",
            "closest_to": "sakleshpur"
        },
        "lal bagh": {
            "blogLinks": [
                "https://www.tripoto.com/weekend-getaways/from-sakleshpur"
            ],
            "longitude": "74.8386152",
            "address": "Lal Bagh Bus Stop, Mahatma Gandhi Road, Lalbagh, Ladyhill, Mangaluru, Mangaluru taluk, Dakshina Kannada, Karnataka, 575001, India",
            "latitude": "12.8859223",
            "locType": "bus_stop",
            "closest_to": "sakleshpur"
        },
        "tungabhadra river": {
            "blogLinks": [
                "https://www.tripoto.com/weekend-getaways/from-sakleshpur"
            ],
            "longitude": "76.4931607",
            "address": "Tungabhadra, Gangavati taluku, Koppal district, Karnataka, India",
            "latitude": "15.3446123",
            "locType": "river",
            "closest_to": "sakleshpur"
        },
        "goa": {
            "blogLinks": [
                "http://www.holidayiq.com/destinations/sakleshpur/",
                "https://www.tripoto.com/weekend-getaways/from-sakleshpur",
                "https://www.thrillophilia.com/places-to-visit-in-hyderabad"
            ],
            "longitude": "77.6200027",
            "address": "Carnival De Goa, Bhaskaran Road, Gupta Layout, Halasuru, Bengaluru, Bangalore Urban, Karnataka, 560001, India",
            "latitude": "12.9750047",
            "locType": "restaurant",
            "closest_to": "sakleshpur"
        },
        "iruppu falls": {
            "blogLinks": [
                "https://www.tripoto.com/weekend-getaways/from-sakleshpur"
            ],
            "longitude": "75.9839484",
            "address": "Iruppu Falls, SH89, Taila, Virajpet taluk, Kodagu, Karnataka, 571217, India",
            "latitude": "11.9667954",
            "locType": "attraction",
            "closest_to": "sakleshpur"
        },
        "cochin": {
            "blogLinks": [
                "https://www.makemytrip.com/holidays-india/places-to-visit-bidar.html"
            ],
            "longitude": "74.8390919",
            "address": "Cochin Bakery, Old Kent Road, Pandeshwar, Attavar, Mangaluru, Mangaluru taluk, Dakshina Kannada, Karnataka, 575001, India",
            "latitude": "12.8604752",
            "locType": "confectionery",
            "closest_to": "sakleshpur"
        },
        "malnad": {
            "blogLinks": [
                "http://www.thrillophilia.com/blog/20-places-you-need-to-visit-in-india-with-your-best-friend/",
                "http://www.holidayiq.com/destinations/sakleshpur/",
                "https://www.mekanagadde.com/take-the-trekking-trail-in-the-western-ghats/"
            ],
            "longitude": "75.7715495",
            "address": "Malnad Hospital, Mudigere-Kadur Road, Chikkamagaluru, Chikkamagaluru taluku, Chikkamagaluru district, Karnataka, 577101, India",
            "latitude": "13.3160351",
            "locType": "hospital",
            "closest_to": "sakleshpur"
        },
        "kurnool": {
            "blogLinks": [
                "https://www.thrillophilia.com/places-to-visit-in-hyderabad"
            ],
            "longitude": "77.4217916",
            "address": "Karnataka Guest House, Jadcherla - Hagari Road, Kurnool, Andhra Pradesh, India",
            "latitude": "15.9394081",
            "locType": "hotel",
            "closest_to": "sakleshpur"
        },
        "hampi bazaar": {
            "blogLinks": [
                "https://www.tripoto.com/weekend-getaways/from-sakleshpur"
            ],
            "longitude": "76.4621571",
            "address": "Hampi Bazaar, Hampe, Hosapete taluk, Bellary district, Karnataka, 583239, India",
            "latitude": "15.3347585",
            "locType": "unclassified",
            "closest_to": "sakleshpur"
        },
        "venkatappa art gallery": {
            "blogLinks": [
                "http://blog.indianluxurytrains.com/2014/09/best-places-to-visit-in-karnataka.html"
            ],
            "longitude": "77.5952077",
            "address": "Venkatappa Art Gallery, Kasturba Road, Shantala Nagar, MacIvor Town, Bengaluru, Bangalore Urban, Karnataka, 560001, India",
            "latitude": "12.9742592",
            "locType": "museum",
            "closest_to": "sakleshpur"
        },
        "periyar lake": {
            "blogLinks": [
                "https://www.makemytrip.com/holidays-india/places-to-visit-bidar.html"
            ],
            "longitude": "77.6132559",
            "address": "Periyar Nagara Circle, Arabic College Main Road, Shampura, Lingarajapuram, Bengaluru, Bangalore Urban, Karnataka, 560001, India",
            "latitude": "13.0086948",
            "locType": "roundabout",
            "closest_to": "sakleshpur"
        },
        "earth": {
            "blogLinks": [
                "https://www.tripoto.com/weekend-getaways/from-sakleshpur"
            ],
            "longitude": "77.659986649248",
            "address": "Bharat Earth Movers Limited - BEML, GM Palya, Bengaluru, Bangalore Urban, Karnataka, 560001, India",
            "latitude": "12.9740596",
            "locType": "industrial",
            "closest_to": "sakleshpur"
        },
        "chittoor": {
            "blogLinks": [
                "https://www.thrillophilia.com/places-to-visit-in-hyderabad"
            ],
            "longitude": "79.3452447",
            "address": "Karnataka, West Mada Street, Srivari Temple, Tirumala, Chittoor, Andhra Pradesh, 517504, India",
            "latitude": "13.6841958",
            "locType": "hotel",
            "closest_to": "sakleshpur"
        },
        "pattadakal": {
            "blogLinks": [
                "http://blog.indianluxurytrains.com/2014/09/best-places-to-visit-in-karnataka.html",
                "https://www.thrillophilia.com/places-to-visit-in-hyderabad"
            ],
            "longitude": "75.815884048161",
            "address": "Pattadakal Temples, SH14, \u0cac\u0cbe\u0c9a\u0cbf\u0ca8\u0c97\u0cc1\u0ca1\u0ccd\u0ca1, Badami taluku, Bagalkote district, Karnataka, 587211, India",
            "latitude": "15.9506349",
            "locType": "attraction",
            "closest_to": "sakleshpur"
        },
        "main road": {
            "blogLinks": [
                "http://www.holidayiq.com/destinations/sakleshpur/"
            ],
            "longitude": "76.6222634",
            "address": "Main Road, Sriramapura, Mysuru, Mysuru taluk, Mysuru district, Karnataka, 570001, India",
            "latitude": "12.2674879",
            "locType": "tertiary",
            "closest_to": "sakleshpur"
        },
        "mahabaleshwar": {
            "blogLinks": [
                "http://www.thrillophilia.com/blog/20-places-you-need-to-visit-in-india-with-your-best-friend/"
            ],
            "longitude": "77.5899443",
            "address": "Mahabaleshwar Temple, Mission Road (Kalinga Rao Road), Sampangirama Nagar, Shanti Nagar, Bengaluru, Bangalore Urban, Karnataka, 560001, India",
            "latitude": "12.962625",
            "locType": "place_of_worship",
            "closest_to": "sakleshpur"
        },
        "golconda": {
            "blogLinks": [
                "https://www.thrillophilia.com/places-to-visit-in-hyderabad"
            ],
            "longitude": "77.7127571",
            "address": "Golconda Chimney, Varthur Road, Vaikuntam Layout, AECS Layout, Siddapura, Bangalore Urban, Karnataka, 560066, India",
            "latitude": "12.9558467",
            "locType": "restaurant",
            "closest_to": "sakleshpur"
        },
        "subramanya": {
            "blogLinks": [
                "https://www.mekanagadde.com/tourist-places-nearby-to-visit/",
                "https://www.mekanagadde.com/take-the-trekking-trail-in-the-western-ghats/"
            ],
            "longitude": "77.6015800913134",
            "address": "Subramanya Arcade, Marenahalli, Bengaluru, Bangalore Urban, Karnataka, 560001, India",
            "latitude": "12.9251206",
            "locType": "commercial",
            "closest_to": "sakleshpur"
        },
        "dharwad": {
            "blogLinks": [
                "http://www.mapsofindia.com/maps/karnataka/"
            ],
            "longitude": "75.0066516",
            "address": "Dharwad, Dharawada taluku, Dharwad district, Karnataka, 580001, India",
            "latitude": "15.4540505",
            "locType": "city",
            "closest_to": "sakleshpur"
        },
        "chitradurga": {
            "blogLinks": [
                "http://blog.indianluxurytrains.com/2014/09/best-places-to-visit-in-karnataka.html",
                "http://www.distancesfrom.com/in/travel-from-Bellary-to-Sakleshpur-via-Chitradurga/TravelFromHistory/28884575.aspx"
            ],
            "longitude": "76.4005122",
            "address": "Chitradurga, Chitradurga taluku, Chitradurga district, Karnataka, 577500, India",
            "latitude": "14.2266443",
            "locType": "town",
            "closest_to": "sakleshpur"
        },
        "bellary": {
            "blogLinks": [
                "http://www.thrillophilia.com/blog/20-places-you-need-to-visit-in-india-with-your-best-friend/",
                "http://www.distancesfrom.com/in/travel-from-Bellary-to-Sakleshpur-via-Chitradurga/TravelFromHistory/28884575.aspx",
                "https://www.thrillophilia.com/places-to-visit-in-hyderabad",
                "http://www.mapsofindia.com/maps/karnataka/"
            ],
            "longitude": "76.8323648",
            "address": "Bellary, Bellary district, Karnataka, India",
            "latitude": "15.2485413",
            "locType": "county",
            "closest_to": "sakleshpur"
        },
        "kerala": {
            "blogLinks": [
                "http://www.thrillophilia.com/blog/20-places-you-need-to-visit-in-india-with-your-best-friend/",
                "https://www.makemytrip.com/holidays-india/places-to-visit-bidar.html",
                "https://www.tripoto.com/weekend-getaways/from-sakleshpur",
                "http://www.mapsofindia.com/maps/karnataka/"
            ],
            "longitude": "77.6382683",
            "address": "New Life Kerala Mess, Sai Baba Mandira Road, Mottappanapalaya, Indiranagar, Bengaluru, Bangalore Urban, Karnataka, 560001, India",
            "latitude": "12.9726449",
            "locType": "restaurant",
            "closest_to": "sakleshpur"
        },
        "malayalam": {
            "blogLinks": [
                "http://www.thrillophilia.com/blog/20-places-you-need-to-visit-in-india-with-your-best-friend/",
                "https://www.makemytrip.com/holidays-india/places-to-visit-bidar.html"
            ],
            "longitude": "77.6774283",
            "address": "Lowry Adventist Malayalam Church, A Narayanapura Main Road, Darga Mohalla, Udaya Nagar, A Narayanapura, Bangalore Urban, Karnataka, 560016, India",
            "latitude": "12.9985726",
            "locType": "place_of_worship",
            "closest_to": "sakleshpur"
        },
        "hassan district": {
            "blogLinks": [
                "https://www.mekanagadde.com/tourist-places-nearby-to-visit/",
                "http://www.holidayiq.com/destinations/sakleshpur/"
            ],
            "longitude": "76.1745460751981",
            "address": "Hassan district, Karnataka, India",
            "latitude": "13.0315068",
            "locType": "administrative",
            "closest_to": "sakleshpur"
        },
        "botanical garden": {
            "blogLinks": [
                "http://www.thrillophilia.com/blog/20-places-you-need-to-visit-in-india-with-your-best-friend/"
            ],
            "longitude": "77.5744817798899",
            "address": "Botanical Garden, Cart road, Judicial Layout, Jakkur, Bangalore Urban, Karnataka, 560065, India",
            "latitude": "13.08099125",
            "locType": "protected_area",
            "closest_to": "sakleshpur"
        },
        "shravanabelagola": {
            "blogLinks": [
                "http://www.holidayiq.com/How-To-Reach/From-Bangalore-To-Sakleshpur-293-628"
            ],
            "longitude": "76.4869997",
            "address": "Shravanabelagola, Channarayapattana taluk, Hassan district, Karnataka, 573135, India",
            "latitude": "12.8581305",
            "locType": "town",
            "closest_to": "sakleshpur"
        },
        "chikkamagalur": {
            "blogLinks": [
                "http://www.holidayiq.com/destinations/sakleshpur/"
            ],
            "longitude": "75.789501",
            "address": "Chikkamagalur, SH57, Hosamane Badavane, Hiremagaluru, Chikkamagaluru taluku, Chikkamagaluru district, Karnataka, 577101, India",
            "latitude": "13.3030706",
            "locType": "station",
            "closest_to": "sakleshpur"
        },
        "channarayapatna of hassan": {
            "blogLinks": [
                "http://blog.indianluxurytrains.com/2014/09/best-places-to-visit-in-karnataka.html"
            ],
            "longitude": "76.4628912",
            "address": "Tiptur - Channarayapatna Road, Rampura, Channarayapattana taluk, Hassan district, Karnataka, India",
            "latitude": "13.0775815",
            "locType": "primary",
            "closest_to": "sakleshpur"
        },
        "india": {
            "blogLinks": [
                "http://blog.indianluxurytrains.com/2014/09/best-places-to-visit-in-karnataka.html",
                "http://www.thrillophilia.com/blog/20-places-you-need-to-visit-in-india-with-your-best-friend/",
                "http://www.distancesfrom.com/in/travel-from-Bellary-to-Sakleshpur-via-Chitradurga/TravelFromHistory/28884575.aspx",
                "https://www.mekanagadde.com/benefits-of-staying-at-a-homestay-in-chikmagalur-sakleshpur/",
                "http://distancecalculator.globefeed.com/India_Distance_Calculator.asp?state=19",
                "https://www.yatra.com/india-tourism/bidar-travel-guide",
                "https://www.mekanagadde.com/tourist-places-nearby-to-visit/",
                "https://www.makemytrip.com/holidays-india/places-to-visit-bidar.html",
                "https://www.tripoto.com/weekend-getaways/from-sakleshpur",
                "https://www.thrillophilia.com/places-to-visit-in-hyderabad",
                "http://www.holidayiq.com/How-To-Reach/From-Bangalore-To-Sakleshpur-293-628",
                "http://www.triphobo.com/tripplans/sakleshpur",
                "https://www.mekanagadde.com/take-the-trekking-trail-in-the-western-ghats/",
                "http://www.mapsofindia.com/maps/karnataka/"
            ],
            "longitude": "75.7223521",
            "address": "Karnataka, India",
            "latitude": "14.5203896",
            "locType": "administrative",
            "closest_to": "sakleshpur"
        },
        "bijapur": {
            "blogLinks": [
                "http://blog.indianluxurytrains.com/2014/09/best-places-to-visit-in-karnataka.html",
                "https://www.tripoto.com/weekend-getaways/from-sakleshpur",
                "http://www.mapsofindia.com/maps/karnataka/"
            ],
            "longitude": "75.7175387",
            "address": "Vijayapura, Vijayapura taluk, Bijapur district, Karnataka, 586101, India",
            "latitude": "16.8269911",
            "locType": "city",
            "closest_to": "sakleshpur"
        },
        "urdu": {
            "blogLinks": [
                "https://www.thrillophilia.com/places-to-visit-in-hyderabad"
            ],
            "longitude": "75.636575371858",
            "address": "Urdu Ground, Ranebennur, Ranebennuru taluk, Haveri district, Karnataka, 581115, India",
            "latitude": "14.6180369",
            "locType": "recreation_ground",
            "closest_to": "sakleshpur"
        },
        "sakleshpur": {
            "blogLinks": [
                "http://www.distancesfrom.com/in/travel-from-Bellary-to-Sakleshpur-via-Chitradurga/TravelFromHistory/28884575.aspx",
                "https://www.mekanagadde.com/benefits-of-staying-at-a-homestay-in-chikmagalur-sakleshpur/",
                "https://www.mekanagadde.com/tourist-places-nearby-to-visit/",
                "https://vtripindia2016.wordpress.com/2016/09/17/places-to-visit-in-sakleshpur/",
                "https://www.tripoto.com/weekend-getaways/from-sakleshpur",
                "http://www.holidayiq.com/How-To-Reach/From-Bangalore-To-Sakleshpur-293-628",
                "http://www.triphobo.com/tripplans/sakleshpur",
                "http://www.holidayiq.com/destinations/sakleshpur/",
                "https://www.mekanagadde.com/take-the-trekking-trail-in-the-western-ghats/",
                "http://www.mapsofindia.com/maps/karnataka/"
            ],
            "longitude": "75.7862318",
            "address": "Sakaleshpura, Sakaleshapura taluk, Hassan district, Karnataka, 573134, India",
            "latitude": "12.9434349",
            "locType": "town",
            "closest_to": "sakleshpur"
        },
        "chikkamagaluru": {
            "blogLinks": [
                "https://www.mekanagadde.com/tourist-places-nearby-to-visit/"
            ],
            "longitude": "75.7738743",
            "address": "Chikkamagaluru, Chikkamagaluru taluku, Chikkamagaluru district, Karnataka, 577101, India",
            "latitude": "13.318014",
            "locType": "city",
            "closest_to": "sakleshpur"
        },
        "mysore": {
            "blogLinks": [
                "http://blog.indianluxurytrains.com/2014/09/best-places-to-visit-in-karnataka.html"
            ],
            "longitude": "76.6553609",
            "address": "Mysuru, Mysuru taluk, Mysuru district, Karnataka, 570001, India",
            "latitude": "12.3051828",
            "locType": "city",
            "closest_to": "sakleshpur"
        },
        "venkateswara": {
            "blogLinks": [
                "https://www.thrillophilia.com/places-to-visit-in-hyderabad"
            ],
            "longitude": "77.5961910526005",
            "address": "Balamuri Vinayaka and Venkateswara Temple, Amarjyothy Layout, 2nd Main, Kanaka Nagar, Amarjyothi Nagara, Bengaluru, Bangalore Urban, Karnataka, 560001, India",
            "latitude": "13.03404655",
            "locType": "place_of_worship",
            "closest_to": "sakleshpur"
        },
        "lumbini park": {
            "blogLinks": [
                "https://www.thrillophilia.com/places-to-visit-in-hyderabad"
            ],
            "longitude": "77.6102391912575",
            "address": "Lumbini Gardens, Outer Ring Road, Kanaka Nagar, Amarjyothi Nagara, Dasarahalli, Bangalore Urban, Karnataka, 560024, India",
            "latitude": "13.0432874",
            "locType": "theme_park",
            "closest_to": "sakleshpur"
        },
        "emirates": {
            "blogLinks": [
                "https://www.yatra.com/india-tourism/bidar-travel-guide"
            ],
            "longitude": "77.5572955",
            "address": "Emirates, Rahman Khan Road, Rajajinagar 1st Block, Yeshwantpur, Deewanarapalya, Bangalore Urban, Karnataka, 560022, India",
            "latitude": "13.0192135",
            "locType": "restaurant",
            "closest_to": "sakleshpur"
        },
        "tumkur": {
            "blogLinks": [
                "http://www.mapsofindia.com/maps/karnataka/"
            ],
            "longitude": "77.0002445",
            "address": "Tumakuru, Tumkur district, Karnataka, India",
            "latitude": "13.4999406",
            "locType": "county",
            "closest_to": "sakleshpur"
        },
        "sakleshpur chikmagalur": {
            "blogLinks": [
                "https://www.mekanagadde.com/tourist-places-nearby-to-visit/",
                "https://www.mekanagadde.com/benefits-of-staying-at-a-homestay-in-chikmagalur-sakleshpur/",
                "https://www.mekanagadde.com/take-the-trekking-trail-in-the-western-ghats/"
            ],
            "longitude": "75.7862318",
            "address": "Sakaleshpura, Sakaleshapura taluk, Hassan district, Karnataka, 573134, India",
            "latitude": "12.9434349",
            "locType": "town",
            "closest_to": "sakleshpur"
        },
        "kanakpura road": {
            "blogLinks": [
                "https://www.tripoto.com/weekend-getaways/from-sakleshpur"
            ],
            "longitude": "77.5438085908703",
            "address": "H 902, Mantri Tranquil, Gubbalala, Off Kanakpura Road, Bengaluru - 61, Subramanyapura Main Road, Singapore Gardens, Uttarahalli, Gubbalala, Bangalore Urban, Karnataka, 560086, India",
            "latitude": "12.8866679",
            "locType": "yes",
            "closest_to": "sakleshpur"
        },
        "maharashtra": {
            "blogLinks": [
                "http://www.thrillophilia.com/blog/20-places-you-need-to-visit-in-india-with-your-best-friend/",
                "http://www.holidayiq.com/destinations/sakleshpur/",
                "http://www.mapsofindia.com/maps/karnataka/"
            ],
            "longitude": "77.5856013",
            "address": "Bank of Maharashtra, 24th Main, K R Layout, Puttenahalli, Bengaluru, Bangalore Urban, Karnataka, 560001, India",
            "latitude": "12.9049455",
            "locType": "bank",
            "closest_to": "sakleshpur"
        },
        "palani": {
            "blogLinks": [
                "https://www.tripoto.com/weekend-getaways/from-sakleshpur"
            ],
            "longitude": "77.6168951",
            "address": "Palani, Neelasandra Bazaar Street, Austin Town BDA Layout, Neelasandra, Bengaluru, Bangalore Urban, Karnataka, 560001, India",
            "latitude": "12.9537341",
            "locType": "recycling",
            "closest_to": "sakleshpur"
        },
        "tungabhadra": {
            "blogLinks": [
                "http://www.thrillophilia.com/blog/20-places-you-need-to-visit-in-india-with-your-best-friend/",
                "https://www.tripoto.com/weekend-getaways/from-sakleshpur"
            ],
            "longitude": "76.4931607",
            "address": "Tungabhadra, Gangavati taluku, Koppal district, Karnataka, India",
            "latitude": "15.3446123",
            "locType": "river",
            "closest_to": "sakleshpur"
        },
        "ooty lake": {
            "blogLinks": [
                "https://www.tripoto.com/weekend-getaways/from-sakleshpur"
            ],
            "longitude": "76.6586807",
            "address": "Ooty Road, Vidyaranyapuram, Mysuru, Mysuru taluk, Mysuru district, Karnataka, 570001, India",
            "latitude": "12.2774807",
            "locType": "primary",
            "closest_to": "sakleshpur"
        },
        "cubbon park": {
            "blogLinks": [
                "http://blog.indianluxurytrains.com/2014/09/best-places-to-visit-in-karnataka.html"
            ],
            "longitude": "77.5977565",
            "address": "Cubbon Park, Cubbon Road, Tasker Town, Shivajinagar, Bengaluru, Bangalore Urban, Karnataka, 560001, India",
            "latitude": "12.9808487",
            "locType": "station",
            "closest_to": "sakleshpur"
        },
        "coorg": {
            "blogLinks": [
                "https://www.tripoto.com/weekend-getaways/from-sakleshpur"
            ],
            "longitude": "75.740031",
            "address": "Madikeri, Madikeri taluku, Kodagu, Karnataka, India",
            "latitude": "12.4204003",
            "locType": "town",
            "closest_to": "sakleshpur"
        },
        "river godavari": {
            "blogLinks": [
                "https://www.thrillophilia.com/places-to-visit-in-hyderabad"
            ],
            "longitude": "76.1048975",
            "address": "Godavari Road, Ravindra Nagar, PWD Colony, Hassan, Hasana taluk, Hassan district, Karnataka, 573201, India",
            "latitude": "13.0157677",
            "locType": "residential",
            "closest_to": "sakleshpur"
        },
        "middle east": {
            "blogLinks": [
                "https://www.yatra.com/india-tourism/bidar-travel-guide"
            ],
            "longitude": "77.3394684",
            "address": "Government Middle And Primary School, NH48, Dodderi, Nelamangala taluk, Bangalore Rural, Karnataka, India",
            "latitude": "13.1487605",
            "locType": "school",
            "closest_to": "sakleshpur"
        },
        "manjarabad fort": {
            "blogLinks": [
                "http://www.holidayiq.com/destinations/sakleshpur/",
                "https://www.tripoto.com/weekend-getaways/from-sakleshpur"
            ],
            "longitude": "75.7580572896098",
            "address": "Manjarabad Fort, SH27, Hullahalli, Sakaleshapura taluk, Hassan district, Karnataka, 573134, India",
            "latitude": "12.9173302",
            "locType": "attraction",
            "closest_to": "sakleshpur"
        },
        "kodagu": {
            "blogLinks": [
                "http://blog.indianluxurytrains.com/2014/09/best-places-to-visit-in-karnataka.html",
                "https://www.tripoto.com/weekend-getaways/from-sakleshpur",
                "http://www.mapsofindia.com/maps/karnataka/"
            ],
            "longitude": "75.6677235950852",
            "address": "Kodagu, Karnataka, India",
            "latitude": "12.38117345",
            "locType": "administrative",
            "closest_to": "sakleshpur"
        },
        "karnataka": {
            "blogLinks": [
                "http://blog.indianluxurytrains.com/2014/09/best-places-to-visit-in-karnataka.html",
                "http://www.thrillophilia.com/blog/20-places-you-need-to-visit-in-india-with-your-best-friend/",
                "http://www.distancesfrom.com/in/travel-from-Bellary-to-Sakleshpur-via-Chitradurga/TravelFromHistory/28884575.aspx",
                "https://www.mekanagadde.com/benefits-of-staying-at-a-homestay-in-chikmagalur-sakleshpur/",
                "http://distancecalculator.globefeed.com/India_Distance_Calculator.asp?state=19",
                "https://www.yatra.com/india-tourism/bidar-travel-guide",
                "https://www.mekanagadde.com/tourist-places-nearby-to-visit/",
                "https://www.makemytrip.com/holidays-india/places-to-visit-bidar.html",
                "https://www.tripoto.com/weekend-getaways/from-sakleshpur",
                "https://vtripindia2016.wordpress.com/2016/09/17/places-to-visit-in-sakleshpur/",
                "https://www.thrillophilia.com/places-to-visit-in-hyderabad",
                "http://www.holidayiq.com/How-To-Reach/From-Bangalore-To-Sakleshpur-293-628",
                "http://www.holidayiq.com/destinations/sakleshpur/",
                "https://www.mekanagadde.com/take-the-trekking-trail-in-the-western-ghats/",
                "http://www.mapsofindia.com/maps/karnataka/"
            ],
            "longitude": "76.6639936",
            "address": "Karnataka, Shalivahana Road, Nazarbad, Mysuru, Mysuru taluk, Mysuru district, Karnataka, 570001, India",
            "latitude": "12.3084901",
            "locType": "atm",
            "closest_to": "sakleshpur"
        },
        "uma maheshwara temple": {
            "blogLinks": [
                "http://blog.indianluxurytrains.com/2014/09/best-places-to-visit-in-karnataka.html"
            ],
            "longitude": "74.3120254424635",
            "address": "Uma-maheshwara temple, Om beach road, Gokarna, Kumata taluk, Uttara Kannada, Karnataka, 581326, India",
            "latitude": "14.5234594",
            "locType": "place_of_worship",
            "closest_to": "sakleshpur"
        },
        "north karnataka": {
            "blogLinks": [
                "https://www.thrillophilia.com/places-to-visit-in-hyderabad"
            ],
            "longitude": "77.7660547",
            "address": "N, Chaithanya Samarpan, Kadugodi, Kannamangala, Bangalore Urban, Karnataka, 560066, India",
            "latitude": "13.0217151",
            "locType": "service",
            "closest_to": "sakleshpur"
        },
        "bagalkot": {
            "blogLinks": [
                "http://blog.indianluxurytrains.com/2014/09/best-places-to-visit-in-karnataka.html"
            ],
            "longitude": "75.6967919",
            "address": "Bagalakote, Bagalakote taluk, Bagalkote district, Karnataka, India",
            "latitude": "16.1853166",
            "locType": "city",
            "closest_to": "sakleshpur"
        },
        "mangalore": {
            "blogLinks": [
                "http://www.holidayiq.com/How-To-Reach/From-Bangalore-To-Sakleshpur-293-628",
                "https://www.mekanagadde.com/tourist-places-nearby-to-visit/",
                "http://www.holidayiq.com/destinations/sakleshpur/",
                "https://www.tripoto.com/weekend-getaways/from-sakleshpur"
            ],
            "longitude": "74.8430082",
            "address": "Mangaluru, Mangaluru taluk, Dakshina Kannada, Karnataka, 575001, India",
            "latitude": "12.8698101",
            "locType": "city",
            "closest_to": "sakleshpur"
        },
        "west bengal": {
            "blogLinks": [
                "http://www.thrillophilia.com/blog/20-places-you-need-to-visit-in-india-with-your-best-friend/"
            ],
            "longitude": "77.7517038151245",
            "address": "Bengal Lamps, Konadasapura, Bangalore Urban, Karnataka, 560066, India",
            "latitude": "13.0492646",
            "locType": "industrial",
            "closest_to": "sakleshpur"
        },
        "parvati": {
            "blogLinks": [
                "https://www.mekanagadde.com/tourist-places-nearby-to-visit/"
            ],
            "longitude": "75.7898501",
            "address": "Parvati, Badami taluku, Bagalkote district, Karnataka, India",
            "latitude": "16.0395701",
            "locType": "village",
            "closest_to": "sakleshpur"
        },
        "mumbai": {
            "blogLinks": [
                "http://www.thrillophilia.com/blog/20-places-you-need-to-visit-in-india-with-your-best-friend/",
                "https://www.thrillophilia.com/places-to-visit-in-hyderabad"
            ],
            "longitude": "77.5718472",
            "address": "Mumbai Spice, 18/2, 10th Cross, Malleswaram, Vyalikaval, Malleswaram, Bengaluru, Bangalore Urban, Karnataka, 560003, India",
            "latitude": "13.0002869",
            "locType": "restaurant",
            "closest_to": "sakleshpur"
        },
        "mecca masjid": {
            "blogLinks": [
                "https://www.thrillophilia.com/places-to-visit-in-hyderabad"
            ],
            "longitude": "77.5509669",
            "address": "masjid e mecca, 7th cross padarayana pura, Hosahalli Main Road, Rajajinagar 6th Block, Goripalya, Bengaluru, Bangalore Urban, Karnataka, 560001, India",
            "latitude": "12.9618838",
            "locType": "place_of_worship",
            "closest_to": "sakleshpur"
        },
        "chennakesava": {
            "blogLinks": [
                "http://blog.indianluxurytrains.com/2014/09/best-places-to-visit-in-karnataka.html",
                "https://www.mekanagadde.com/tourist-places-nearby-to-visit/"
            ],
            "longitude": "75.8603311",
            "address": "Chennakesava Temple, NH73, Navilahalli, Beluru taluk, Hassan district, Karnataka, India",
            "latitude": "13.1629239",
            "locType": "place_of_worship",
            "closest_to": "sakleshpur"
        },
        "hassan": {
            "blogLinks": [
                "http://blog.indianluxurytrains.com/2014/09/best-places-to-visit-in-karnataka.html",
                "http://www.holidayiq.com/destinations/sakleshpur/",
                "https://vtripindia2016.wordpress.com/2016/09/17/places-to-visit-in-sakleshpur/",
                "https://www.mekanagadde.com/take-the-trekking-trail-in-the-western-ghats/"
            ],
            "longitude": "76.0992703",
            "address": "Hassan, Hasana taluk, Hassan district, Karnataka, 573201, India",
            "latitude": "13.0070817",
            "locType": "town",
            "closest_to": "sakleshpur"
        },
        "hyderabad": {
            "blogLinks": [
                "https://www.makemytrip.com/holidays-india/places-to-visit-bidar.html",
                "https://www.thrillophilia.com/places-to-visit-in-hyderabad"
            ],
            "longitude": "77.5344002",
            "address": "Hyderabad Road, Old City, Bidar, Bidar taluku, Bidar district, Karnataka, 585400, India",
            "latitude": "17.9003114",
            "locType": "primary",
            "closest_to": "sakleshpur"
        },
        "machilipatnam": {
            "blogLinks": [
                "https://www.thrillophilia.com/places-to-visit-in-hyderabad"
            ],
            "longitude": "77.4525181",
            "address": "Pune - Machilipatnam Highway, Bhangura, Bidar taluku, Bidar district, Karnataka, India",
            "latitude": "17.6929794",
            "locType": "trunk",
            "closest_to": "sakleshpur"
        },
        "manjunatha": {
            "blogLinks": [
                "https://www.mekanagadde.com/tourist-places-nearby-to-visit/"
            ],
            "longitude": "74.8543195",
            "address": "Manjunatha Colony Road, Bikarnakatte, Nanthoor, Mangaluru, Mangaluru taluk, Dakshina Kannada, Karnataka, 575001, India",
            "latitude": "12.8847787",
            "locType": "residential",
            "closest_to": "sakleshpur"
        },
        "hemakuta hill": {
            "blogLinks": [
                "https://www.tripoto.com/weekend-getaways/from-sakleshpur"
            ],
            "longitude": "76.4602971",
            "address": "Hemakuta Hill, Hosapete taluk, Bellary district, Karnataka, India",
            "latitude": "15.332915",
            "locType": "peak",
            "closest_to": "sakleshpur"
        },
        "bhutan": {
            "blogLinks": [
                "https://www.makemytrip.com/holidays-india/places-to-visit-bidar.html"
            ],
            "longitude": "77.5391448",
            "address": "Bhutan Board Furniture, Siddhaiah Puranik Road, Rajajinagar 3rd Block, Kamakshi Palya, Bengaluru, Bangalore Urban, Karnataka, 560001, India",
            "latitude": "12.9931738",
            "locType": "furniture",
            "closest_to": "sakleshpur"
        },
        "mount abu": {
            "blogLinks": [
                "http://www.thrillophilia.com/blog/20-places-you-need-to-visit-in-india-with-your-best-friend/"
            ],
            "longitude": "77.5927317",
            "address": "Masjid Abu Bakr (RAA), 3rd Cross Road, Pukraj Layout, Someshwaranagar, Bengaluru, Bangalore Urban, Karnataka, 560001, India",
            "latitude": "12.9429538",
            "locType": "place_of_worship",
            "closest_to": "sakleshpur"
        },
        "vijaynagara": {
            "blogLinks": [
                "http://blog.indianluxurytrains.com/2014/09/best-places-to-visit-in-karnataka.html"
            ],
            "longitude": "77.5383681",
            "address": "Vijaynagara, Chord Road, Marenahalli, Vijaya Nagar, Binny Layout, Bangalore Urban, Karnataka, 560040, India",
            "latitude": "12.9726377",
            "locType": "bus_stop",
            "closest_to": "sakleshpur"
        },
        "hong kong": {
            "blogLinks": [
                "https://www.yatra.com/india-tourism/bidar-travel-guide"
            ],
            "longitude": "77.6768991",
            "address": "Hong Kong Noodles, Kalkere Main road, Ramamurthy Nagar, Varanasi, Bangalore Urban, Karnataka, 600042, India",
            "latitude": "13.020749",
            "locType": "restaurant",
            "closest_to": "sakleshpur"
        },
        "kannur": {
            "blogLinks": [
                "http://www.thrillophilia.com/blog/20-places-you-need-to-visit-in-india-with-your-best-friend/",
                "https://www.tripoto.com/weekend-getaways/from-sakleshpur"
            ],
            "longitude": "74.8858161",
            "address": "Netravati bridge - Kannur Bypass Road (Proposed), Padil, Bajal, Mangaluru taluk, Dakshina Kannada, Karnataka, 575007, India",
            "latitude": "12.8487602",
            "locType": "construction",
            "closest_to": "sakleshpur"
        },
        "bahmani": {
            "blogLinks": [
                "http://blog.indianluxurytrains.com/2014/09/best-places-to-visit-in-karnataka.html",
                "https://www.thrillophilia.com/places-to-visit-in-hyderabad"
            ],
            "longitude": "76.8315008",
            "address": "Bahmani Fort, Alanda Road, Fort, Rauza, Kalaburagi, Gulbarga taluku, Kalaburagi district, Karnataka, 585101, India",
            "latitude": "17.3415485",
            "locType": "castle",
            "closest_to": "sakleshpur"
        },
        "nilgiri range": {
            "blogLinks": [
                "https://www.tripoto.com/weekend-getaways/from-sakleshpur"
            ],
            "longitude": "76.658639",
            "address": "Bangalore Nilgiri Road, Ittigegudu, Mysuru, Mysuru taluk, Mysuru district, Karnataka, 570001, India",
            "latitude": "12.304105",
            "locType": "primary",
            "closest_to": "sakleshpur"
        },
        "rain-tree": {
            "blogLinks": [
                "https://www.tripoto.com/weekend-getaways/from-sakleshpur"
            ],
            "longitude": "77.6414765",
            "address": "Rain Tree, 3rd Main Road, Defence Colony, Hoysala Nagar, Bengaluru, Bangalore Urban, Karnataka, 560001, India",
            "latitude": "12.9757365",
            "locType": "tree",
            "closest_to": "sakleshpur"
        },
        "papanatha": {
            "blogLinks": [
                "http://blog.indianluxurytrains.com/2014/09/best-places-to-visit-in-karnataka.html"
            ],
            "longitude": "75.8164391839286",
            "address": "Papanatha Temple, SH14, \u0cac\u0cbe\u0c9a\u0cbf\u0ca8\u0c97\u0cc1\u0ca1\u0ccd\u0ca1, Badami taluku, Bagalkote district, Karnataka, 587211, India",
            "latitude": "15.94762935",
            "locType": "yes",
            "closest_to": "sakleshpur"
        },
        "malgudi": {
            "blogLinks": [
                "http://www.holidayiq.com/How-To-Reach/From-Bangalore-To-Sakleshpur-293-628"
            ],
            "longitude": "77.7017267",
            "address": "Malgudi Southern Cuisine, 3, Outer Ring Road, Ananda Nagara, Doddanekundi, Garudacharpalya, Bangalore Urban, Karnataka, 560037, India",
            "latitude": "12.9651193",
            "locType": "restaurant",
            "closest_to": "sakleshpur"
        },
        "mallalli falls": {
            "blogLinks": [
                "https://www.tripoto.com/weekend-getaways/from-sakleshpur"
            ],
            "longitude": "75.723663",
            "address": "Mallalli Falls, Somawarpet taluk, Kodagu, Karnataka, India",
            "latitude": "12.6813778",
            "locType": "waterfall",
            "closest_to": "sakleshpur"
        },
        "sullia": {
            "blogLinks": [
                "https://www.mekanagadde.com/tourist-places-nearby-to-visit/"
            ],
            "longitude": "75.3907575",
            "address": "Sulya, Sulya taluk, Dakshina Kannada, Karnataka, 574239, India",
            "latitude": "12.5576644",
            "locType": "town",
            "closest_to": "sakleshpur"
        },
        "kumara parvatha": {
            "blogLinks": [
                "https://www.tripoto.com/weekend-getaways/from-sakleshpur"
            ],
            "longitude": "75.6865652",
            "address": "Kumara Parvatha, Somawarpet taluk, Kodagu, Karnataka, India",
            "latitude": "12.6623315",
            "locType": "peak",
            "closest_to": "sakleshpur"
        },
        "himalaya house": {
            "blogLinks": [
                "https://www.makemytrip.com/holidays-india/places-to-visit-bidar.html"
            ],
            "longitude": "77.6266479",
            "address": "Himalaya Health care - druggists, 80 Feet Road;7th Main Road, Maistripalaya, Koramangala, Bengaluru, Bangalore Urban, Karnataka, 560001, India",
            "latitude": "12.9377532",
            "locType": "pharmacy",
            "closest_to": "sakleshpur"
        },
        "mahatma gandhi park": {
            "blogLinks": [
                "http://blog.indianluxurytrains.com/2014/09/best-places-to-visit-in-karnataka.html"
            ],
            "longitude": "77.5997033330292",
            "address": "Mahatma Gandhi Park, Mahatma Gandhi Road, Shantala Nagar, MacIvor Town, Bengaluru, Bangalore Urban, Karnataka, 560001, India",
            "latitude": "12.9772144",
            "locType": "park",
            "closest_to": "sakleshpur"
        },
        "pondicherry": {
            "blogLinks": [
                "http://www.thrillophilia.com/blog/20-places-you-need-to-visit-in-india-with-your-best-friend/"
            ],
            "longitude": "79.831569",
            "address": "Karnataka Bank, Mission Street, Grand Bazaar, Puducherry, Puducherry district, Puducherry, 605001, India",
            "latitude": "11.9365727",
            "locType": "bank",
            "closest_to": "sakleshpur"
        },
        "national park": {
            "blogLinks": [
                "http://www.thrillophilia.com/blog/20-places-you-need-to-visit-in-india-with-your-best-friend/",
                "https://www.tripoto.com/weekend-getaways/from-sakleshpur"
            ],
            "longitude": "77.5722783830694",
            "address": "Bannerghatta National Park, Anekal Road, Begihalli, Bangalore Urban, Karnataka, 560076, India",
            "latitude": "12.77900335",
            "locType": "national_park",
            "closest_to": "sakleshpur"
        },
        "dubare elephant camp": {
            "blogLinks": [
                "https://www.tripoto.com/weekend-getaways/from-sakleshpur"
            ],
            "longitude": "75.9066719",
            "address": "Dubare Elephant Camp, SH91, Dodda Bettageri, Somawarpet taluk, Kodagu, Karnataka, India",
            "latitude": "12.3716865",
            "locType": "attraction",
            "closest_to": "sakleshpur"
        },
        "bagalkote": {
            "blogLinks": [
                "http://www.mapsofindia.com/maps/karnataka/"
            ],
            "longitude": "75.5825586777167",
            "address": "Bagalkote district, Karnataka, India",
            "latitude": "16.28998085",
            "locType": "administrative",
            "closest_to": "sakleshpur"
        },
        "dharmasthala temple": {
            "blogLinks": [
                "https://www.mekanagadde.com/tourist-places-nearby-to-visit/"
            ],
            "longitude": "77.5682163",
            "address": "Sri Dharmasthala Manjunathaswamy Kalyana Mantapa, Bull Temple Road, Yediyur, Hanumantha Nagar, Bengaluru, Bangalore Urban, Karnataka, 560001, India",
            "latitude": "12.9433356",
            "locType": "townhall",
            "closest_to": "sakleshpur"
        },
        "bidar city": {
            "blogLinks": [
                "https://www.yatra.com/india-tourism/bidar-travel-guide"
            ],
            "longitude": "77.5245329",
            "address": "Bidar, Bidar taluku, Bidar district, Karnataka, 585400, India",
            "latitude": "17.9142593",
            "locType": "city",
            "closest_to": "sakleshpur"
        },
        "narasimha swami temple": {
            "blogLinks": [
                "https://www.yatra.com/india-tourism/bidar-travel-guide"
            ],
            "longitude": "77.6485907840766",
            "address": "Narasimha Swami Temple, Prime City Apartment Private Road, Electronics City Phase 1, Doddathoguru, Bangalore Urban, Karnataka, 560100, India",
            "latitude": "12.85075195",
            "locType": "place_of_worship",
            "closest_to": "sakleshpur"
        },
        "sangameshwara temple": {
            "blogLinks": [
                "https://www.thrillophilia.com/places-to-visit-in-hyderabad"
            ],
            "longitude": "76.0983066419415",
            "address": "Sri Sangameshwara temple, Hosaline Road, Ravindra Nagar, Pension Mohalla, Hassan, Hasana taluk, Hassan district, Karnataka, 573201, India",
            "latitude": "13.0145717",
            "locType": "place_of_worship",
            "closest_to": "sakleshpur"
        },
        "hoysaleswara": {
            "blogLinks": [
                "http://blog.indianluxurytrains.com/2014/09/best-places-to-visit-in-karnataka.html",
                "https://www.mekanagadde.com/tourist-places-nearby-to-visit/"
            ],
            "longitude": "75.9941649",
            "address": "Hoysaleswara Temple, SH21, Halebidu, Beluru taluk, Hassan district, Karnataka, 573121, India",
            "latitude": "13.2127193",
            "locType": "place_of_worship",
            "closest_to": "sakleshpur"
        },
        "chikkaballapur": {
            "blogLinks": [
                "http://www.mapsofindia.com/maps/karnataka/"
            ],
            "longitude": "77.7306866",
            "address": "Chikkaballapura, Chikkaballapura taluk, Chikkaballapura district, Karnataka, 562101, India",
            "latitude": "13.4352549",
            "locType": "town",
            "closest_to": "sakleshpur"
        },
        "river tungabhadra": {
            "blogLinks": [
                "https://www.thrillophilia.com/places-to-visit-in-hyderabad"
            ],
            "longitude": "76.4931607",
            "address": "Tungabhadra, Gangavati taluku, Koppal district, Karnataka, India",
            "latitude": "15.3446123",
            "locType": "river",
            "closest_to": "sakleshpur"
        },
        "dakshina kannada district": {
            "blogLinks": [
                "https://www.mekanagadde.com/tourist-places-nearby-to-visit/"
            ],
            "longitude": "74.9813132",
            "address": "Dakshina Kannada, Karnataka, India",
            "latitude": "12.9324457",
            "locType": "county",
            "closest_to": "sakleshpur"
        },
        "mandya": {
            "blogLinks": [
                "https://www.tripoto.com/weekend-getaways/from-sakleshpur",
                "http://www.mapsofindia.com/maps/karnataka/"
            ],
            "longitude": "76.8937392",
            "address": "Mandya, Mandya taluk, Mandya district, Karnataka, 571401, India",
            "latitude": "12.5217836",
            "locType": "town",
            "closest_to": "sakleshpur"
        },
        "north east": {
            "blogLinks": [
                "http://www.thrillophilia.com/blog/20-places-you-need-to-visit-in-india-with-your-best-friend/"
            ],
            "longitude": "75.7223521",
            "address": "Karnataka, India",
            "latitude": "14.5203896",
            "locType": "administrative",
            "closest_to": "sakleshpur"
        },
        "moyar": {
            "blogLinks": [
                "https://www.tripoto.com/weekend-getaways/from-sakleshpur"
            ],
            "longitude": "76.631118",
            "address": "Moyar Gorge, Gundlupet - Coimbatore Highway, Bandipur, Gundlupet taluk, Chamarajanagar district, Karnataka, India",
            "latitude": "11.6161121",
            "locType": "viewpoint",
            "closest_to": "sakleshpur"
        },
        "mallikarjuna temple": {
            "blogLinks": [
                "https://www.thrillophilia.com/places-to-visit-in-hyderabad"
            ],
            "longitude": "75.7213492",
            "address": "Mallikarjuna Temple, SH135, Nelavagi, Badami taluku, Bagalkote district, Karnataka, India",
            "latitude": "15.9321101",
            "locType": "place_of_worship",
            "closest_to": "sakleshpur"
        },
        "andhra": {
            "blogLinks": [
                "https://www.thrillophilia.com/places-to-visit-in-hyderabad"
            ],
            "longitude": "79.3452447",
            "address": "Karnataka, West Mada Street, Srivari Temple, Tirumala, Chittoor, Andhra Pradesh, 517504, India",
            "latitude": "13.6841958",
            "locType": "hotel",
            "closest_to": "sakleshpur"
        },
        "switzerland": {
            "blogLinks": [
                "http://www.thrillophilia.com/blog/20-places-you-need-to-visit-in-india-with-your-best-friend/"
            ],
            "longitude": "77.6055981047125",
            "address": "Consulate General of Switzerland, 26, Rest House Crescent Road, Shantala Nagar, Ashok Nagar, Bengaluru, Bangalore Urban, Karnataka, 560001, India",
            "latitude": "12.9733671",
            "locType": "embassy",
            "closest_to": "sakleshpur"
        },
        "madikeri fort": {
            "blogLinks": [
                "https://www.tripoto.com/weekend-getaways/from-sakleshpur"
            ],
            "longitude": "75.7392494",
            "address": "Madikeri Museum, Fort Internal Road, Madikeri, Madikeri taluku, Kodagu, Karnataka, India",
            "latitude": "12.4203606",
            "locType": "museum",
            "closest_to": "sakleshpur"
        },
        "vittala": {
            "blogLinks": [
                "http://blog.indianluxurytrains.com/2014/09/best-places-to-visit-in-karnataka.html",
                "https://www.tripoto.com/weekend-getaways/from-sakleshpur"
            ],
            "longitude": "76.6237847175927",
            "address": "Vijaya Vittala PU College, Sahukar Chennaiah Road, Sarasvatipuram, Mysuru, Mysuru taluk, Mysuru district, Karnataka, 570001, India",
            "latitude": "12.30129655",
            "locType": "yes",
            "closest_to": "sakleshpur"
        },
        "nilgiris": {
            "blogLinks": [
                "http://www.thrillophilia.com/blog/20-places-you-need-to-visit-in-india-with-your-best-friend/",
                "https://www.tripoto.com/weekend-getaways/from-sakleshpur"
            ],
            "longitude": "77.6069792",
            "address": "Nilgiris, Brigade Road, Tasker Town, Ashok Nagar, Bengaluru, Bangalore Urban, Karnataka, 560001, India",
            "latitude": "12.9725052",
            "locType": "supermarket",
            "closest_to": "sakleshpur"
        },
        "bandipur national park": {
            "blogLinks": [
                "http://blog.indianluxurytrains.com/2014/09/best-places-to-visit-in-karnataka.html"
            ],
            "longitude": "76.4314968740264",
            "address": "Bandipur National Park, Kozhikode - Kollegal Highway, Gundlupet taluk, Chamarajanagar district, Karnataka, India",
            "latitude": "11.76682425",
            "locType": "national_park",
            "closest_to": "sakleshpur"
        },
        "musical garden": {
            "blogLinks": [
                "https://www.thrillophilia.com/places-to-visit-in-hyderabad"
            ],
            "longitude": "77.590815",
            "address": "Musical Fountain Road, Chakravarty Layout, Vasantnagar, Bengaluru, Bangalore Urban, Karnataka, 560001, India",
            "latitude": "12.9844731",
            "locType": "primary",
            "closest_to": "sakleshpur"
        },
        "kolkata": {
            "blogLinks": [
                "http://www.thrillophilia.com/blog/20-places-you-need-to-visit-in-india-with-your-best-friend/"
            ],
            "longitude": "77.5478044",
            "address": "Kolkata Biryani And Rolls, 1st Main Basaveshwaranagar, Rajajinagar 3rd Block, Dasarahalli, Bengaluru, Bangalore Urban, Karnataka, 560010, India",
            "latitude": "12.9845159",
            "locType": "restaurant",
            "closest_to": "sakleshpur"
        },
        "hongadahalla": {
            "blogLinks": [
                "https://www.mekanagadde.com/take-the-trekking-trail-in-the-western-ghats/"
            ],
            "longitude": "75.696258",
            "address": "Hongadahalla, Sakaleshapura taluk, Hassan district, Karnataka, India",
            "latitude": "12.7925271",
            "locType": "village",
            "closest_to": "sakleshpur"
        },
        "gujarat": {
            "blogLinks": [
                "http://www.thrillophilia.com/blog/20-places-you-need-to-visit-in-india-with-your-best-friend/"
            ],
            "longitude": "75.1370469",
            "address": "Gujarat Bhavan, Casualty and Emergency, Ashok Nagar, Vidyanagar, Hubballi - \u0cb9\u0cc1\u0cac\u0ccd\u0cac\u0cb3\u0ccd\u0cb3\u0cbf, Hubballi taluku, Dharwad district, Karnataka, 580020, India",
            "latitude": "15.3595169",
            "locType": "yes",
            "closest_to": "sakleshpur"
        },
        "us": {
            "blogLinks": [
                "https://www.mekanagadde.com/benefits-of-staying-at-a-homestay-in-chikmagalur-sakleshpur/",
                "https://www.mekanagadde.com/take-the-trekking-trail-in-the-western-ghats/"
            ],
            "longitude": "75.7223521",
            "address": "Karnataka, India",
            "latitude": "14.5203896",
            "locType": "administrative",
            "closest_to": "sakleshpur"
        },
        "mysuru": {
            "blogLinks": [
                "http://www.holidayiq.com/destinations/sakleshpur/"
            ],
            "longitude": "76.6553609",
            "address": "Mysuru, Mysuru taluk, Mysuru district, Karnataka, 570001, India",
            "latitude": "12.3051828",
            "locType": "city",
            "closest_to": "sakleshpur"
        },
        "south": {
            "blogLinks": [
                "http://www.thrillophilia.com/blog/20-places-you-need-to-visit-in-india-with-your-best-friend/"
            ],
            "longitude": "77.8040874",
            "address": "s, Vijayapura, Devanahalli taluk, Bangalore Rural, Karnataka, 562135, India",
            "latitude": "13.2942848",
            "locType": "residential",
            "closest_to": "sakleshpur"
        },
        "gulbarga": {
            "blogLinks": [
                "http://www.mapsofindia.com/maps/karnataka/"
            ],
            "longitude": "77.083333",
            "address": "Kalaburgi, Kalaburagi district, Karnataka, India",
            "latitude": "17.166667",
            "locType": "county",
            "closest_to": "sakleshpur"
        },
        "pune": {
            "blogLinks": [
                "http://www.thrillophilia.com/blog/20-places-you-need-to-visit-in-india-with-your-best-friend/",
                "https://www.makemytrip.com/holidays-india/places-to-visit-bidar.html"
            ],
            "longitude": "76.9479122",
            "address": "Pune - Machilipatnam Highway, Kaudiyala, Basavakalyana taluku, Bidar district, Karnataka, India",
            "latitude": "17.8199745",
            "locType": "trunk",
            "closest_to": "sakleshpur"
        },
        "purple river": {
            "blogLinks": [
                "https://www.makemytrip.com/holidays-india/places-to-visit-bidar.html"
            ],
            "longitude": "77.6190735349329",
            "address": "Purple Garden Apartment, Arkavathy Layout, Sampigehalli, Bangalore Urban, Karnataka, 560045, India",
            "latitude": "13.07778295",
            "locType": "residential",
            "closest_to": "sakleshpur"
        },
        "england": {
            "blogLinks": [
                "https://www.mekanagadde.com/take-the-trekking-trail-in-the-western-ghats/"
            ],
            "longitude": "77.6219969678622",
            "address": "Peter England Factory, Bommanahalli, Bengaluru, Bangalore Urban, Karnataka, 560001, India",
            "latitude": "12.90120185",
            "locType": "industrial",
            "closest_to": "sakleshpur"
        },
        "tibet": {
            "blogLinks": [
                "http://www.thrillophilia.com/blog/20-places-you-need-to-visit-in-india-with-your-best-friend/"
            ],
            "longitude": "77.6068828",
            "address": "Tibet Bazaar, Brigade Road, Tasker Town, Ashok Nagar, Bengaluru, Bangalore Urban, Karnataka, 560001, India",
            "latitude": "12.9722398",
            "locType": "supermarket",
            "closest_to": "sakleshpur"
        },
        "river kali": {
            "blogLinks": [
                "https://www.thrillophilia.com/places-to-visit-in-hyderabad"
            ],
            "longitude": "74.5802901",
            "address": "Kali, Joida taluk, Uttara Kannada, Karnataka, India",
            "latitude": "15.0145378",
            "locType": "river",
            "closest_to": "sakleshpur"
        },
        "bangalore": {
            "blogLinks": [
                "http://www.thrillophilia.com/blog/20-places-you-need-to-visit-in-india-with-your-best-friend/",
                "https://www.mekanagadde.com/benefits-of-staying-at-a-homestay-in-chikmagalur-sakleshpur/",
                "https://www.mekanagadde.com/tourist-places-nearby-to-visit/",
                "https://www.makemytrip.com/holidays-india/places-to-visit-bidar.html",
                "https://www.tripoto.com/weekend-getaways/from-sakleshpur",
                "http://www.holidayiq.com/How-To-Reach/From-Bangalore-To-Sakleshpur-293-628",
                "http://www.holidayiq.com/destinations/sakleshpur/",
                "https://www.mekanagadde.com/take-the-trekking-trail-in-the-western-ghats/"
            ],
            "longitude": "77.5912997",
            "address": "Bengaluru, Bangalore Urban, Karnataka, 560001, India",
            "latitude": "12.9791198",
            "locType": "city",
            "closest_to": "sakleshpur"
        },
        "akshardham": {
            "blogLinks": [
                "http://www.thrillophilia.com/blog/20-places-you-need-to-visit-in-india-with-your-best-friend/"
            ],
            "longitude": "76.75957",
            "address": "Akshardham Lower Primary School R.K.Galli Surpur, NH150A, \u0cb8\u0ca4\u0ccd\u0caf\u0c82\u0caa\u0cc7\u0c9f\u0cc6, Surapura taluku, Yadagiri district, Karnataka, 585224, India",
            "latitude": "16.52301",
            "locType": "school",
            "closest_to": "sakleshpur"
        },
        "indus river": {
            "blogLinks": [
                "https://www.makemytrip.com/holidays-india/places-to-visit-bidar.html"
            ],
            "longitude": "77.6334755668175",
            "address": "Indus Signature Apartments, Indiranagar, Bengaluru, Bangalore Urban, Karnataka, 560001, India",
            "latitude": "12.97332085",
            "locType": "residential",
            "closest_to": "sakleshpur"
        },
        "mangalore international airport": {
            "blogLinks": [
                "https://www.tripoto.com/weekend-getaways/from-sakleshpur"
            ],
            "longitude": "74.887492668144",
            "address": "Mangalore International Airport, Airport Entry Road, Gandhinagar, Kenjar, Mangaluru taluk, Dakshina Kannada, Karnataka, 575015, India",
            "latitude": "12.95518575",
            "locType": "aerodrome",
            "closest_to": "sakleshpur"
        },
        "eureka": {
            "blogLinks": [
                "https://www.thrillophilia.com/places-to-visit-in-hyderabad"
            ],
            "longitude": "75.1379537097891",
            "address": "Eureka Towers, Solapur Road, Girni Chawl, Kamaripet, Hubballi - \u0cb9\u0cc1\u0cac\u0ccd\u0cac\u0cb3\u0ccd\u0cb3\u0cbf, Hubballi taluku, Dharwad district, Karnataka, 580020, India",
            "latitude": "15.3509941",
            "locType": "yes",
            "closest_to": "sakleshpur"
        },
        "sykes point": {
            "blogLinks": [
                "http://blog.indianluxurytrains.com/2014/09/best-places-to-visit-in-karnataka.html"
            ],
            "longitude": "74.6488754",
            "address": "Sykes point, Ambikanagar road, Haliyala taluku, Uttara Kannada, Karnataka, India",
            "latitude": "15.0905368",
            "locType": "viewpoint",
            "closest_to": "sakleshpur"
        },
        "east coast": {
            "blogLinks": [
                "https://www.thrillophilia.com/places-to-visit-in-hyderabad"
            ],
            "longitude": "75.1129163",
            "address": "The Coast, R N Shetty Road, Chetana Colony, Padmaraj Nagar, Hubballi - \u0cb9\u0cc1\u0cac\u0ccd\u0cac\u0cb3\u0ccd\u0cb3\u0cbf, Hubballi taluku, Dharwad district, Karnataka, 580020, India",
            "latitude": "15.3485904",
            "locType": "restaurant",
            "closest_to": "sakleshpur"
        },
        "udupi": {
            "blogLinks": [
                "http://www.mapsofindia.com/maps/karnataka/"
            ],
            "longitude": "74.7473232",
            "address": "Udupi, Udupi taluku, Udupi district, Karnataka, 576101, India",
            "latitude": "13.3419169",
            "locType": "city",
            "closest_to": "sakleshpur"
        },
        "rock garden": {
            "blogLinks": [
                "https://www.thrillophilia.com/places-to-visit-in-hyderabad"
            ],
            "longitude": "75.6142269",
            "address": "Waterfalls by the Rock site, Madikeri taluku, Kodagu, Karnataka, India",
            "latitude": "12.2248591",
            "locType": "waterfall",
            "closest_to": "sakleshpur"
        }
    }
}