{
    "nandi hills": {
        "place_id": "146373589",
        "osm_id": "369233221",
        "icon": "https://nominatim.openstreetmap.org/images/mapicons/accommodation_hotel2.p.20.png",
        "osm_type": "way",
        "licence": "Data \u00a9 OpenStreetMap contributors, ODbL 1.0. http://www.openstreetmap.org/copyright",
        "display_name": "Nandi Upahara, Nandhi Hills Road, Kottige Thimmanahalli, Devanahalli taluk, Bangalore Rural, Karnataka, India",
        "type": "hotel",
        "lon": "77.7194741670394",
        "boundingbox": [
            "13.2675644",
            "13.2688204",
            "77.7191326",
            "77.7199363"
        ],
        "importance": 0.301,
        "lat": "13.268142",
        "class": "tourism"
    },
    "mentions": {
        "sri krishnarajendra hill station": {
            "closest_to": "nandi hills",
            "address": "Silver Jubilee Park, Narasimharaja Road, Ganigarpet, Kalasipalya, Bengaluru, Bangalore Urban, Karnataka, 560001, India",
            "longitude": "77.583027619944",
            "latitude": "12.96370475",
            "blogLinks": [
                "https://www.thrillophilia.com/places-to-visit-in-chikmagalur"
            ],
            "locType": "park"
        },
        "barapole river": {
            "closest_to": "chikmagalur",
            "address": "Barapole, Virajpet taluk, Kodagu, Karnataka, India",
            "longitude": "75.8218551",
            "latitude": "12.0738308",
            "blogLinks": [
                "http://travel.india.com/weekend-getaways/from-bangalore/distance-300-km/"
            ],
            "locType": "river"
        },
        "mangalore city": {
            "closest_to": "chikmagalur",
            "address": "Mangaluru, Mangaluru taluk, Dakshina Kannada, Karnataka, 575001, India",
            "longitude": "74.8430082",
            "latitude": "12.8698101",
            "blogLinks": [
                "http://traveltriangle.com/blog/top-hill-stations-in-karnataka/"
            ],
            "locType": "city"
        },
        "chikmagalur": {
            "closest_to": "nandi hills",
            "address": "Chikmagalur, Chikkamagaluru district, Karnataka, India",
            "longitude": "75.5",
            "latitude": "13.5",
            "blogLinks": [
                "https://www.thrillophilia.com/places-to-visit-in-chikmagalur",
                "http://www.mapsofindia.com/karnataka/tourism/hill-stations.html",
                "http://www.buzzntravel.com/nandi-hills"
            ],
            "locType": "county"
        },
        "silent valley": {
            "closest_to": "nandi hills",
            "address": "Silent Shores Resort, Krishnaraja Sagara Road, Kurgalli, Bastipura, Srirangapattana taluk, Mandya district, Karnataka, 570027, India",
            "longitude": "76.5819054",
            "latitude": "12.3459371",
            "blogLinks": [
                "https://www.quora.com/What-are-some-places-to-visit-in-Karnataka"
            ],
            "locType": "hotel"
        },
        "river kaveri": {
            "closest_to": "nandi hills",
            "address": "Kaveri, Kollegala taluk, Chamarajanagar district, Karnataka, India",
            "longitude": "77.0635531",
            "latitude": "12.1687878",
            "blogLinks": [
                "http://travel.india.com/weekend-getaways/from-bangalore/distance-300-km/",
                "https://www.triphobo.com/blog/places-to-visit-near-bangalore-in-monsoon"
            ],
            "locType": "river"
        },
        "mangalore": {
            "closest_to": "chikmagalur",
            "address": "Mangaluru, Mangaluru taluk, Dakshina Kannada, Karnataka, 575001, India",
            "longitude": "74.8430082",
            "latitude": "12.8698101",
            "blogLinks": [
                "http://www.mapsofindia.com/karnataka/tourism/hill-stations.html"
            ],
            "locType": "city"
        },
        "kalhatti falls": {
            "closest_to": "nandi hills",
            "address": "Kallathgiri falls, Tarikere taluku, Chikkamagaluru district, Karnataka, India",
            "longitude": "75.7889882",
            "latitude": "13.5499877",
            "blogLinks": [
                "https://www.thrillophilia.com/places-to-visit-in-chikmagalur"
            ],
            "locType": "waterfall"
        },
        "iruppu falls": {
            "closest_to": "nandi hills",
            "address": "Iruppu Falls, SH89, Taila, Virajpet taluk, Kodagu, Karnataka, 571217, India",
            "longitude": "75.9839484",
            "latitude": "11.9667954",
            "blogLinks": [
                "http://www.mapsofindia.com/karnataka/tourism/hill-stations.html",
                "https://www.quora.com/What-are-some-places-to-visit-in-Karnataka"
            ],
            "locType": "attraction"
        },
        "mysore palace": {
            "closest_to": "nandi hills",
            "address": "Mysore Palace, Sayyaji Rao Road, Vani Vilas, Mysuru, Mysuru taluk, Mysuru district, Karnataka, 570001, India",
            "longitude": "76.6539249338108",
            "latitude": "12.3052915",
            "blogLinks": [
                "http://travel.india.com/weekend-getaways/from-bangalore/distance-300-km/"
            ],
            "locType": "yes"
        },
        "ombattu gudda": {
            "closest_to": "nandi hills",
            "address": "Ombaattu Gudde, Mudigere taluk, Chikkamagaluru district, Karnataka, India",
            "longitude": "75.5851409",
            "latitude": "12.9408479",
            "blogLinks": [
                "http://travel.india.com/weekend-getaways/from-bangalore/distance-300-km/"
            ],
            "locType": "peak"
        },
        "bababudangiri": {
            "closest_to": "nandi hills",
            "address": "Bababudangiri Road, Inam Dattatreya Pitha, Chikkamagaluru taluku, Chikkamagaluru district, Karnataka, India",
            "longitude": "75.7486618",
            "latitude": "13.4297401",
            "blogLinks": [
                "https://www.thrillophilia.com/places-to-visit-in-chikmagalur"
            ],
            "locType": "tertiary"
        },
        "sharadamba temple": {
            "closest_to": "nandi hills",
            "address": "Sharadamba Temple, 7th Main Road, Yediyur, Thyagaraja Nagar, Bengaluru, Bangalore Urban, Karnataka, 560001, India",
            "longitude": "77.5656194",
            "latitude": "12.9321898",
            "blogLinks": [
                "https://www.thrillophilia.com/places-to-visit-in-chikmagalur"
            ],
            "locType": "place_of_worship"
        },
        "sakaleshapura": {
            "closest_to": "nandi hills",
            "address": "Sakaleshapura taluk, Hassan district, Karnataka, India",
            "longitude": "75.7266693539484",
            "latitude": "12.8549792",
            "blogLinks": [
                "http://travel.india.com/weekend-getaways/from-bangalore/distance-300-km/"
            ],
            "locType": "administrative"
        },
        "hoysala": {
            "closest_to": "nandi hills",
            "address": "Hoysala Nagar, Bengaluru, Bangalore Urban, Karnataka, 560001, India",
            "longitude": "77.6375990817051",
            "latitude": "12.97813815",
            "blogLinks": [
                "http://travel.india.com/weekend-getaways/from-bangalore/distance-300-km/"
            ],
            "locType": "administrative"
        },
        "skandagiri": {
            "closest_to": "nandi hills",
            "address": "Kalwarbetta, Chikkaballapura taluk, Chikkaballapura district, Karnataka, India",
            "longitude": "77.6826686",
            "latitude": "13.4172558",
            "blogLinks": [
                "https://en.wikipedia.org/wiki/Chikkaballapur"
            ],
            "locType": "peak"
        },
        "cauvery": {
            "closest_to": "nandi hills",
            "address": "Cauvery, 1st Main Road, Lower Palace Orchard, Guttahalli, Bengaluru, Bangalore Urban, Karnataka, 560001, India",
            "longitude": "77.5832796015599",
            "latitude": "13.00262215",
            "blogLinks": [
                "http://www.mapsofindia.com/karnataka/tourism/hill-stations.html"
            ],
            "locType": "cinema"
        },
        "kanva reservoir": {
            "closest_to": "nandi hills",
            "address": "Kanva Reservoir, Chamanahalli, Ramanagara taluk, Ramanagara district, Karnataka, India",
            "longitude": "77.2039784730662",
            "latitude": "12.73575",
            "blogLinks": [
                "http://travel.india.com/weekend-getaways/from-bangalore/distance-300-km/"
            ],
            "locType": "reservoir"
        },
        "attigundi": {
            "closest_to": "nandi hills",
            "address": "Attigundi, Chikkamagaluru taluku, Chikkamagaluru district, Karnataka, India",
            "longitude": "75.7415646",
            "latitude": "13.428683",
            "blogLinks": [
                "https://www.thrillophilia.com/places-to-visit-in-chikmagalur"
            ],
            "locType": "village"
        },
        "chola": {
            "closest_to": "nandi hills",
            "address": "Chola Gold Loan, Bengaluru - Mangaluru Road, Ravindra Nagar, Santhe Pete, Hassan, Hasana taluk, Hassan district, Karnataka, 573201, India",
            "longitude": "76.098782",
            "latitude": "13.0023906",
            "blogLinks": [
                "http://www.indianholiday.com/tourist-attraction/karnataka/hill-stations-in-karnataka/nandi-hills.html"
            ],
            "locType": "yes"
        },
        "kerala": {
            "closest_to": "nandi hills",
            "address": "New Life Kerala Mess, Sai Baba Mandira Road, Mottappanapalaya, Indiranagar, Bengaluru, Bangalore Urban, Karnataka, 560001, India",
            "longitude": "77.6382683",
            "latitude": "12.9726449",
            "blogLinks": [
                "http://www.indianholiday.com/tourist-attraction/karnataka/hill-stations-in-karnataka/nandi-hills.html",
                "http://www.mapsofindia.com/karnataka/tourism/hill-stations.html",
                "https://www.triphobo.com/blog/places-to-visit-near-bangalore-in-monsoon",
                "http://traveltriangle.com/blog/top-hill-stations-in-karnataka/"
            ],
            "locType": "restaurant"
        },
        "mandya district": {
            "closest_to": "nandi hills",
            "address": "Mandya district, Karnataka, India",
            "longitude": "76.7302318329607",
            "latitude": "12.6336348",
            "blogLinks": [
                "http://travel.india.com/weekend-getaways/from-bangalore/distance-300-km/"
            ],
            "locType": "administrative"
        },
        "rose garden": {
            "closest_to": "nandi hills",
            "address": "Rose Garden, Dr B R Ambedkar Veedhi, Shantala Nagar, Gandhinagar, Bengaluru, Bangalore Urban, Karnataka, 560001, India",
            "longitude": "77.590382853852",
            "latitude": "12.97371325",
            "blogLinks": [
                "https://www.thrillophilia.com/places-to-visit-in-chikmagalur"
            ],
            "locType": "garden"
        },
        "rock garden": {
            "closest_to": "chikmagalur",
            "address": "Waterfalls by the Rock site, Madikeri taluku, Kodagu, Karnataka, India",
            "longitude": "75.6142269",
            "latitude": "12.2248591",
            "blogLinks": [
                "https://www.thrillophilia.com/places-to-visit-in-chikmagalur"
            ],
            "locType": "waterfall"
        },
        "india bengaluru": {
            "closest_to": "nandi hills",
            "address": "Karnataka High Court, Dr B R Ambedkar Veedhi, Shantala Nagar, Gandhinagar, Bengaluru, Bangalore Urban, Karnataka, 560001, India",
            "longitude": "77.5925914",
            "latitude": "12.977944",
            "blogLinks": [
                "https://www.quora.com/What-are-the-must-visit-places-in-Bangalore-for-a-teenager"
            ],
            "locType": "courthouse"
        },
        "kundadri of karnataka": {
            "closest_to": "chikmagalur",
            "address": "Kundadri, Tirthahalli taluk, Shimoga district, Karnataka, India",
            "longitude": "75.1689994",
            "latitude": "13.5580148",
            "blogLinks": [
                "http://www.mapsofindia.com/karnataka/tourism/hill-stations.html"
            ],
            "locType": "peak"
        },
        "shravanabelagola": {
            "closest_to": "nandi hills",
            "address": "Shravanabelagola, Channarayapattana taluk, Hassan district, Karnataka, 573135, India",
            "longitude": "76.4869997",
            "latitude": "12.8581305",
            "blogLinks": [
                "http://travel.india.com/weekend-getaways/from-bangalore/distance-300-km/"
            ],
            "locType": "town"
        },
        "gauribidanur": {
            "closest_to": "nandi hills",
            "address": "Gauribidanur, NH69, Bommashettihalli, Gauribidanuru taluk, Chikkaballapura district, Karnataka, 561210, India",
            "longitude": "77.5123447",
            "latitude": "13.6115906",
            "blogLinks": [
                "https://en.wikipedia.org/wiki/Chikkaballapur"
            ],
            "locType": "station"
        },
        "sagara": {
            "closest_to": "chikmagalur",
            "address": "Sagara, Sagara taluk, Shimoga district, Karnataka, 577400, India",
            "longitude": "75.0262551",
            "latitude": "14.1666594",
            "blogLinks": [
                "http://www.touristlink.com/india/karnataka/cat/picnic-spots.html"
            ],
            "locType": "town"
        },
        "bengaluru international airport": {
            "closest_to": "nandi hills",
            "address": "Kempegowda International Airport (KIA), Bengaluru, Restricted Lane, Anneshvara, Devanahalli taluk, Bangalore Rural, Karnataka, 560300, India",
            "longitude": "77.7065674158539",
            "latitude": "13.2042586",
            "blogLinks": [
                "https://en.wikipedia.org/wiki/Chikkaballapur"
            ],
            "locType": "aerodrome"
        },
        "tipu sultan": {
            "closest_to": "nandi hills",
            "address": "Mausoleum of Haider Ali and Tipu Sultan, SH79, Doddapalya, Srirangapattana taluk, Mandya district, Karnataka, India",
            "longitude": "76.7139043",
            "latitude": "12.4100749",
            "blogLinks": [
                "http://www.mapsofindia.com/karnataka/tourism/hill-stations.html"
            ],
            "locType": "monument"
        },
        "halebeedu": {
            "closest_to": "nandi hills",
            "address": "Halebeedu Hagare Road, Harubihalli, Beluru taluk, Hassan district, Karnataka, 573121, India",
            "longitude": "76.000043",
            "latitude": "13.1681662",
            "blogLinks": [
                "http://travel.india.com/weekend-getaways/from-bangalore/distance-300-km/"
            ],
            "locType": "secondary"
        },
        "tunga river": {
            "closest_to": "chikmagalur",
            "address": "Tunga, Tirthahalli taluk, Shimoga district, Karnataka, India",
            "longitude": "75.3221835",
            "latitude": "13.6632221",
            "blogLinks": [
                "https://www.thrillophilia.com/places-to-visit-in-chikmagalur"
            ],
            "locType": "river"
        },
        "jaladarshini": {
            "closest_to": "nandi hills",
            "address": "Jaladarshini Layout, Bangalore Urban, Karnataka, India",
            "longitude": "77.5696419",
            "latitude": "13.0307999",
            "blogLinks": [
                "https://www.thrillophilia.com/places-to-visit-in-chikmagalur"
            ],
            "locType": "hamlet"
        },
        "tungabhadra river": {
            "closest_to": "chikmagalur",
            "address": "Tungabhadra, Gangavati taluku, Koppal district, Karnataka, India",
            "longitude": "76.4931607",
            "latitude": "15.3446123",
            "blogLinks": [
                "https://www.thrillophilia.com/places-to-visit-in-chikmagalur"
            ],
            "locType": "river"
        },
        "hesaraghatta lake": {
            "closest_to": "nandi hills",
            "address": "Hesaraghatta Lake, Muttakuru, Bangalore Urban, Karnataka, India",
            "longitude": "77.4911458333333",
            "latitude": "13.161625",
            "blogLinks": [
                "http://www.touristlink.com/india/karnataka/cat/picnic-spots.html"
            ],
            "locType": "reservoir"
        },
        "delhi": {
            "closest_to": "nandi hills",
            "address": "Outer Ring Road, Green Glen Layout, Iblur, Bengaluru, Bangalore Urban, Karnataka, 560001, India",
            "longitude": "77.6666062",
            "latitude": "12.9212473",
            "blogLinks": [
                "http://travel.india.com/weekend-getaways/from-bangalore/distance-300-km/"
            ],
            "locType": "trunk"
        },
        "brindavan gardens": {
            "closest_to": "nandi hills",
            "address": "Brindavan Gardens, Krishnaraja Sagara Road, Krushnarajasagara, Srirangapattana taluk, Mandya district, Karnataka, India",
            "longitude": "76.5741029405883",
            "latitude": "12.4208084",
            "blogLinks": [
                "http://travel.india.com/weekend-getaways/from-bangalore/distance-300-km/"
            ],
            "locType": "garden"
        },
        "bangalore rural": {
            "closest_to": "nandi hills",
            "address": "Bangalore Rural, Karnataka, India",
            "longitude": "77.3405587255873",
            "latitude": "13.17776215",
            "blogLinks": [
                "http://www.touristlink.com/india/karnataka/cat/picnic-spots.html"
            ],
            "locType": "administrative"
        },
        "bandipur": {
            "closest_to": "nandi hills",
            "address": "Bandipur, Gundlupet taluk, Chamarajanagar district, Karnataka, India",
            "longitude": "76.6285739",
            "latitude": "11.6662708",
            "blogLinks": [
                "https://www.quora.com/What-are-some-places-to-visit-in-Karnataka"
            ],
            "locType": "village"
        },
        "kalyani": {
            "closest_to": "nandi hills",
            "address": "Kalyani, Neeladri Road, Electronics City Phase 1, Bettadasana Pura, Bangalore Urban, Karnataka, 560100, India",
            "longitude": "77.6286090192686",
            "latitude": "12.8406466",
            "blogLinks": [
                "http://travel.india.com/weekend-getaways/from-bangalore/distance-300-km/"
            ],
            "locType": "water"
        },
        "mudigere": {
            "closest_to": "nandi hills",
            "address": "Mudigere, Aluru taluk, Hassan district, Karnataka, India",
            "longitude": "76.0185988",
            "latitude": "13.0093567",
            "blogLinks": [
                "https://www.thrillophilia.com/places-to-visit-in-chikmagalur",
                "http://www.theforest.co.in/places-to-visit.html",
                "https://www.quora.com/What-are-some-places-to-visit-in-Karnataka"
            ],
            "locType": "village"
        },
        "vellore": {
            "closest_to": "nandi hills",
            "address": "Karnataka Bank, Sathuvachari, NH48, Sathuvachari, Vellore, Vellore district, Tamil Nadu, 632014, India",
            "longitude": "79.1518812",
            "latitude": "12.9351366",
            "blogLinks": [
                "http://travel.india.com/weekend-getaways/from-bangalore/distance-300-km/"
            ],
            "locType": "bank"
        },
        "chikkaballapura": {
            "closest_to": "nandi hills",
            "address": "Chikkaballapura, Chikkaballapura taluk, Chikkaballapura district, Karnataka, 562101, India",
            "longitude": "77.7306866",
            "latitude": "13.4352549",
            "blogLinks": [
                "https://en.wikipedia.org/wiki/Chikkaballapur"
            ],
            "locType": "town"
        },
        "kammaradi": {
            "closest_to": "chikmagalur",
            "address": "Kammaradi, Tirthahalli taluk, Shimoga district, Karnataka, India",
            "longitude": "75.212405",
            "latitude": "13.5842349",
            "blogLinks": [
                "http://www.mapsofindia.com/karnataka/tourism/hill-stations.html"
            ],
            "locType": "village"
        },
        "karnataka": {
            "closest_to": "nandi hills",
            "address": "Karnataka, Shalivahana Road, Nazarbad, Mysuru, Mysuru taluk, Mysuru district, Karnataka, 570001, India",
            "longitude": "76.6639936",
            "latitude": "12.3084901",
            "blogLinks": [
                "http://www.indianholiday.com/blog/hill-stations-karnataka/",
                "http://www.mapsofindia.com/karnataka/tourism/hill-stations.html",
                "https://en.wikipedia.org/wiki/Chikkaballapur",
                "http://traveltriangle.com/blog/top-hill-stations-in-karnataka/",
                "https://www.thrillophilia.com/places-to-visit-in-chikmagalur",
                "http://travel.india.com/weekend-getaways/from-bangalore/distance-300-km/",
                "http://www.touristlink.com/india/karnataka/cat/picnic-spots.html",
                "https://www.triphobo.com/blog/places-to-visit-near-bangalore-in-monsoon",
                "https://www.quora.com/What-are-the-must-visit-places-in-Bangalore-for-a-teenager",
                "https://www.quora.com/What-are-some-places-to-visit-in-Karnataka",
                "http://www.theforest.co.in/places-to-visit.html"
            ],
            "locType": "atm"
        },
        "nilgiris": {
            "closest_to": "nandi hills",
            "address": "Nilgiris, Brigade Road, Tasker Town, Ashok Nagar, Bengaluru, Bangalore Urban, Karnataka, 560001, India",
            "longitude": "77.6069792",
            "latitude": "12.9725052",
            "blogLinks": [
                "http://travel.india.com/weekend-getaways/from-bangalore/distance-300-km/"
            ],
            "locType": "supermarket"
        },
        "ranganatha": {
            "closest_to": "nandi hills",
            "address": "Ranganatha Swamy Betta, Hasana taluk, Hassan district, Karnataka, India",
            "longitude": "76.1656215275047",
            "latitude": "13.14749975",
            "blogLinks": [
                "http://travel.india.com/weekend-getaways/from-bangalore/distance-300-km/"
            ],
            "locType": "hamlet"
        },
        "mandya": {
            "closest_to": "nandi hills",
            "address": "Mandya, Mandya taluk, Mandya district, Karnataka, 571401, India",
            "longitude": "76.8937392",
            "latitude": "12.5217836",
            "blogLinks": [
                "http://www.touristlink.com/india/karnataka/cat/picnic-spots.html"
            ],
            "locType": "town"
        },
        "kannada": {
            "closest_to": "chikmagalur",
            "address": "Dakshina Kannada, Karnataka, India",
            "longitude": "75.1008028650794",
            "latitude": "12.8114089",
            "blogLinks": [
                "https://www.quora.com/What-are-the-must-visit-places-in-Bangalore-for-a-teenager",
                "https://en.wikipedia.org/wiki/Chikkaballapur"
            ],
            "locType": "administrative"
        },
        "madikeri": {
            "closest_to": "nandi hills",
            "address": "Madikeri, Madikeri taluku, Kodagu, Karnataka, India",
            "longitude": "75.740031",
            "latitude": "12.4204003",
            "blogLinks": [
                "http://www.mapsofindia.com/karnataka/tourism/hill-stations.html"
            ],
            "locType": "town"
        },
        "kaveri": {
            "closest_to": "nandi hills",
            "address": "Kaveri, Kollegala taluk, Chamarajanagar district, Karnataka, India",
            "longitude": "77.0635531",
            "latitude": "12.1687878",
            "blogLinks": [
                "http://travel.india.com/weekend-getaways/from-bangalore/distance-300-km/"
            ],
            "locType": "river"
        },
        "vishnuvardhana": {
            "closest_to": "nandi hills",
            "address": "Vishnuvardhana Road, Chamarajapuram, Mysuru, Mysuru taluk, Mysuru district, Karnataka, 570001, India",
            "longitude": "76.6397313",
            "latitude": "12.2971671",
            "blogLinks": [
                "http://travel.india.com/weekend-getaways/from-bangalore/distance-300-km/"
            ],
            "locType": "residential"
        },
        "hoysaleswara": {
            "closest_to": "nandi hills",
            "address": "Hoysaleswara Temple, SH21, Halebidu, Beluru taluk, Hassan district, Karnataka, 573121, India",
            "longitude": "75.9941649",
            "latitude": "13.2127193",
            "blogLinks": [
                "http://travel.india.com/weekend-getaways/from-bangalore/distance-300-km/"
            ],
            "locType": "place_of_worship"
        },
        "coorg": {
            "closest_to": "nandi hills",
            "address": "Madikeri, Madikeri taluku, Kodagu, Karnataka, India",
            "longitude": "75.740031",
            "latitude": "12.4204003",
            "blogLinks": [
                "http://www.mapsofindia.com/karnataka/tourism/hill-stations.html",
                "http://www.touristlink.com/india/karnataka/cat/picnic-spots.html",
                "https://www.thrillophilia.com/places-to-visit-in-chikmagalur",
                "http://travel.india.com/weekend-getaways/from-bangalore/distance-300-km/",
                "http://traveltriangle.com/blog/top-hill-stations-in-karnataka/",
                "https://www.quora.com/What-are-some-places-to-visit-in-Karnataka"
            ],
            "locType": "town"
        },
        "singapore": {
            "closest_to": "nandi hills",
            "address": "Singapore Gardens, Vajrahalli, Bengaluru, Bangalore Urban, Karnataka, 560001, India",
            "longitude": "77.5483703",
            "latitude": "12.8861812",
            "blogLinks": [
                "https://www.quora.com/What-are-the-must-visit-places-in-Bangalore-for-a-teenager"
            ],
            "locType": "neighbourhood"
        },
        "kappe chennigaraya": {
            "closest_to": "nandi hills",
            "address": "Kappe Chennigaraya Temple, NH73, Navilahalli, Beluru taluk, Hassan district, Karnataka, India",
            "longitude": "75.8603867",
            "latitude": "13.1624691",
            "blogLinks": [
                "http://travel.india.com/weekend-getaways/from-bangalore/distance-300-km/"
            ],
            "locType": "archaeological_site"
        },
        "brahmagiri": {
            "closest_to": "chikmagalur",
            "address": "Brahmagiri, Madikeri taluku, Kodagu, Karnataka, India",
            "longitude": "75.490746",
            "latitude": "12.3868578",
            "blogLinks": [
                "https://www.thrillophilia.com/places-to-visit-in-chikmagalur"
            ],
            "locType": "peak"
        },
        "bangalore": {
            "closest_to": "nandi hills",
            "address": "Bengaluru, Bangalore Urban, Karnataka, 560001, India",
            "longitude": "77.5912997",
            "latitude": "12.9791198",
            "blogLinks": [
                "http://www.indianholiday.com/blog/hill-stations-karnataka/",
                "http://www.mapsofindia.com/karnataka/tourism/hill-stations.html",
                "https://en.wikipedia.org/wiki/Chikkaballapur",
                "http://traveltriangle.com/blog/top-hill-stations-in-karnataka/",
                "https://www.thrillophilia.com/places-to-visit-in-chikmagalur",
                "http://travel.india.com/weekend-getaways/from-bangalore/distance-300-km/",
                "http://www.touristlink.com/india/karnataka/cat/picnic-spots.html",
                "https://www.triphobo.com/blog/places-to-visit-near-bangalore-in-monsoon",
                "https://www.quora.com/What-are-the-must-visit-places-in-Bangalore-for-a-teenager",
                "http://www.indianholiday.com/tourist-attraction/karnataka/hill-stations-in-karnataka/nandi-hills.html"
            ],
            "locType": "city"
        },
        "ranganathaswamy": {
            "closest_to": "nandi hills",
            "address": "Sri Ranganathaswamy Temple, 5th Cross Road, Mamulpet, Chickpet, Bengaluru, Bangalore Urban, Karnataka, 560001, India",
            "longitude": "77.5792557",
            "latitude": "12.970304",
            "blogLinks": [
                "http://travel.india.com/weekend-getaways/from-bangalore/distance-300-km/"
            ],
            "locType": "place_of_worship"
        },
        "chikkamagaluru": {
            "closest_to": "nandi hills",
            "address": "Chikkamagaluru, Chikkamagaluru taluku, Chikkamagaluru district, Karnataka, 577101, India",
            "longitude": "75.7738743",
            "latitude": "13.318014",
            "blogLinks": [
                "http://www.touristlink.com/india/karnataka/cat/picnic-spots.html"
            ],
            "locType": "city"
        },
        "jog falls": {
            "closest_to": "chikmagalur",
            "address": "Jog Falls, Joga - Kargal, Sagara taluk, Shimoga district, Karnataka, India",
            "longitude": "74.8128715",
            "latitude": "14.2276106",
            "blogLinks": [
                "http://www.touristlink.com/india/karnataka/cat/picnic-spots.html"
            ],
            "locType": "locality"
        },
        "biligiri hills": {
            "closest_to": "nandi hills",
            "address": "Biligiri Rangana Betta, Yalanduru taluk, Chamarajanagar district, Karnataka, India",
            "longitude": "77.144107",
            "latitude": "11.984397",
            "blogLinks": [
                "http://www.indianholiday.com/blog/hill-stations-karnataka/",
                "http://traveltriangle.com/blog/top-hill-stations-in-karnataka/"
            ],
            "locType": "peak"
        },
        "yagachi river": {
            "closest_to": "nandi hills",
            "address": "Yagachi, Beluru taluk, Hassan district, Karnataka, India",
            "longitude": "75.950911",
            "latitude": "13.0658494",
            "blogLinks": [
                "http://travel.india.com/weekend-getaways/from-bangalore/distance-300-km/"
            ],
            "locType": "river"
        },
        "biligiri": {
            "closest_to": "nandi hills",
            "address": "Biligiri Rangana Betta, Yalanduru taluk, Chamarajanagar district, Karnataka, India",
            "longitude": "77.144107",
            "latitude": "11.984397",
            "blogLinks": [
                "http://traveltriangle.com/blog/top-hill-stations-in-karnataka/"
            ],
            "locType": "peak"
        },
        "dakshina kashi": {
            "closest_to": "chikmagalur",
            "address": "Sahasralingeshwara Temple, Car Street, Uppinangadi, Putturu taluk, Dakshina Kannada, Karnataka, India",
            "longitude": "75.2439609",
            "latitude": "12.838765",
            "blogLinks": [
                "http://www.theforest.co.in/places-to-visit.html"
            ],
            "locType": "place_of_worship"
        },
        "bannerghatta national park": {
            "closest_to": "nandi hills",
            "address": "Bannerghatta National Park, Anekal Road, Begihalli, Bangalore Urban, Karnataka, 560076, India",
            "longitude": "77.5722783830694",
            "latitude": "12.77900335",
            "blogLinks": [
                "http://www.touristlink.com/india/karnataka/cat/picnic-spots.html"
            ],
            "locType": "national_park"
        },
        "goa": {
            "closest_to": "nandi hills",
            "address": "Carnival De Goa, Bhaskaran Road, Gupta Layout, Halasuru, Bengaluru, Bangalore Urban, Karnataka, 560001, India",
            "longitude": "77.6200027",
            "latitude": "12.9750047",
            "blogLinks": [
                "http://traveltriangle.com/blog/top-hill-stations-in-karnataka/"
            ],
            "locType": "restaurant"
        },
        "bhadra river": {
            "closest_to": "nandi hills",
            "address": "Bhadra, Chikkamagaluru taluku, Chikkamagaluru district, Karnataka, India",
            "longitude": "75.527118",
            "latitude": "13.4888356",
            "blogLinks": [
                "https://www.thrillophilia.com/places-to-visit-in-chikmagalur"
            ],
            "locType": "river"
        },
        "ooty": {
            "closest_to": "nandi hills",
            "address": "Ooty Road, Vidyaranyapuram, Mysuru, Mysuru taluk, Mysuru district, Karnataka, 570001, India",
            "longitude": "76.6586807",
            "latitude": "12.2774807",
            "blogLinks": [
                "http://travel.india.com/weekend-getaways/from-bangalore/distance-300-km/",
                "https://www.triphobo.com/blog/places-to-visit-near-bangalore-in-monsoon"
            ],
            "locType": "primary"
        },
        "nandi hills": {
            "closest_to": "nandi hills",
            "address": "Nandi Upahara, Nandhi Hills Road, Kottige Thimmanahalli, Devanahalli taluk, Bangalore Rural, Karnataka, India",
            "longitude": "77.7194741670394",
            "latitude": "13.268142",
            "blogLinks": [
                "http://www.indianholiday.com/blog/hill-stations-karnataka/",
                "http://www.mapsofindia.com/karnataka/tourism/hill-stations.html",
                "https://en.wikipedia.org/wiki/Chikkaballapur",
                "http://traveltriangle.com/blog/top-hill-stations-in-karnataka/",
                "http://travel.india.com/weekend-getaways/from-bangalore/distance-300-km/",
                "http://www.buzzntravel.com/nandi-hills",
                "https://www.triphobo.com/blog/places-to-visit-near-bangalore-in-monsoon",
                "https://www.quora.com/What-are-the-must-visit-places-in-Bangalore-for-a-teenager",
                "https://www.quora.com/What-are-some-places-to-visit-in-Karnataka",
                "http://www.indianholiday.com/tourist-attraction/karnataka/hill-stations-in-karnataka/nandi-hills.html"
            ],
            "locType": "hotel"
        },
        "hassan": {
            "closest_to": "nandi hills",
            "address": "Hassan, Hasana taluk, Hassan district, Karnataka, 573201, India",
            "longitude": "76.0992703",
            "latitude": "13.0070817",
            "blogLinks": [
                "http://travel.india.com/weekend-getaways/from-bangalore/distance-300-km/"
            ],
            "locType": "town"
        },
        "mysore": {
            "closest_to": "nandi hills",
            "address": "Mysuru, Mysuru taluk, Mysuru district, Karnataka, 570001, India",
            "longitude": "76.6553609",
            "latitude": "12.3051828",
            "blogLinks": [
                "http://www.indianholiday.com/blog/hill-stations-karnataka/",
                "http://travel.india.com/weekend-getaways/from-bangalore/distance-300-km/",
                "http://www.touristlink.com/india/karnataka/cat/picnic-spots.html"
            ],
            "locType": "city"
        },
        "kaveri river": {
            "closest_to": "nandi hills",
            "address": "Kaveri, Malavalli taluk, Mandya district, Karnataka, India",
            "longitude": "77.1600751",
            "latitude": "12.2873835",
            "blogLinks": [
                "http://travel.india.com/weekend-getaways/from-bangalore/distance-300-km/"
            ],
            "locType": "river"
        },
        "mercara": {
            "closest_to": "nandi hills",
            "address": "Madikeri, Madikeri taluku, Kodagu, Karnataka, India",
            "longitude": "75.740031",
            "latitude": "12.4204003",
            "blogLinks": [
                "http://www.touristlink.com/india/karnataka/cat/picnic-spots.html"
            ],
            "locType": "town"
        },
        "river hemavathi": {
            "closest_to": "nandi hills",
            "address": "Hemavathi Reservoir, Hasana taluk, Hassan district, Karnataka, India",
            "longitude": "76.0556931",
            "latitude": "12.8267596",
            "blogLinks": [
                "http://travel.india.com/weekend-getaways/from-bangalore/distance-300-km/"
            ],
            "locType": "dam"
        },
        "kudremukh national park": {
            "closest_to": "chikmagalur",
            "address": "Kudremukh National Park, SH66, Sringeri taluku, Chikkamagaluru district, Karnataka, India",
            "longitude": "75.1828713712862",
            "latitude": "13.25397485",
            "blogLinks": [
                "https://www.thrillophilia.com/places-to-visit-in-chikmagalur"
            ],
            "locType": "national_park"
        },
        "kudremukh": {
            "closest_to": "chikmagalur",
            "address": "Kudremukha, Mudigere taluk, Chikkamagaluru district, Karnataka, India",
            "longitude": "75.2523304",
            "latitude": "13.2144007",
            "blogLinks": [
                "https://www.thrillophilia.com/places-to-visit-in-chikmagalur"
            ],
            "locType": "village"
        },
        "sakleshpur": {
            "closest_to": "nandi hills",
            "address": "Sakaleshpura, Sakaleshapura taluk, Hassan district, Karnataka, 573134, India",
            "longitude": "75.7862318",
            "latitude": "12.9434349",
            "blogLinks": [
                "http://www.theforest.co.in/places-to-visit.html",
                "http://travel.india.com/weekend-getaways/from-bangalore/distance-300-km/"
            ],
            "locType": "town"
        },
        "shringeri": {
            "closest_to": "chikmagalur",
            "address": "Shringeri, Hanagal taluk, Haveri district, Karnataka, India",
            "longitude": "75.0621168",
            "latitude": "14.7221214",
            "blogLinks": [
                "https://www.thrillophilia.com/places-to-visit-in-chikmagalur"
            ],
            "locType": "village"
        },
        "nalur": {
            "closest_to": "chikmagalur",
            "address": "Nalur, Tirthahalli taluk, Shimoga district, Karnataka, India",
            "longitude": "75.1336929",
            "latitude": "13.5941784",
            "blogLinks": [
                "http://www.mapsofindia.com/karnataka/tourism/hill-stations.html"
            ],
            "locType": "village"
        },
        "chennakesava": {
            "closest_to": "nandi hills",
            "address": "Chennakesava Temple, NH73, Navilahalli, Beluru taluk, Hassan district, Karnataka, India",
            "longitude": "75.8603311",
            "latitude": "13.1629239",
            "blogLinks": [
                "http://travel.india.com/weekend-getaways/from-bangalore/distance-300-km/"
            ],
            "locType": "place_of_worship"
        },
        "north": {
            "closest_to": "nandi hills",
            "address": "N, Chaithanya Samarpan, Kadugodi, Kannamangala, Bangalore Urban, Karnataka, 560066, India",
            "longitude": "77.7660547",
            "latitude": "13.0217151",
            "blogLinks": [
                "https://www.quora.com/What-are-some-places-to-visit-in-Karnataka"
            ],
            "locType": "service"
        },
        "national highway 48": {
            "closest_to": "chikmagalur",
            "address": "Hubballi Dharwad Bypass, Itigatti, Dharawada taluku, Dharwad district, Karnataka, India",
            "longitude": "75.025458",
            "latitude": "15.377164",
            "blogLinks": [
                "http://travel.india.com/weekend-getaways/from-bangalore/distance-300-km/"
            ],
            "locType": "trunk"
        },
        "belure": {
            "closest_to": "nandi hills",
            "address": "Belure Ambedkar Nagar, Bangalore Urban, Karnataka, India",
            "longitude": "77.6609288",
            "latitude": "12.9460886",
            "blogLinks": [
                "http://travel.india.com/weekend-getaways/from-bangalore/distance-300-km/"
            ],
            "locType": "hamlet"
        },
        "sri chamarajendra zoological gardens": {
            "closest_to": "nandi hills",
            "address": "Sri Chamarajendra Zoological Garden, Kozhikode - Kollegal Highway, Race Course, Mysuru, Mysuru taluk, Mysuru district, Karnataka, 570001, India",
            "longitude": "76.6682662743162",
            "latitude": "12.3006384",
            "blogLinks": [
                "http://www.touristlink.com/india/karnataka/cat/picnic-spots.html"
            ],
            "locType": "zoo"
        },
        "kemmangundi": {
            "closest_to": "nandi hills",
            "address": "Kemmannagundi, Tarikere taluku, Chikkamagaluru district, Karnataka, India",
            "longitude": "75.7520082",
            "latitude": "13.5463048",
            "blogLinks": [
                "https://www.thrillophilia.com/places-to-visit-in-chikmagalur"
            ],
            "locType": "village"
        },
        "kumta": {
            "closest_to": "chikmagalur",
            "address": "Kumta, Kumata taluk, Uttara Kannada, Karnataka, India",
            "longitude": "74.4107617",
            "latitude": "14.4261647",
            "blogLinks": [
                "http://traveltriangle.com/blog/top-hill-stations-in-karnataka/"
            ],
            "locType": "town"
        },
        "veerabhadreshwara": {
            "closest_to": "nandi hills",
            "address": "Sri Veerabhadreshwara Temple, 4th Cross, BEL Colony, Thindlu, Bengaluru, Bangalore Urban, Karnataka, 560001, India",
            "longitude": "77.5667309",
            "latitude": "13.0719157",
            "blogLinks": [
                "http://www.theforest.co.in/places-to-visit.html"
            ],
            "locType": "place_of_worship"
        },
        "nandi hills of karnataka": {
            "closest_to": "nandi hills",
            "address": "Nandi Hills Playground, Nandi Hill Road, Kuduvati, Chikkaballapura taluk, Chikkaballapura district, Karnataka, India",
            "longitude": "77.6841533",
            "latitude": "13.3701322",
            "blogLinks": [
                "http://www.indianholiday.com/tourist-attraction/karnataka/hill-stations-in-karnataka/nandi-hills.html"
            ],
            "locType": "playground"
        },
        "belur": {
            "closest_to": "nandi hills",
            "address": "Belur, Beluru taluk, Hassan district, Karnataka, 573115, India",
            "longitude": "75.8634851",
            "latitude": "13.1645671",
            "blogLinks": [
                "http://travel.india.com/weekend-getaways/from-bangalore/distance-300-km/"
            ],
            "locType": "town"
        },
        "tippu": {
            "closest_to": "nandi hills",
            "address": "Tippu Drop, Nandi Hill Road, Kuduvati, Chikkaballapura taluk, Chikkaballapura district, Karnataka, India",
            "longitude": "77.681081",
            "latitude": "13.3681232",
            "blogLinks": [
                "https://en.wikipedia.org/wiki/Chikkaballapur"
            ],
            "locType": "attraction"
        },
        "nandi &": {
            "closest_to": "nandi hills",
            "address": "Nandi, Tarikere taluku, Chikkamagaluru district, Karnataka, India",
            "longitude": "75.8556266",
            "latitude": "13.6434094",
            "blogLinks": [
                "https://en.wikipedia.org/wiki/Chikkaballapur"
            ],
            "locType": "village"
        },
        "kalabhairava": {
            "closest_to": "nandi hills",
            "address": "Kalabhairava Temple, Gokhale Road, Rajarajeshwari Nagar, Patanagere, Bangalore Urban, Karnataka, 560098, India",
            "longitude": "77.5244341",
            "latitude": "12.9136589",
            "blogLinks": [
                "http://www.theforest.co.in/places-to-visit.html"
            ],
            "locType": "place_of_worship"
        },
        "kodagu": {
            "closest_to": "chikmagalur",
            "address": "Kodagu, Karnataka, India",
            "longitude": "75.6677235950852",
            "latitude": "12.38117345",
            "blogLinks": [
                "http://www.mapsofindia.com/karnataka/tourism/hill-stations.html",
                "http://travel.india.com/weekend-getaways/from-bangalore/distance-300-km/"
            ],
            "locType": "administrative"
        },
        "murudeshwar": {
            "closest_to": "chikmagalur",
            "address": "Murudeshwara, Bhatkala taluk, Uttara Kannada, Karnataka, 581350, India",
            "longitude": "74.4883354",
            "latitude": "14.0959549",
            "blogLinks": [
                "https://www.thrillophilia.com/places-to-visit-in-chikmagalur"
            ],
            "locType": "town"
        },
        "kodimanchanahalli": {
            "closest_to": "nandi hills",
            "address": "Kodimanchanahalli Gate, Devanahalli highway, Chikkaobadenahalli, Devanahalli taluk, Bangalore Rural, Karnataka, India",
            "longitude": "77.7002643",
            "latitude": "13.258588",
            "blogLinks": [
                "https://en.wikipedia.org/wiki/Chikkaballapur"
            ],
            "locType": "bus_stop"
        },
        "mullayanagiri range": {
            "closest_to": "nandi hills",
            "address": "Mullayyanagiri, Chikkamagaluru, Chikkamagaluru taluku, Chikkamagaluru district, Karnataka, 577101, India",
            "longitude": "75.7214034",
            "latitude": "13.3909217",
            "blogLinks": [
                "https://www.quora.com/What-are-some-places-to-visit-in-Karnataka",
                "http://traveltriangle.com/blog/top-hill-stations-in-karnataka/"
            ],
            "locType": "peak"
        },
        "ramanagara": {
            "closest_to": "chikmagalur",
            "address": "Ramanagara, Khanapura taluku, Belgaum district, Karnataka, India",
            "longitude": "74.4900863",
            "latitude": "15.422047",
            "blogLinks": [
                "http://travel.india.com/weekend-getaways/from-bangalore/distance-300-km/"
            ],
            "locType": "town"
        },
        "arkavathy river": {
            "closest_to": "nandi hills",
            "address": "Arkavathy Layout, Dasarahalli, Bangalore Urban, Karnataka, India",
            "longitude": "77.6037009",
            "latitude": "13.0594787",
            "blogLinks": [
                "http://travel.india.com/weekend-getaways/from-bangalore/distance-300-km/"
            ],
            "locType": "suburb"
        },
        "srirangapatna": {
            "closest_to": "nandi hills",
            "address": "Srirangapatna, Srirangapattana taluk, Mandya district, Karnataka, 571438, India",
            "longitude": "76.6850743",
            "latitude": "12.4225604",
            "blogLinks": [
                "http://travel.india.com/weekend-getaways/from-bangalore/distance-300-km/"
            ],
            "locType": "town"
        },
        "india": {
            "closest_to": "chikmagalur",
            "address": "Karnataka, India",
            "longitude": "75.7223521",
            "latitude": "14.5203896",
            "blogLinks": [
                "http://www.mapsofindia.com/karnataka/tourism/hill-stations.html",
                "https://en.wikipedia.org/wiki/Chikkaballapur",
                "http://www.touristlink.com/india/karnataka/cat/picnic-spots.html",
                "http://travel.india.com/weekend-getaways/from-bangalore/distance-300-km/",
                "https://www.triphobo.com/blog/places-to-visit-near-bangalore-in-monsoon",
                "https://www.quora.com/What-are-the-must-visit-places-in-Bangalore-for-a-teenager",
                "https://www.quora.com/What-are-some-places-to-visit-in-Karnataka"
            ],
            "locType": "administrative"
        },
        "kutta": {
            "closest_to": "nandi hills",
            "address": "Kutta, Virajpet taluk, Kodagu, Karnataka, India",
            "longitude": "76.0491296",
            "latitude": "11.9696155",
            "blogLinks": [
                "http://www.mapsofindia.com/karnataka/tourism/hill-stations.html"
            ],
            "locType": "village"
        }
    },
    "chikmagalur": {
        "place_id": "1426840",
        "osm_id": "316417001",
        "icon": "https://nominatim.openstreetmap.org/images/mapicons/poi_boundary_administrative.p.20.png",
        "osm_type": "node",
        "licence": "Data \u00a9 OpenStreetMap contributors, ODbL 1.0. http://www.openstreetmap.org/copyright",
        "display_name": "Chikmagalur, Chikkamagaluru district, Karnataka, India",
        "type": "county",
        "lon": "75.5",
        "boundingbox": [
            "12.86",
            "14.14",
            "74.86",
            "76.14"
        ],
        "importance": 0.65,
        "lat": "13.5",
        "class": "place"
    }
}