{
    "chitradurga": {
        "lat": "14.2266443",
        "class": "place",
        "importance": 0.5,
        "osm_type": "node",
        "lon": "76.4005122",
        "place_id": "4897275",
        "display_name": "Chitradurga, Chitradurga taluku, Chitradurga district, Karnataka, 577500, India",
        "osm_id": "571409087",
        "boundingbox": [
            "14.1866443",
            "14.2666443",
            "76.3605122",
            "76.4405122"
        ],
        "type": "town",
        "licence": "Data \u00a9 OpenStreetMap contributors, ODbL 1.0. http://www.openstreetmap.org/copyright",
        "icon": "https://nominatim.openstreetmap.org/images/mapicons/poi_place_town.p.20.png"
    },
    "chikmagalur": {
        "lat": "13.5",
        "class": "place",
        "importance": 0.65,
        "osm_type": "node",
        "lon": "75.5",
        "place_id": "1426840",
        "display_name": "Chikmagalur, Chikkamagaluru district, Karnataka, India",
        "osm_id": "316417001",
        "boundingbox": [
            "12.86",
            "14.14",
            "74.86",
            "76.14"
        ],
        "type": "county",
        "licence": "Data \u00a9 OpenStreetMap contributors, ODbL 1.0. http://www.openstreetmap.org/copyright",
        "icon": "https://nominatim.openstreetmap.org/images/mapicons/poi_boundary_administrative.p.20.png"
    },
    "mentions": {
        "chikkamagalur": {
            "blogLinks": [
                "http://www.nivalink.com/destination/chikmagalur",
                "https://en.wikipedia.org/wiki/Chikkamagaluru_district"
            ],
            "longitude": "75.789501",
            "address": "Chikkamagalur, SH57, Hosamane Badavane, Hiremagaluru, Chikkamagaluru taluku, Chikkamagaluru district, Karnataka, 577101, India",
            "latitude": "13.3030706",
            "locType": "station",
            "closest_to": "chitradurga"
        },
        "vidyashankara temple": {
            "blogLinks": [
                "https://en.wikipedia.org/wiki/Chikkamagaluru_district"
            ],
            "longitude": "75.2514472909836",
            "address": "Sri Vidyashankara Swamy Temple, Sri Vidyateertha Setu, Sringeri, Sringeri taluku, Chikkamagaluru district, Karnataka, 577592, India",
            "latitude": "13.41567005",
            "locType": "place_of_worship",
            "closest_to": "chikmagalur"
        },
        "maradi": {
            "blogLinks": [
                "http://wikitravel.org/en/Chikmagalur"
            ],
            "longitude": "76.0757799",
            "address": "Maradi, Arakalagudu taluk, Hassan district, Karnataka, India",
            "latitude": "12.8130205",
            "locType": "village",
            "closest_to": "chikmagalur"
        },
        "vedavati river": {
            "blogLinks": [
                "http://www.holidayiq.com/Chitradurga-Sightseeing-650.html",
                "https://en.wikipedia.org/wiki/Chitradurga_district"
            ],
            "longitude": "76.1347937",
            "address": "Vedavati, Kaduru taluk, Chikkamagaluru district, Karnataka, India",
            "latitude": "13.6048777",
            "locType": "river",
            "closest_to": "chitradurga"
        },
        "kalasa": {
            "blogLinks": [
                "https://en.wikipedia.org/wiki/Chikkamagaluru_district",
                "http://wikitravel.org/en/Chikmagalur"
            ],
            "longitude": "75.3582366",
            "address": "Kalasa, Mudigere taluk, Chikkamagaluru district, Karnataka, 577124, India",
            "latitude": "13.2322235",
            "locType": "town",
            "closest_to": "chikmagalur"
        },
        "bellary district": {
            "blogLinks": [
                "https://en.wikipedia.org/wiki/Chitradurga_district"
            ],
            "longitude": "76.7137978546465",
            "address": "Bellary district, Karnataka, India",
            "latitude": "15.20597305",
            "locType": "administrative",
            "closest_to": "chitradurga"
        },
        "india": {
            "blogLinks": [
                "https://www.ixigo.com/places-to-visit-see-in-chikmagalur-lp-1137712",
                "http://www.nivalink.com/destination/chitradurga",
                "http://www.mapsofindia.com/maps/karnataka/",
                "https://en.wikipedia.org/wiki/Chikkamagaluru_district",
                "http://www.mygola.com/road-trip-from-bangalore-to-chikmagalur/q9090",
                "http://wikitravel.org/en/Chikmagalur",
                "http://distancecalculator.globefeed.com/India_Distance_Calculator.asp?state=19",
                "http://www.nivalink.com/destination/chikmagalur",
                "http://withoutafuss.com/the-glory-of-karnataka-chitradurga-shimoga-chikmagalur-belur-mysore1/",
                "https://en.wikipedia.org/wiki/Chitradurga_district"
            ],
            "longitude": "75.7223521",
            "address": "Karnataka, India",
            "latitude": "14.5203896",
            "locType": "administrative",
            "closest_to": "chitradurga"
        },
        "madakari nayaka": {
            "blogLinks": [
                "https://en.wikipedia.org/wiki/Chitradurga_district"
            ],
            "longitude": "76.4026941",
            "address": "Madakari Nayaka School, SH48, Lakshmisagara, Chitradurga, Chitradurga taluku, Chitradurga district, Karnataka, 577500, India",
            "latitude": "14.2243599",
            "locType": "school",
            "closest_to": "chitradurga"
        },
        "vedavati": {
            "blogLinks": [
                "http://wikitravel.org/en/Chikmagalur"
            ],
            "longitude": "76.1347937",
            "address": "Vedavati, Kaduru taluk, Chikkamagaluru district, Karnataka, India",
            "latitude": "13.6048777",
            "locType": "river",
            "closest_to": "chitradurga"
        },
        "ranganathaswamy temple": {
            "blogLinks": [
                "http://www.holidayiq.com/Chitradurga-Sightseeing-650.html"
            ],
            "longitude": "76.1812411",
            "address": "Ranganathaswamy Temple, Steps to Ranganathaswami Temple, Halekote, Hole Narasipura taluk, Hassan district, Karnataka, 573211, India",
            "latitude": "12.854149",
            "locType": "place_of_worship",
            "closest_to": "chikmagalur"
        },
        "haveri": {
            "blogLinks": [
                "http://www.mapsofindia.com/maps/karnataka/"
            ],
            "longitude": "75.3996731",
            "address": "Haveri, Haveri taluku, Haveri district, Karnataka, 581110, India",
            "latitude": "14.7874825",
            "locType": "town",
            "closest_to": "chitradurga"
        },
        "bababudangiri": {
            "blogLinks": [
                "https://www.thrillophilia.com/places-to-visit-in-chikmagalur"
            ],
            "longitude": "75.7486618",
            "address": "Bababudangiri Road, Inam Dattatreya Pitha, Chikkamagaluru taluku, Chikkamagaluru district, Karnataka, India",
            "latitude": "13.4297401",
            "locType": "tertiary",
            "closest_to": "chitradurga"
        },
        "bharamagiri": {
            "blogLinks": [
                "https://en.wikipedia.org/wiki/Chitradurga_district"
            ],
            "longitude": "76.4993709",
            "address": "Bharamagiri, Hiriyuru taluk, Chitradurga district, Karnataka, India",
            "latitude": "13.9288556",
            "locType": "village",
            "closest_to": "chitradurga"
        },
        "netravati": {
            "blogLinks": [
                "https://en.wikipedia.org/wiki/Chikkamagaluru_district"
            ],
            "longitude": "75.1562182",
            "address": "Netravati, Bantwal taluk, Dakshina Kannada, Karnataka, India",
            "latitude": "12.8537655",
            "locType": "river",
            "closest_to": "chikmagalur"
        },
        "us": {
            "blogLinks": [
                "https://en.wikipedia.org/wiki/Chikkamagaluru_district",
                "https://en.wikipedia.org/wiki/Chitradurga_district"
            ],
            "longitude": "75.7223521",
            "address": "Karnataka, India",
            "latitude": "14.5203896",
            "locType": "administrative",
            "closest_to": "chitradurga"
        },
        "koppa": {
            "blogLinks": [
                "https://en.wikipedia.org/wiki/Chikkamagaluru_district"
            ],
            "longitude": "75.3633986",
            "address": "Koppa, Koppa taluk, Chikkamagaluru district, Karnataka, India",
            "latitude": "13.533207",
            "locType": "town",
            "closest_to": "chikmagalur"
        },
        "birur": {
            "blogLinks": [
                "https://en.wikipedia.org/wiki/Chikkamagaluru_district"
            ],
            "longitude": "75.9731786",
            "address": "Birur Junction, NH69, Byagadehalli, Kaduru taluk, Chikkamagaluru district, Karnataka, 577548, India",
            "latitude": "13.5928214",
            "locType": "station",
            "closest_to": "chitradurga"
        },
        "chitrakaldurga": {
            "blogLinks": [
                "https://en.wikipedia.org/wiki/Chitradurga_district"
            ],
            "longitude": "76.3948635401208",
            "address": "Chitradurga Fort, Kote Road, Devalagiri 1st Phase, Chitradurga, Chitradurga taluku, Chitradurga district, Karnataka, 577500, India",
            "latitude": "14.21296355",
            "locType": "attraction",
            "closest_to": "chitradurga"
        },
        "tumkur": {
            "blogLinks": [
                "https://en.wikipedia.org/wiki/Chikkamagaluru_district",
                "http://wikitravel.org/en/Chikmagalur"
            ],
            "longitude": "77.0002445",
            "address": "Tumakuru, Tumkur district, Karnataka, India",
            "latitude": "13.4999406",
            "locType": "county",
            "closest_to": "chitradurga"
        },
        "chitradurga district": {
            "blogLinks": [
                "http://wikitravel.org/en/Chikmagalur",
                "https://en.wikipedia.org/wiki/Chikkamagaluru_district",
                "http://www.holidayiq.com/Chitradurga-Sightseeing-650.html",
                "https://en.wikipedia.org/wiki/Chitradurga_district"
            ],
            "longitude": "76.5299366059272",
            "address": "Chitradurga district, Karnataka, India",
            "latitude": "14.3051049",
            "locType": "administrative",
            "closest_to": "chitradurga"
        },
        "chikkamagaluru": {
            "blogLinks": [
                "https://en.wikipedia.org/wiki/Chikkamagaluru_district",
                "http://wikitravel.org/en/Chikmagalur"
            ],
            "longitude": "75.7738743",
            "address": "Chikkamagaluru, Chikkamagaluru taluku, Chikkamagaluru district, Karnataka, 577101, India",
            "latitude": "13.318014",
            "locType": "city",
            "closest_to": "chitradurga"
        },
        "kudremukh": {
            "blogLinks": [
                "https://en.wikipedia.org/wiki/Chikkamagaluru_district",
                "https://www.thrillophilia.com/places-to-visit-in-chikmagalur",
                "http://wikitravel.org/en/Chikmagalur"
            ],
            "longitude": "75.2523304",
            "address": "Kudremukha, Mudigere taluk, Chikkamagaluru district, Karnataka, India",
            "latitude": "13.2144007",
            "locType": "village",
            "closest_to": "chikmagalur"
        },
        "mullayanagiri": {
            "blogLinks": [
                "http://withoutafuss.com/the-glory-of-karnataka-chitradurga-shimoga-chikmagalur-belur-mysore1/"
            ],
            "longitude": "75.7214034",
            "address": "Mullayyanagiri, Chikkamagaluru, Chikkamagaluru taluku, Chikkamagaluru district, Karnataka, 577101, India",
            "latitude": "13.3909217",
            "locType": "peak",
            "closest_to": "chitradurga"
        },
        "kudremukh national park": {
            "blogLinks": [
                "https://www.thrillophilia.com/places-to-visit-in-chikmagalur",
                "https://en.wikipedia.org/wiki/Chikkamagaluru_district"
            ],
            "longitude": "75.1828713712862",
            "address": "Kudremukh National Park, SH66, Sringeri taluku, Chikkamagaluru district, Karnataka, India",
            "latitude": "13.25397485",
            "locType": "national_park",
            "closest_to": "chikmagalur"
        },
        "kaimara": {
            "blogLinks": [
                "http://wikitravel.org/en/Chikmagalur"
            ],
            "longitude": "75.7448654",
            "address": "Kaimara, Chikkamagaluru taluku, Chikkamagaluru district, Karnataka, India",
            "latitude": "13.3713857",
            "locType": "village",
            "closest_to": "chitradurga"
        },
        "hebbe": {
            "blogLinks": [
                "http://wikitravel.org/en/Chikmagalur"
            ],
            "longitude": "75.7253701",
            "address": "Hebbe falls, Kemmannagundi Road, Attigundi, Chikkamagaluru taluku, Chikkamagaluru district, Karnataka, India",
            "latitude": "13.5414025",
            "locType": "attraction",
            "closest_to": "chitradurga"
        },
        "tungabhadra": {
            "blogLinks": [
                "https://en.wikipedia.org/wiki/Chikkamagaluru_district"
            ],
            "longitude": "76.4931607",
            "address": "Tungabhadra, Gangavati taluku, Koppal district, Karnataka, India",
            "latitude": "15.3446123",
            "locType": "river",
            "closest_to": "chitradurga"
        },
        "tumkur district": {
            "blogLinks": [
                "https://en.wikipedia.org/wiki/Chitradurga_district"
            ],
            "longitude": "76.8817530420764",
            "address": "Tumkur district, Karnataka, India",
            "latitude": "13.4176169",
            "locType": "administrative",
            "closest_to": "chitradurga"
        },
        "ishwara": {
            "blogLinks": [
                "https://en.wikipedia.org/wiki/Chikkamagaluru_district"
            ],
            "longitude": "75.2332378827571",
            "address": "Ishwara Temple, Tirthamuthur Road, Tirthamutturu, Tirthahalli taluk, Shimoga district, Karnataka, India",
            "latitude": "13.6133915",
            "locType": "place_of_worship",
            "closest_to": "chikmagalur"
        },
        "kalaseshwara": {
            "blogLinks": [
                "https://en.wikipedia.org/wiki/Chikkamagaluru_district"
            ],
            "longitude": "75.363446975",
            "address": "Kalaseshwara Temple, SH66, Kalasa, Mudigere taluk, Chikkamagaluru district, Karnataka, 577124, India",
            "latitude": "13.23228505",
            "locType": "place_of_worship",
            "closest_to": "chikmagalur"
        },
        "coorg": {
            "blogLinks": [
                "https://www.thrillophilia.com/places-to-visit-in-chikmagalur"
            ],
            "longitude": "75.740031",
            "address": "Madikeri, Madikeri taluku, Kodagu, Karnataka, India",
            "latitude": "12.4204003",
            "locType": "town",
            "closest_to": "chikmagalur"
        },
        "davanagere district": {
            "blogLinks": [
                "https://en.wikipedia.org/wiki/Chitradurga_district"
            ],
            "longitude": "75.8904782659728",
            "address": "Davanagere district, Karnataka, India",
            "latitude": "14.37090835",
            "locType": "administrative",
            "closest_to": "chitradurga"
        },
        "dakshina kannada": {
            "blogLinks": [
                "http://www.mapsofindia.com/maps/karnataka/",
                "https://en.wikipedia.org/wiki/Chikkamagaluru_district"
            ],
            "longitude": "75.1008028650794",
            "address": "Dakshina Kannada, Karnataka, India",
            "latitude": "12.8114089",
            "locType": "administrative",
            "closest_to": "chikmagalur"
        },
        "halebid": {
            "blogLinks": [
                "http://www.mygola.com/road-trip-from-bangalore-to-chikmagalur/q9090"
            ],
            "longitude": "75.9918793",
            "address": "Halebidu, Beluru taluk, Hassan district, Karnataka, 573121, India",
            "latitude": "13.2167959",
            "locType": "village",
            "closest_to": "chitradurga"
        },
        "manjarabad fort": {
            "blogLinks": [
                "http://www.mygola.com/road-trip-from-bangalore-to-chikmagalur/q9090"
            ],
            "longitude": "75.7580572896098",
            "address": "Manjarabad Fort, SH27, Hullahalli, Sakaleshapura taluk, Hassan district, Karnataka, 573134, India",
            "latitude": "12.9173302",
            "locType": "attraction",
            "closest_to": "chikmagalur"
        },
        "kodagu": {
            "blogLinks": [
                "http://www.mapsofindia.com/maps/karnataka/"
            ],
            "longitude": "75.6677235950852",
            "address": "Kodagu, Karnataka, India",
            "latitude": "12.38117345",
            "locType": "administrative",
            "closest_to": "chikmagalur"
        },
        "tunga river": {
            "blogLinks": [
                "https://www.thrillophilia.com/places-to-visit-in-chikmagalur"
            ],
            "longitude": "75.3221835",
            "address": "Tunga, Tirthahalli taluk, Shimoga district, Karnataka, India",
            "latitude": "13.6632221",
            "locType": "river",
            "closest_to": "chikmagalur"
        },
        "shantigrama": {
            "blogLinks": [
                "http://www.mygola.com/road-trip-from-bangalore-to-chikmagalur/q9090"
            ],
            "longitude": "76.2166763",
            "address": "Shantigrama, Hasana taluk, Hassan district, Karnataka, India",
            "latitude": "12.983428",
            "locType": "village",
            "closest_to": "chikmagalur"
        },
        "kemmangundi": {
            "blogLinks": [
                "https://www.thrillophilia.com/places-to-visit-in-chikmagalur",
                "https://en.wikipedia.org/wiki/Chikkamagaluru_district"
            ],
            "longitude": "75.7520082",
            "address": "Kemmannagundi, Tarikere taluku, Chikkamagaluru district, Karnataka, India",
            "latitude": "13.5463048",
            "locType": "village",
            "closest_to": "chitradurga"
        },
        "chikmagalur": {
            "blogLinks": [
                "https://www.ixigo.com/places-to-visit-see-in-chikmagalur-lp-1137712",
                "https://www.thrillophilia.com/places-to-visit-in-chikmagalur",
                "http://wikitravel.org/en/Chikmagalur",
                "http://www.nivalink.com/destination/chikmagalur",
                "http://withoutafuss.com/the-glory-of-karnataka-chitradurga-shimoga-chikmagalur-belur-mysore1/",
                "https://en.wikipedia.org/wiki/Chikkamagaluru_district"
            ],
            "longitude": "75.5",
            "address": "Chikmagalur, Chikkamagaluru district, Karnataka, India",
            "latitude": "13.5",
            "locType": "county",
            "closest_to": "chikmagalur"
        },
        "mangalore": {
            "blogLinks": [
                "https://en.wikipedia.org/wiki/Chikkamagaluru_district",
                "http://www.nivalink.com/destination/chikmagalur",
                "http://www.mygola.com/road-trip-from-bangalore-to-chikmagalur/q9090",
                "http://wikitravel.org/en/Chikmagalur"
            ],
            "longitude": "74.8430082",
            "address": "Mangaluru, Mangaluru taluk, Dakshina Kannada, Karnataka, 575001, India",
            "latitude": "12.8698101",
            "locType": "city",
            "closest_to": "chikmagalur"
        },
        "kalaseshwara temple": {
            "blogLinks": [
                "http://www.nivalink.com/destination/chikmagalur",
                "http://www.nivalink.com/destination/chitradurga"
            ],
            "longitude": "75.363446975",
            "address": "Kalaseshwara Temple, SH66, Kalasa, Mudigere taluk, Chikkamagaluru district, Karnataka, 577124, India",
            "latitude": "13.23228505",
            "locType": "place_of_worship",
            "closest_to": "chikmagalur"
        },
        "amrutapura": {
            "blogLinks": [
                "http://wikitravel.org/en/Chikmagalur"
            ],
            "longitude": "75.8535015",
            "address": "Amrutapura, Tarikere taluku, Chikkamagaluru district, Karnataka, India",
            "latitude": "13.7425193",
            "locType": "village",
            "closest_to": "chitradurga"
        },
        "mudigere": {
            "blogLinks": [
                "https://www.thrillophilia.com/places-to-visit-in-chikmagalur"
            ],
            "longitude": "76.0185988",
            "address": "Mudigere, Aluru taluk, Hassan district, Karnataka, India",
            "latitude": "13.0093567",
            "locType": "village",
            "closest_to": "chikmagalur"
        },
        "gorur dam - gorur": {
            "blogLinks": [
                "http://www.mygola.com/road-trip-from-bangalore-to-chikmagalur/q9090"
            ],
            "longitude": "76.0644435",
            "address": "Gorur, Hasana taluk, Hassan district, Karnataka, 573120, India",
            "latitude": "12.8238999",
            "locType": "village",
            "closest_to": "chikmagalur"
        },
        "kannada": {
            "blogLinks": [
                "https://en.wikipedia.org/wiki/Chitradurga_district"
            ],
            "longitude": "75.1008028650794",
            "address": "Dakshina Kannada, Karnataka, India",
            "latitude": "12.8114089",
            "locType": "administrative",
            "closest_to": "chikmagalur"
        },
        "attigundi": {
            "blogLinks": [
                "https://www.thrillophilia.com/places-to-visit-in-chikmagalur"
            ],
            "longitude": "75.7415646",
            "address": "Attigundi, Chikkamagaluru taluku, Chikkamagaluru district, Karnataka, India",
            "latitude": "13.428683",
            "locType": "village",
            "closest_to": "chitradurga"
        },
        "hemavati": {
            "blogLinks": [
                "http://wikitravel.org/en/Chikmagalur"
            ],
            "longitude": "76.0723187",
            "address": "Hemavati, Hasana taluk, Hassan district, Karnataka, India",
            "latitude": "12.8179996",
            "locType": "river",
            "closest_to": "chikmagalur"
        },
        "hassan": {
            "blogLinks": [
                "https://en.wikipedia.org/wiki/Chikkamagaluru_district"
            ],
            "longitude": "76.0992703",
            "address": "Hassan, Hasana taluk, Hassan district, Karnataka, 573201, India",
            "latitude": "13.0070817",
            "locType": "town",
            "closest_to": "chikmagalur"
        },
        "kadur": {
            "blogLinks": [
                "https://en.wikipedia.org/wiki/Chikkamagaluru_district",
                "http://wikitravel.org/en/Chikmagalur"
            ],
            "longitude": "75.7820095",
            "address": "Mudigere-Kadur Road, Basavannahalli, Chikkamagaluru, Chikkamagaluru taluku, Chikkamagaluru district, Karnataka, 577101, India",
            "latitude": "13.3283654",
            "locType": "trunk",
            "closest_to": "chitradurga"
        },
        "sakleshpur": {
            "blogLinks": [
                "http://www.mygola.com/road-trip-from-bangalore-to-chikmagalur/q9090"
            ],
            "longitude": "75.7862318",
            "address": "Sakaleshpura, Sakaleshapura taluk, Hassan district, Karnataka, 573134, India",
            "latitude": "12.9434349",
            "locType": "town",
            "closest_to": "chikmagalur"
        },
        "hemavathi": {
            "blogLinks": [
                "https://en.wikipedia.org/wiki/Chikkamagaluru_district"
            ],
            "longitude": "76.0556931",
            "address": "Hemavathi Reservoir, Hasana taluk, Hassan district, Karnataka, India",
            "latitude": "12.8267596",
            "locType": "dam",
            "closest_to": "chikmagalur"
        },
        "brahmagiri": {
            "blogLinks": [
                "https://en.wikipedia.org/wiki/Chitradurga_district"
            ],
            "longitude": "75.490746",
            "address": "Brahmagiri, Madikeri taluku, Kodagu, Karnataka, India",
            "latitude": "12.3868578",
            "locType": "peak",
            "closest_to": "chikmagalur"
        },
        "kalhatti falls": {
            "blogLinks": [
                "https://www.thrillophilia.com/places-to-visit-in-chikmagalur"
            ],
            "longitude": "75.7889882",
            "address": "Kallathgiri falls, Tarikere taluku, Chikkamagaluru district, Karnataka, India",
            "latitude": "13.5499877",
            "locType": "waterfall",
            "closest_to": "chitradurga"
        },
        "hiriyur": {
            "blogLinks": [
                "https://en.wikipedia.org/wiki/Chitradurga_district"
            ],
            "longitude": "76.1879166",
            "address": "Hiriyur, Arasikere taluku, Hassan district, Karnataka, India",
            "latitude": "13.340224",
            "locType": "village",
            "closest_to": "chitradurga"
        },
        "belur": {
            "blogLinks": [
                "http://www.nivalink.com/destination/chikmagalur",
                "http://www.mygola.com/road-trip-from-bangalore-to-chikmagalur/q9090",
                "http://wikitravel.org/en/Chikmagalur"
            ],
            "longitude": "75.8634851",
            "address": "Belur, Beluru taluk, Hassan district, Karnataka, 573115, India",
            "latitude": "13.1645671",
            "locType": "town",
            "closest_to": "chikmagalur"
        },
        "chitradurga fort": {
            "blogLinks": [
                "https://en.wikipedia.org/wiki/Chitradurga_district"
            ],
            "longitude": "76.3948635401208",
            "address": "Chitradurga Fort, Kote Road, Devalagiri 1st Phase, Chitradurga, Chitradurga taluku, Chitradurga district, Karnataka, 577500, India",
            "latitude": "14.21296355",
            "locType": "attraction",
            "closest_to": "chitradurga"
        },
        "kadur taluk": {
            "blogLinks": [
                "https://en.wikipedia.org/wiki/Chikkamagaluru_district"
            ],
            "longitude": "76.0140256",
            "address": "Mudigere-Kadur Road, Kaduru, Kaduru taluk, Chikkamagaluru district, Karnataka, 577548, India",
            "latitude": "13.5484665",
            "locType": "trunk",
            "closest_to": "chitradurga"
        },
        "hosadurga taluk": {
            "blogLinks": [
                "http://www.holidayiq.com/Chitradurga-Sightseeing-650.html"
            ],
            "longitude": "77.2095258",
            "address": "Hosadurga, Pavagada taluk, Tumkur district, Karnataka, India",
            "latitude": "14.2608929",
            "locType": "village",
            "closest_to": "chitradurga"
        },
        "chitradurga": {
            "blogLinks": [
                "https://en.wikipedia.org/wiki/Chitradurga_district",
                "http://www.holidayiq.com/Chitradurga-Sightseeing-650.html",
                "http://www.nivalink.com/destination/chitradurga"
            ],
            "longitude": "76.4005122",
            "address": "Chitradurga, Chitradurga taluku, Chitradurga district, Karnataka, 577500, India",
            "latitude": "14.2266443",
            "locType": "town",
            "closest_to": "chitradurga"
        },
        "annapoorneshwari temple": {
            "blogLinks": [
                "https://en.wikipedia.org/wiki/Chikkamagaluru_district"
            ],
            "longitude": "74.9006001",
            "address": "Sri Ambika Annapoorneshwari Temple, SH101, Sunkadakatte, Mangaluru taluk, Dakshina Kannada, Karnataka, India",
            "latitude": "12.97910715",
            "locType": "place_of_worship",
            "closest_to": "chikmagalur"
        },
        "panambur": {
            "blogLinks": [
                "https://en.wikipedia.org/wiki/Chikkamagaluru_district"
            ],
            "longitude": "74.8031577",
            "address": "Panambur, Mangaluru taluk, Dakshina Kannada, Karnataka, India",
            "latitude": "12.9535736",
            "locType": "village",
            "closest_to": "chikmagalur"
        },
        "yagachi": {
            "blogLinks": [
                "http://wikitravel.org/en/Chikmagalur"
            ],
            "longitude": "75.950911",
            "address": "Yagachi, Beluru taluk, Hassan district, Karnataka, India",
            "latitude": "13.0658494",
            "locType": "river",
            "closest_to": "chikmagalur"
        },
        "bellary": {
            "blogLinks": [
                "http://www.mapsofindia.com/maps/karnataka/"
            ],
            "longitude": "76.8323648",
            "address": "Bellary, Bellary district, Karnataka, India",
            "latitude": "15.2485413",
            "locType": "county",
            "closest_to": "chitradurga"
        },
        "kundapura": {
            "blogLinks": [
                "http://www.nivalink.com/destination/chikmagalur",
                "http://www.nivalink.com/destination/chitradurga"
            ],
            "longitude": "74.6915722",
            "address": "Kundapura, \u0c95\u0cc1\u0c82\u0ca6\u0cbe\u0caa\u0cc1\u0cb0 \u0ca4\u0cbe\u0cb2\u0cc2\u0c95\u0cc1, Udupi district, Karnataka, 576200, India",
            "latitude": "13.6250993",
            "locType": "town",
            "closest_to": "chikmagalur"
        },
        "kannur": {
            "blogLinks": [
                "http://www.nivalink.com/destination/chikmagalur"
            ],
            "longitude": "74.8858161",
            "address": "Netravati bridge - Kannur Bypass Road (Proposed), Padil, Bajal, Mangaluru taluk, Dakshina Kannada, Karnataka, 575007, India",
            "latitude": "12.8487602",
            "locType": "construction",
            "closest_to": "chikmagalur"
        },
        "gowdahalli": {
            "blogLinks": [
                "http://wikitravel.org/en/Chikmagalur"
            ],
            "longitude": "75.5981999",
            "address": "Gowdahalli, Mudigere taluk, Chikkamagaluru district, Karnataka, India",
            "latitude": "13.0422415",
            "locType": "village",
            "closest_to": "chikmagalur"
        },
        "tungabhadra river": {
            "blogLinks": [
                "https://www.thrillophilia.com/places-to-visit-in-chikmagalur",
                "https://en.wikipedia.org/wiki/Chitradurga_district"
            ],
            "longitude": "76.4931607",
            "address": "Tungabhadra, Gangavati taluku, Koppal district, Karnataka, India",
            "latitude": "15.3446123",
            "locType": "river",
            "closest_to": "chitradurga"
        },
        "davangere": {
            "blogLinks": [
                "https://en.wikipedia.org/wiki/Chikkamagaluru_district"
            ],
            "longitude": "75.9197507909343",
            "address": "Davangere City Corporation Offices, K.B. Extension, Davanagere, Davanagere taluku, Davanagere district, Karnataka, 577000, India",
            "latitude": "14.4664457",
            "locType": "commercial",
            "closest_to": "chitradurga"
        },
        "manikyadhara": {
            "blogLinks": [
                "https://en.wikipedia.org/wiki/Chikkamagaluru_district",
                "http://wikitravel.org/en/Chikmagalur"
            ],
            "longitude": "75.7701434",
            "address": "Manikyadhara, Bababudangiri Road, Inam Dattatreya Pitha, Chikkamagaluru taluku, Chikkamagaluru district, Karnataka, India",
            "latitude": "13.4220248",
            "locType": "attraction",
            "closest_to": "chitradurga"
        },
        "belavadi": {
            "blogLinks": [
                "https://en.wikipedia.org/wiki/Chikkamagaluru_district"
            ],
            "longitude": "75.3760773",
            "address": "Belavadi, Koppa taluk, Chikkamagaluru district, Karnataka, India",
            "latitude": "13.5284899",
            "locType": "village",
            "closest_to": "chikmagalur"
        },
        "holalkere": {
            "blogLinks": [
                "https://en.wikipedia.org/wiki/Chitradurga_district"
            ],
            "longitude": "76.1830578",
            "address": "Holalkere, Holalkere taluk, Chitradurga district, Karnataka, 577526, India",
            "latitude": "14.0424479",
            "locType": "town",
            "closest_to": "chitradurga"
        },
        "kemmannagundi": {
            "blogLinks": [
                "http://wikitravel.org/en/Chikmagalur"
            ],
            "longitude": "75.7520082",
            "address": "Kemmannagundi, Tarikere taluku, Chikkamagaluru district, Karnataka, India",
            "latitude": "13.5463048",
            "locType": "village",
            "closest_to": "chitradurga"
        },
        "udupi": {
            "blogLinks": [
                "https://en.wikipedia.org/wiki/Chikkamagaluru_district"
            ],
            "longitude": "74.7473232",
            "address": "Udupi, Udupi taluku, Udupi district, Karnataka, 576101, India",
            "latitude": "13.3419169",
            "locType": "city",
            "closest_to": "chikmagalur"
        },
        "chikmagalur district": {
            "blogLinks": [
                "https://en.wikipedia.org/wiki/Chikkamagaluru_district",
                "https://en.wikipedia.org/wiki/Chitradurga_district"
            ],
            "longitude": "75.5",
            "address": "Chikmagalur, Chikkamagaluru district, Karnataka, India",
            "latitude": "13.5",
            "locType": "county",
            "closest_to": "chikmagalur"
        },
        "bhadra river": {
            "blogLinks": [
                "https://www.thrillophilia.com/places-to-visit-in-chikmagalur",
                "http://www.nivalink.com/destination/chikmagalur"
            ],
            "longitude": "75.527118",
            "address": "Bhadra, Chikkamagaluru taluku, Chikkamagaluru district, Karnataka, India",
            "latitude": "13.4888356",
            "locType": "river",
            "closest_to": "chitradurga"
        },
        "narasimharajapura": {
            "blogLinks": [
                "https://en.wikipedia.org/wiki/Chikkamagaluru_district"
            ],
            "longitude": "75.5117301",
            "address": "Narasimharajapura, Narasimharajapura taluk, Chikkamagaluru district, Karnataka, 577134, India",
            "latitude": "13.6107959",
            "locType": "town",
            "closest_to": "chitradurga"
        }
    }
}