{
    "chitradurga": {
        "place_id": "4897275",
        "osm_id": "571409087",
        "icon": "https://nominatim.openstreetmap.org/images/mapicons/poi_place_town.p.20.png",
        "osm_type": "node",
        "licence": "Data \u00a9 OpenStreetMap contributors, ODbL 1.0. http://www.openstreetmap.org/copyright",
        "display_name": "Chitradurga, Chitradurga taluku, Chitradurga district, Karnataka, 577500, India",
        "type": "town",
        "lon": "76.4005122",
        "boundingbox": [
            "14.1866443",
            "14.2666443",
            "76.3605122",
            "76.4405122"
        ],
        "importance": 0.5,
        "lat": "14.2266443",
        "class": "place"
    },
    "mentions": {
        "shivaratri": {
            "closest_to": "mysore",
            "address": "Sri Shivaratri Rajendra Hostel, Maruti Temple Road, Sarasvatipuram, Mysuru, Mysuru taluk, Mysuru district, Karnataka, 570009, India",
            "longitude": "76.6205054046657",
            "latitude": "12.30672945",
            "blogLinks": [
                "https://en.wikipedia.org/wiki/Chitradurga_Fort"
            ],
            "locType": "hostel"
        },
        "badami": {
            "closest_to": "chitradurga",
            "address": "Badami, Badami taluku, Bagalkote district, Karnataka, 587200, India",
            "longitude": "75.6807865",
            "latitude": "15.9203874",
            "blogLinks": [
                "http://www.distancesfrom.com/in/flight-time-from-Mysuru-to-Badami-via-Chickmagaluru-Chitradurga-Hampi/FlightTimeHistory/34902190.aspx",
                "http://goindia.about.com/od/karnataka/tp/karnataka.htm"
            ],
            "locType": "town"
        },
        "coimbatore": {
            "closest_to": "mysore",
            "address": "Gundlupet - Coimbatore Highway, Bandipur, Gundlupet taluk, Chamarajanagar district, Karnataka, India",
            "longitude": "76.6318246",
            "latitude": "11.6793976",
            "blogLinks": [
                "http://www.nivalink.com/destination/coorg-(madikeri)"
            ],
            "locType": "trunk"
        },
        "bellary district": {
            "closest_to": "chitradurga",
            "address": "Bellary district, Karnataka, India",
            "longitude": "76.7137978546465",
            "latitude": "15.20597305",
            "blogLinks": [
                "https://en.wikipedia.org/wiki/Chitradurga_district"
            ],
            "locType": "administrative"
        },
        "hampi": {
            "closest_to": "chitradurga",
            "address": "Hampe, Hosapete taluk, Bellary district, Karnataka, 583239, India",
            "longitude": "76.4606199",
            "latitude": "15.3359769",
            "blogLinks": [
                "http://samharshbangalore.blogspot.com/2012/10/travelling-by-road-from-bangalore-to.html",
                "https://en.wikipedia.org/wiki/Chitradurga_Fort",
                "http://goindia.about.com/od/karnataka/tp/karnataka.htm"
            ],
            "locType": "village"
        },
        "uttarahalli": {
            "closest_to": "mysore",
            "address": "Uttarahalli, Bengaluru, Bangalore Urban, Karnataka, 560001, India",
            "longitude": "77.5455438",
            "latitude": "12.9055682",
            "blogLinks": [
                "http://samharshbangalore.blogspot.com/2012/10/travelling-by-road-from-bangalore-to.html"
            ],
            "locType": "suburb"
        },
        "udayavani": {
            "closest_to": "mysore",
            "address": "Udayavani, Cubbon Road, Tasker Town, Ashok Nagar, Bengaluru, Bangalore Urban, Karnataka, 560001, India",
            "longitude": "77.6148055",
            "latitude": "12.9751718",
            "blogLinks": [
                "https://en.wikipedia.org/wiki/Chitradurga_district"
            ],
            "locType": "newspaper"
        },
        "chitrakaldurga": {
            "closest_to": "mysore",
            "address": "Chitradurga Fort, Kote Road, Devalagiri 1st Phase, Chitradurga, Chitradurga taluku, Chitradurga district, Karnataka, 577500, India",
            "longitude": "76.3948635401208",
            "latitude": "14.21296355",
            "blogLinks": [
                "https://en.wikipedia.org/wiki/Chitradurga_district"
            ],
            "locType": "attraction"
        },
        "ramagiri": {
            "closest_to": "mysore",
            "address": "Ramagiri, Holalkere taluk, Chitradurga district, Karnataka, India",
            "longitude": "76.122208",
            "latitude": "13.9535932",
            "blogLinks": [
                "http://samharshbangalore.blogspot.com/2012/10/travelling-by-road-from-bangalore-to.html"
            ],
            "locType": "village"
        },
        "madakari nayaka": {
            "closest_to": "mysore",
            "address": "Madakari Nayaka School, SH48, Lakshmisagara, Chitradurga, Chitradurga taluku, Chitradurga district, Karnataka, 577500, India",
            "longitude": "76.4026941",
            "latitude": "14.2243599",
            "blogLinks": [
                "https://en.wikipedia.org/wiki/Chitradurga_district"
            ],
            "locType": "school"
        },
        "ramanagar": {
            "closest_to": "mysore",
            "address": "Ramanagar-Kanakapura Road, Avverahalli, Ramanagara taluk, Ramanagara district, Karnataka, 562159, India",
            "longitude": "77.3418018",
            "latitude": "12.649356",
            "blogLinks": [
                "http://samharshbangalore.blogspot.com/2012/10/travelling-by-road-from-bangalore-to.html"
            ],
            "locType": "primary"
        },
        "valmiki": {
            "closest_to": "mysore",
            "address": "Valmiki Nagar, Bengaluru, Bangalore Urban, Karnataka, 560001, India",
            "longitude": "77.55459",
            "latitude": "12.9567265",
            "blogLinks": [
                "http://samharshbangalore.blogspot.com/2012/10/travelling-by-road-from-bangalore-to.html"
            ],
            "locType": "suburb"
        },
        "vindhyagiri": {
            "closest_to": "mysore",
            "address": "Vindhyagiri, Channarayapattana taluk, Hassan district, Karnataka, India",
            "longitude": "76.485173",
            "latitude": "12.8542391",
            "blogLinks": [
                "http://wikitravel.org/en/Shravanabelagola"
            ],
            "locType": "peak"
        },
        "nice": {
            "closest_to": "mysore",
            "address": "NICE Peripheral Ring Road, Madhavara, Bangalore Urban, Karnataka, 560073, India",
            "longitude": "77.4767269",
            "latitude": "13.0544022",
            "blogLinks": [
                "http://www.indiamike.com/india/karnataka-f38/mysore-to-chitradurga-t90619/"
            ],
            "locType": "motorway"
        },
        "kingdom": {
            "closest_to": "mysore",
            "address": "DeFINER Kingdom Apartments (u/c), Bommenahalli, Bangalore Urban, Karnataka, 560049, India",
            "longitude": "77.7452071120628",
            "latitude": "13.073111",
            "blogLinks": [
                "http://wikitravel.org/en/Shravanabelagola"
            ],
            "locType": "residential"
        },
        "hogenakkal": {
            "closest_to": "mysore",
            "address": "Hogenakkal Falls, Kollegala taluk, Chamarajanagar district, Karnataka, India",
            "longitude": "77.7758632",
            "latitude": "12.1184195",
            "blogLinks": [
                "http://www.godakshin.com/travel-guides/4-exciting-places-visit-around-bangalore-732.html"
            ],
            "locType": "waterfall"
        },
        "ranganatha swamy": {
            "closest_to": "mysore",
            "address": "Ranganatha Swamy Betta, Hasana taluk, Hassan district, Karnataka, India",
            "longitude": "76.1656215275047",
            "latitude": "13.14749975",
            "blogLinks": [
                "http://samharshbangalore.blogspot.com/2012/10/travelling-by-road-from-bangalore-to.html"
            ],
            "locType": "hamlet"
        },
        "chikmagalur district": {
            "closest_to": "mysore",
            "address": "Chikmagalur, Chikkamagaluru district, Karnataka, India",
            "longitude": "75.5",
            "latitude": "13.5",
            "blogLinks": [
                "https://en.wikipedia.org/wiki/Chitradurga_district"
            ],
            "locType": "county"
        },
        "mysuru": {
            "closest_to": "mysore",
            "address": "Mysuru, Mysuru taluk, Mysuru district, Karnataka, 570001, India",
            "longitude": "76.6553609",
            "latitude": "12.3051828",
            "blogLinks": [
                "http://www.distancesfrom.com/in/flight-time-from-Mysuru-to-Badami-via-Chickmagaluru-Chitradurga-Hampi/FlightTimeHistory/34902190.aspx"
            ],
            "locType": "city"
        },
        "north kerala": {
            "closest_to": "mysore",
            "address": "New Life Kerala Mess, Sai Baba Mandira Road, Mottappanapalaya, Indiranagar, Bengaluru, Bangalore Urban, Karnataka, 560001, India",
            "longitude": "77.6382683",
            "latitude": "12.9726449",
            "blogLinks": [
                "http://www.nivalink.com/destination/coorg-(madikeri)"
            ],
            "locType": "restaurant"
        },
        "chanakya": {
            "closest_to": "chitradurga",
            "address": "Chanakya Puri, Kamaripet, Hubballi - \u0cb9\u0cc1\u0cac\u0ccd\u0cac\u0cb3\u0ccd\u0cb3\u0cbf, Hubballi taluku, Dharwad district, Karnataka, 580020, India",
            "longitude": "75.1318286",
            "latitude": "15.3463273",
            "blogLinks": [
                "http://samharshbangalore.blogspot.com/2012/10/travelling-by-road-from-bangalore-to.html"
            ],
            "locType": "neighbourhood"
        },
        "sangam": {
            "closest_to": "mysore",
            "address": "Sangam, FM Cariappa Road (Residency Road), Shantala Nagar, MacIvor Town, Bengaluru, Bangalore Urban, Karnataka, 560001, India",
            "longitude": "77.6065672",
            "latitude": "12.9718928",
            "blogLinks": [
                "http://samharshbangalore.blogspot.com/2012/10/travelling-by-road-from-bangalore-to.html"
            ],
            "locType": "restaurant"
        },
        "chitradurga fort": {
            "closest_to": "mysore",
            "address": "Chitradurga Fort, Kote Road, Devalagiri 1st Phase, Chitradurga, Chitradurga taluku, Chitradurga district, Karnataka, 577500, India",
            "longitude": "76.3948635401208",
            "latitude": "14.21296355",
            "blogLinks": [
                "https://en.wikipedia.org/wiki/Chitradurga_district",
                "https://en.wikipedia.org/wiki/Chitradurga_Fort",
                "http://goindia.about.com/od/karnataka/tp/karnataka.htm"
            ],
            "locType": "attraction"
        },
        "hiriyur": {
            "closest_to": "mysore",
            "address": "Hiriyur, Arasikere taluku, Hassan district, Karnataka, India",
            "longitude": "76.1879166",
            "latitude": "13.340224",
            "blogLinks": [
                "http://www.indiamike.com/india/karnataka-f38/mysore-to-chitradurga-t90619/",
                "https://en.wikipedia.org/wiki/Chitradurga_district"
            ],
            "locType": "village"
        },
        "karnataka state": {
            "closest_to": "mysore",
            "address": "Karnataka State Open University, \u0cb9\u0cc1\u0ca3\u0cb8\u0cc2\u0cb0\u0cc1 \u0cb0\u0cb8\u0ccd\u0ca4\u0cc6, Gokulam, Mysuru, Mysuru taluk, Mysuru district, Karnataka, 570001, India",
            "longitude": "76.6236231",
            "latitude": "12.315382",
            "blogLinks": [
                "https://en.wikipedia.org/wiki/Chitradurga_Fort"
            ],
            "locType": "university"
        },
        "cauvery": {
            "closest_to": "mysore",
            "address": "Cauvery, 1st Main Road, Lower Palace Orchard, Guttahalli, Bengaluru, Bangalore Urban, Karnataka, 560001, India",
            "longitude": "77.5832796015599",
            "latitude": "13.00262215",
            "blogLinks": [
                "http://samharshbangalore.blogspot.com/2012/10/travelling-by-road-from-bangalore-to.html",
                "http://www.nivalink.com/destination/coorg-(madikeri)"
            ],
            "locType": "cinema"
        },
        "kalaseshwara temple": {
            "closest_to": "mysore",
            "address": "Kalaseshwara Temple, SH66, Kalasa, Mudigere taluk, Chikkamagaluru district, Karnataka, 577124, India",
            "longitude": "75.363446975",
            "latitude": "13.23228505",
            "blogLinks": [
                "http://www.nivalink.com/destination/coorg-(madikeri)",
                "http://www.nivalink.com/destination/chitradurga"
            ],
            "locType": "place_of_worship"
        },
        "sathanur": {
            "closest_to": "mysore",
            "address": "Sathanur Colony, Bagalur Road, Vidyanagar, Satanuru, Bangalore Urban, Karnataka, 562134, India",
            "longitude": "77.6464992",
            "latitude": "13.1278826",
            "blogLinks": [
                "http://samharshbangalore.blogspot.com/2012/10/travelling-by-road-from-bangalore-to.html"
            ],
            "locType": "bus_stop"
        },
        "kabini": {
            "closest_to": "mysore",
            "address": "Kabini, Heggadadevanakote taluk, Mysuru district, Karnataka, India",
            "longitude": "76.4152088",
            "latitude": "12.0140065",
            "blogLinks": [
                "http://www.holidayiq.com/Kabini-Sightseeing-392.html"
            ],
            "locType": "river"
        },
        "doddamakali": {
            "closest_to": "mysore",
            "address": "Doddamakali, Dalanakatte, Malavalli taluk, Mandya district, Karnataka, India",
            "longitude": "77.2173416",
            "latitude": "12.3096676",
            "blogLinks": [
                "http://www.nivalink.com/destination/coorg-(madikeri)"
            ],
            "locType": "locality"
        },
        "chikkaballapur": {
            "closest_to": "mysore",
            "address": "Chikkaballapura, Chikkaballapura taluk, Chikkaballapura district, Karnataka, 562101, India",
            "longitude": "77.7306866",
            "latitude": "13.4352549",
            "blogLinks": [
                "http://enjoyinkarnataka.blogspot.com/",
                "http://enjoyinkarnataka.blogspot.com/2012/04/sri-venugopala-swamy-temple.html"
            ],
            "locType": "town"
        },
        "chandragiri": {
            "closest_to": "mysore",
            "address": "Chandragiri, Channarayapattana taluk, Hassan district, Karnataka, India",
            "longitude": "76.4878052",
            "latitude": "12.8617132",
            "blogLinks": [
                "http://wikitravel.org/en/Shravanabelagola"
            ],
            "locType": "peak"
        },
        "bangalore-mysore highway": {
            "closest_to": "mysore",
            "address": "Bangalore-Mysore Road, Yaliyuru, Mandya taluk, Mandya district, Karnataka, 571426, India",
            "longitude": "76.807544",
            "latitude": "12.4964879",
            "blogLinks": [
                "http://samharshbangalore.blogspot.com/2012/10/travelling-by-road-from-bangalore-to.html"
            ],
            "locType": "trunk"
        },
        "bharamagiri": {
            "closest_to": "mysore",
            "address": "Bharamagiri, Hiriyuru taluk, Chitradurga district, Karnataka, India",
            "longitude": "76.4993709",
            "latitude": "13.9288556",
            "blogLinks": [
                "https://en.wikipedia.org/wiki/Chitradurga_district"
            ],
            "locType": "village"
        },
        "us": {
            "closest_to": "chitradurga",
            "address": "Karnataka, India",
            "longitude": "75.7223521",
            "latitude": "14.5203896",
            "blogLinks": [
                "https://en.wikipedia.org/wiki/Chitradurga_district"
            ],
            "locType": "administrative"
        },
        "mahishasura": {
            "closest_to": "mysore",
            "address": "Mahishasura, Chamundi Hill Road, Race Course, Mysuru, Mysuru taluk, Mysuru district, Karnataka, 570001, India",
            "longitude": "76.6709592",
            "latitude": "12.2750725",
            "blogLinks": [
                "http://samharshbangalore.blogspot.com/2012/10/travelling-by-road-from-bangalore-to.html"
            ],
            "locType": "artwork"
        },
        "somnathpur": {
            "closest_to": "mysore",
            "address": "Somanathapura, Tirumakudalu Narasipura taluk, Mysuru district, Karnataka, India",
            "longitude": "76.8833039",
            "latitude": "12.2761528",
            "blogLinks": [
                "http://www.indiamike.com/india/karnataka-f38/places-to-go-in-south-karnataka-t102701/"
            ],
            "locType": "village"
        },
        "nagarhole national park": {
            "closest_to": "mysore",
            "address": "Nagarahole National Park, Virajpet taluk, Kodagu, Karnataka, India",
            "longitude": "76.1537073415874",
            "latitude": "12.0600362",
            "blogLinks": [
                "http://www.holidayiq.com/Kabini-Sightseeing-392.html"
            ],
            "locType": "national_park"
        },
        "sunanda": {
            "closest_to": "mysore",
            "address": "Sunanda School, Narayana Guru Road, Yadavagiri, Mysuru, Mysuru taluk, Mysuru district, Karnataka, 570020, India",
            "longitude": "76.6378031511933",
            "latitude": "12.3224769",
            "blogLinks": [
                "http://wikitravel.org/en/Shravanabelagola"
            ],
            "locType": "yes"
        },
        "chikkamagaluru": {
            "closest_to": "mysore",
            "address": "Chikkamagaluru, Chikkamagaluru taluku, Chikkamagaluru district, Karnataka, 577101, India",
            "longitude": "75.7738743",
            "latitude": "13.318014",
            "blogLinks": [
                "http://wikitravel.org/en/Chikmagalur"
            ],
            "locType": "city"
        },
        "southern india": {
            "closest_to": "mysore",
            "address": "Survey Of India - Southern Zone, Madivala, Bengaluru, Bangalore Urban, Karnataka, 560001, India",
            "longitude": "77.6227757667762",
            "latitude": "12.92588785",
            "blogLinks": [
                "http://wikitravel.org/en/Shravanabelagola"
            ],
            "locType": "commercial"
        },
        "dubare elephant camp": {
            "closest_to": "mysore",
            "address": "Dubare Elephant Camp, SH91, Dodda Bettageri, Somawarpet taluk, Kodagu, Karnataka, India",
            "longitude": "75.9066719",
            "latitude": "12.3716865",
            "blogLinks": [
                "http://www.nivalink.com/destination/coorg-(madikeri)"
            ],
            "locType": "attraction"
        },
        "sringeri": {
            "closest_to": "mysore",
            "address": "Sringeri, Sringeri taluku, Chikkamagaluru district, Karnataka, 577592, India",
            "longitude": "75.2553718",
            "latitude": "13.4261724",
            "blogLinks": [
                "http://www.indiamike.com/india/karnataka-f38/places-to-go-in-south-karnataka-t102701/"
            ],
            "locType": "town"
        },
        "hoysaleswara": {
            "closest_to": "mysore",
            "address": "Hoysaleswara Temple, SH21, Halebidu, Beluru taluk, Hassan district, Karnataka, 573121, India",
            "longitude": "75.9941649",
            "latitude": "13.2127193",
            "blogLinks": [
                "http://wikitravel.org/en/Shravanabelagola"
            ],
            "locType": "place_of_worship"
        },
        "kote anjaneya temple": {
            "closest_to": "mysore",
            "address": "Kote Anjaneya Temple, Kote Road, Lashkar Mohalla, Shivamogga, Shivamogga taluku, Shimoga district, Karnataka, 577200, India",
            "longitude": "75.5827042",
            "latitude": "13.9277488",
            "blogLinks": [
                "http://samharshbangalore.blogspot.com/2012/10/travelling-by-road-from-bangalore-to.html"
            ],
            "locType": "place_of_worship"
        },
        "lakshmana tirtha river": {
            "closest_to": "mysore",
            "address": "Iruppu Falls, SH89, Taila, Virajpet taluk, Kodagu, Karnataka, 571217, India",
            "longitude": "75.9839484",
            "latitude": "11.9667954",
            "blogLinks": [
                "http://www.holidayiq.com/Kabini-Sightseeing-392.html"
            ],
            "locType": "attraction"
        },
        "vedavati": {
            "closest_to": "mysore",
            "address": "Vedavati, Kaduru taluk, Chikkamagaluru district, Karnataka, India",
            "longitude": "76.1347937",
            "latitude": "13.6048777",
            "blogLinks": [
                "http://wikitravel.org/en/Chikmagalur"
            ],
            "locType": "river"
        },
        "abhiman": {
            "closest_to": "mysore",
            "address": "Abhiman Residency, Kudumal Ranga Rao Road, Bikarnakatte, Mallikatte, Mangaluru, Mangaluru taluk, Dakshina Kannada, Karnataka, 575001, India",
            "longitude": "74.84860285",
            "latitude": "12.8766361",
            "blogLinks": [
                "http://samharshbangalore.blogspot.com/2012/10/travelling-by-road-from-bangalore-to.html"
            ],
            "locType": "hotel"
        },
        "kabini dam": {
            "closest_to": "mysore",
            "address": "Kabini Dam, Heggadadevanakote taluk, Mysuru district, Karnataka, India",
            "longitude": "76.353668",
            "latitude": "11.9751069",
            "blogLinks": [
                "http://www.holidayiq.com/Kabini-Sightseeing-392.html"
            ],
            "locType": "dam"
        },
        "mysore": {
            "closest_to": "mysore",
            "address": "Mysuru, Mysuru taluk, Mysuru district, Karnataka, 570001, India",
            "longitude": "76.6553609",
            "latitude": "12.3051828",
            "blogLinks": [
                "http://samharshbangalore.blogspot.com/2012/10/travelling-by-road-from-bangalore-to.html",
                "http://www.indiamike.com/india/karnataka-f38/mysore-to-chitradurga-t90619/"
            ],
            "locType": "city"
        },
        "ooty": {
            "closest_to": "mysore",
            "address": "Ooty Road, Vidyaranyapuram, Mysuru, Mysuru taluk, Mysuru district, Karnataka, 570001, India",
            "longitude": "76.6586807",
            "latitude": "12.2774807",
            "blogLinks": [
                "http://www.indiamike.com/india/karnataka-f38/places-to-go-in-south-karnataka-t102701/",
                "http://www.nivalink.com/destination/coorg-(madikeri)"
            ],
            "locType": "primary"
        },
        "chikmagalur": {
            "closest_to": "mysore",
            "address": "Chikmagalur, Chikkamagaluru district, Karnataka, India",
            "longitude": "75.5",
            "latitude": "13.5",
            "blogLinks": [
                "http://wikitravel.org/en/Chikmagalur"
            ],
            "locType": "county"
        },
        "hassan district of karnataka": {
            "closest_to": "mysore",
            "address": "Hassan district, Karnataka, India",
            "longitude": "76.1745460751981",
            "latitude": "13.0315068",
            "blogLinks": [
                "http://wikitravel.org/en/Shravanabelagola"
            ],
            "locType": "administrative"
        },
        "nandi hills": {
            "closest_to": "mysore",
            "address": "Nandi Upahara, Nandhi Hills Road, Kottige Thimmanahalli, Devanahalli taluk, Bangalore Rural, Karnataka, India",
            "longitude": "77.7194741670394",
            "latitude": "13.268142",
            "blogLinks": [
                "http://enjoyinkarnataka.blogspot.com/",
                "http://enjoyinkarnataka.blogspot.com/2012/04/sri-venugopala-swamy-temple.html"
            ],
            "locType": "hotel"
        },
        "tumkur district": {
            "closest_to": "mysore",
            "address": "Tumkur district, Karnataka, India",
            "longitude": "76.8817530420764",
            "latitude": "13.4176169",
            "blogLinks": [
                "https://en.wikipedia.org/wiki/Chitradurga_district"
            ],
            "locType": "administrative"
        },
        "kundapura": {
            "closest_to": "chitradurga",
            "address": "Kundapura, \u0c95\u0cc1\u0c82\u0ca6\u0cbe\u0caa\u0cc1\u0cb0 \u0ca4\u0cbe\u0cb2\u0cc2\u0c95\u0cc1, Udupi district, Karnataka, 576200, India",
            "longitude": "74.6915722",
            "latitude": "13.6250993",
            "blogLinks": [
                "http://www.nivalink.com/destination/coorg-(madikeri)",
                "http://www.nivalink.com/destination/chitradurga"
            ],
            "locType": "town"
        },
        "mysore district": {
            "closest_to": "mysore",
            "address": "Mysuru, Mysuru taluk, Mysuru district, Karnataka, 570001, India",
            "longitude": "76.6553609",
            "latitude": "12.3051828",
            "blogLinks": [
                "http://www.holidayiq.com/Kabini-Sightseeing-392.html"
            ],
            "locType": "city"
        },
        "nanjundeshwara": {
            "closest_to": "mysore",
            "address": "Sri Nanjundeshwara bar and restaurant, Bannerghatta Road, MICO Layout, Marenahalli, Bengaluru, Bangalore Urban, Karnataka, 560001, India",
            "longitude": "77.6001886",
            "latitude": "12.9112404",
            "blogLinks": [
                "http://samharshbangalore.blogspot.com/2012/10/travelling-by-road-from-bangalore-to.html"
            ],
            "locType": "bar"
        },
        "river cauvery": {
            "closest_to": "mysore",
            "address": "Cauvery, 1st Main Road, Lower Palace Orchard, Guttahalli, Bengaluru, Bangalore Urban, Karnataka, 560001, India",
            "longitude": "77.5832796015599",
            "latitude": "13.00262215",
            "blogLinks": [
                "http://www.nivalink.com/destination/coorg-(madikeri)"
            ],
            "locType": "cinema"
        },
        "mysore maharaja": {
            "closest_to": "mysore",
            "address": "Maharaja Hotel Mysore, Bangalore Nilgiri Road, Mandi Mohalla, Mysuru, Mysuru taluk, Mysuru district, Karnataka, 570001, India",
            "longitude": "76.6596385",
            "latitude": "12.3112197",
            "blogLinks": [
                "https://en.wikipedia.org/wiki/Chitradurga_district"
            ],
            "locType": "hotel"
        },
        "kabini river": {
            "closest_to": "mysore",
            "address": "Kabini right bank canal, Nanjanagudu taluk, Mysuru district, Karnataka, India",
            "longitude": "76.6477184",
            "latitude": "12.0780998",
            "blogLinks": [
                "http://www.holidayiq.com/Kabini-Sightseeing-392.html"
            ],
            "locType": "canal"
        },
        "mangalore": {
            "closest_to": "mysore",
            "address": "Mangaluru, Mangaluru taluk, Dakshina Kannada, Karnataka, 575001, India",
            "longitude": "74.8430082",
            "latitude": "12.8698101",
            "blogLinks": [
                "http://wikitravel.org/en/Shravanabelagola",
                "http://wikitravel.org/en/Chikmagalur",
                "http://www.indiamike.com/india/karnataka-f38/mysore-to-chitradurga-t90619/",
                "http://goindia.about.com/od/karnataka/tp/karnataka.htm",
                "http://www.nivalink.com/destination/coorg-(madikeri)",
                "https://en.wikipedia.org/wiki/Chitradurga_district"
            ],
            "locType": "city"
        },
        "madduramma": {
            "closest_to": "mysore",
            "address": "Madduramma Temple, Bangalore-Mysore Road, Gejjalagere, Madduru taluk, Mandya district, Karnataka, India",
            "longitude": "77.0472724",
            "latitude": "12.5921286",
            "blogLinks": [
                "http://samharshbangalore.blogspot.com/2012/10/travelling-by-road-from-bangalore-to.html"
            ],
            "locType": "place_of_worship"
        },
        "bandipur": {
            "closest_to": "mysore",
            "address": "Bandipur, Gundlupet taluk, Chamarajanagar district, Karnataka, India",
            "longitude": "76.6285739",
            "latitude": "11.6662708",
            "blogLinks": [
                "http://www.indiamike.com/india/karnataka-f38/places-to-go-in-south-karnataka-t102701/"
            ],
            "locType": "village"
        },
        "kerala": {
            "closest_to": "mysore",
            "address": "New Life Kerala Mess, Sai Baba Mandira Road, Mottappanapalaya, Indiranagar, Bengaluru, Bangalore Urban, Karnataka, 560001, India",
            "longitude": "77.6382683",
            "latitude": "12.9726449",
            "blogLinks": [
                "http://www.holidayiq.com/Kabini-Sightseeing-392.html",
                "http://goindia.about.com/od/karnataka/tp/karnataka.htm"
            ],
            "locType": "restaurant"
        },
        "bandipur national park": {
            "closest_to": "mysore",
            "address": "Bandipur National Park, Kozhikode - Kollegal Highway, Gundlupet taluk, Chamarajanagar district, Karnataka, India",
            "longitude": "76.4314968740264",
            "latitude": "11.76682425",
            "blogLinks": [
                "http://www.holidayiq.com/Kabini-Sightseeing-392.html"
            ],
            "locType": "national_park"
        },
        "adinatha": {
            "closest_to": "mysore",
            "address": "Adinatha Digambar Jain Temple, Kote Beedi, Gubbi, Gubbi taluk, Tumkur district, Karnataka, 572216, India",
            "longitude": "76.9456351",
            "latitude": "13.3070064",
            "blogLinks": [
                "http://wikitravel.org/en/Shravanabelagola"
            ],
            "locType": "place_of_worship"
        },
        "hirisave": {
            "closest_to": "mysore",
            "address": "Hirisave, Channarayapattana taluk, Hassan district, Karnataka, 573124, India",
            "longitude": "76.576616",
            "latitude": "12.9498785",
            "blogLinks": [
                "http://wikitravel.org/en/Shravanabelagola"
            ],
            "locType": "village"
        },
        "kodagu district": {
            "closest_to": "mysore",
            "address": "Kodagu, Karnataka, India",
            "longitude": "75.7412148",
            "latitude": "12.2519249",
            "blogLinks": [
                "http://www.holidayiq.com/Kabini-Sightseeing-392.html"
            ],
            "locType": "county"
        },
        "golden temple": {
            "closest_to": "mysore",
            "address": "Padmasambhava Buddhist Vihara (Golden Temple), MDR21, Koppa, Piriyapattana taluk, Mysuru district, Karnataka, India",
            "longitude": "75.9674656",
            "latitude": "12.430821",
            "blogLinks": [
                "http://samharshbangalore.blogspot.com/2012/10/travelling-by-road-from-bangalore-to.html",
                "http://goindia.about.com/od/karnataka/tp/karnataka.htm"
            ],
            "locType": "place_of_worship"
        },
        "kemmannagundi": {
            "closest_to": "mysore",
            "address": "Kemmannagundi, Tarikere taluku, Chikkamagaluru district, Karnataka, India",
            "longitude": "75.7520082",
            "latitude": "13.5463048",
            "blogLinks": [
                "http://wikitravel.org/en/Chikmagalur"
            ],
            "locType": "village"
        },
        "kannur": {
            "closest_to": "mysore",
            "address": "Netravati bridge - Kannur Bypass Road (Proposed), Padil, Bajal, Mangaluru taluk, Dakshina Kannada, Karnataka, 575007, India",
            "longitude": "74.8858161",
            "latitude": "12.8487602",
            "blogLinks": [
                "http://www.nivalink.com/destination/coorg-(madikeri)"
            ],
            "locType": "construction"
        },
        "bangalore-chennai": {
            "closest_to": "mysore",
            "address": "Bangalore Chennai Road, Bimapura, Mulubagilu taluk, Kolar district, Karnataka, 563131, India",
            "longitude": "78.3144556",
            "latitude": "13.1522603",
            "blogLinks": [
                "http://www.godakshin.com/travel-guides/4-exciting-places-visit-around-bangalore-732.html"
            ],
            "locType": "trunk"
        },
        "west coorg": {
            "closest_to": "mysore",
            "address": "Madikeri, Madikeri taluku, Kodagu, Karnataka, India",
            "longitude": "75.740031",
            "latitude": "12.4204003",
            "blogLinks": [
                "http://www.nivalink.com/destination/coorg-(madikeri)"
            ],
            "locType": "town"
        },
        "madikeri getaway2suntikoppaa": {
            "closest_to": "mysore",
            "address": "Madikeri, Madikeri taluku, Kodagu, Karnataka, India",
            "longitude": "75.740031",
            "latitude": "12.4204003",
            "blogLinks": [
                "http://www.nivalink.com/destination/coorg-(madikeri)"
            ],
            "locType": "town"
        },
        "kautilya": {
            "closest_to": "mysore",
            "address": "Kautilya Circle, Chamarajapuram, Mysuru, Mysuru taluk, Mysuru district, Karnataka, 570001, India",
            "longitude": "76.6396322289743",
            "latitude": "12.30705485",
            "blogLinks": [
                "http://samharshbangalore.blogspot.com/2012/10/travelling-by-road-from-bangalore-to.html"
            ],
            "locType": "secondary"
        },
        "halebidu": {
            "closest_to": "mysore",
            "address": "Halebidu, Hunasuru taluk, Mysuru district, Karnataka, India",
            "longitude": "76.4607075",
            "latitude": "12.359893",
            "blogLinks": [
                "http://www.indiamike.com/india/karnataka-f38/places-to-go-in-south-karnataka-t102701/"
            ],
            "locType": "village"
        },
        "mandya": {
            "closest_to": "mysore",
            "address": "Mandya, Mandya taluk, Mandya district, Karnataka, 571401, India",
            "longitude": "76.8937392",
            "latitude": "12.5217836",
            "blogLinks": [
                "http://wikitravel.org/en/Shravanabelagola"
            ],
            "locType": "town"
        },
        "bahubali": {
            "closest_to": "mysore",
            "address": "Bahubali Statue, SH8, Shravanabelagola, Channarayapattana taluk, Hassan district, Karnataka, 573135, India",
            "longitude": "76.4846128",
            "latitude": "12.8540505",
            "blogLinks": [
                "http://wikitravel.org/en/Shravanabelagola"
            ],
            "locType": "place_of_worship"
        },
        "tamil nadu": {
            "closest_to": "mysore",
            "address": "KARNATAKA BANK, Diwan Bhadur Road, Five Corner, RS Puram, Coimbatore, Coimbatore district, Tamil Nadu, 641001, India",
            "longitude": "76.9514152",
            "latitude": "11.0025894",
            "blogLinks": [
                "http://goindia.about.com/od/karnataka/tp/karnataka.htm"
            ],
            "locType": "bank"
        },
        "gadag": {
            "closest_to": "chitradurga",
            "address": "Gadag, Gadag taluk, Gadag district, Karnataka, 582101, India",
            "longitude": "75.6300786",
            "latitude": "15.4263647",
            "blogLinks": [
                "http://samharshbangalore.blogspot.com/2012/10/travelling-by-road-from-bangalore-to.html"
            ],
            "locType": "town"
        },
        "talakadu": {
            "closest_to": "mysore",
            "address": "Talakadu, Tirumakudalu Narasipura taluk, Mysuru district, Karnataka, India",
            "longitude": "77.0293979",
            "latitude": "12.1919942",
            "blogLinks": [
                "http://www.godakshin.com/travel-guides/4-exciting-places-visit-around-bangalore-732.html"
            ],
            "locType": "village"
        },
        "south karnataka": {
            "closest_to": "mysore",
            "address": "s, Vijayapura, Devanahalli taluk, Bangalore Rural, Karnataka, 562135, India",
            "longitude": "77.8040874",
            "latitude": "13.2942848",
            "blogLinks": [
                "http://wikitravel.org/en/Chikmagalur"
            ],
            "locType": "residential"
        },
        "anjaneya swamy temple": {
            "closest_to": "mysore",
            "address": "Anjaneya Swamy Temple, Seetharampalya Road, Green Domain Layout, Hoodi, Sitaramapalya, Bangalore Urban, Karnataka, 560066, India",
            "longitude": "77.7169608592617",
            "latitude": "12.9820478",
            "blogLinks": [
                "http://samharshbangalore.blogspot.com/2012/10/travelling-by-road-from-bangalore-to.html"
            ],
            "locType": "place_of_worship"
        },
        "kaveri": {
            "closest_to": "mysore",
            "address": "Kaveri, Kollegala taluk, Chamarajanagar district, Karnataka, India",
            "longitude": "77.0635531",
            "latitude": "12.1687878",
            "blogLinks": [
                "http://www.indiamike.com/india/karnataka-f38/places-to-go-in-south-karnataka-t102701/",
                "http://www.godakshin.com/travel-guides/4-exciting-places-visit-around-bangalore-732.html"
            ],
            "locType": "river"
        },
        "nanjangud": {
            "closest_to": "mysore",
            "address": "Nanjangud, Nanjanagudu Bypass, Hejjige, Nanjanagudu taluk, Mysuru district, Karnataka, 571300, India",
            "longitude": "76.683164",
            "latitude": "12.1229725",
            "blogLinks": [
                "http://www.indiamike.com/india/karnataka-f38/places-to-go-in-south-karnataka-t102701/"
            ],
            "locType": "station"
        },
        "maddur": {
            "closest_to": "mysore",
            "address": "Maddur, Madduru taluk, Mandya district, Karnataka, 571428, India",
            "longitude": "77.0456404",
            "latitude": "12.5851916",
            "blogLinks": [
                "http://www.godakshin.com/travel-guides/4-exciting-places-visit-around-bangalore-732.html"
            ],
            "locType": "town"
        },
        "chandragupta maurya": {
            "closest_to": "mysore",
            "address": "Chandragupta Maurya playground, 11 Main (Sri Aurobindo Marg), Jayanagar 4th Block, Jayanagar, Bengaluru, Bangalore Urban, Karnataka, 560001, India",
            "longitude": "77.585340318101",
            "latitude": "12.92084805",
            "blogLinks": [
                "http://wikitravel.org/en/Shravanabelagola"
            ],
            "locType": "pitch"
        },
        "vishnuvardhana": {
            "closest_to": "mysore",
            "address": "Vishnuvardhana Road, Chamarajapuram, Mysuru, Mysuru taluk, Mysuru district, Karnataka, 570001, India",
            "longitude": "76.6397313",
            "latitude": "12.2971671",
            "blogLinks": [
                "http://wikitravel.org/en/Shravanabelagola"
            ],
            "locType": "residential"
        },
        "yagachi": {
            "closest_to": "mysore",
            "address": "Yagachi, Beluru taluk, Hassan district, Karnataka, India",
            "longitude": "75.950911",
            "latitude": "13.0658494",
            "blogLinks": [
                "http://wikitravel.org/en/Chikmagalur"
            ],
            "locType": "river"
        },
        "udipi": {
            "closest_to": "mysore",
            "address": "Udipi Park, 2nd Cross Road, Muniyappa Layout, Murugeshpalaya, Belure Ambedkar Nagar, Bangalore Urban, Karnataka, 560067, India",
            "longitude": "77.652888",
            "latitude": "12.9530588",
            "blogLinks": [
                "http://www.nivalink.com/destination/coorg-(madikeri)",
                "http://www.nivalink.com/destination/chitradurga"
            ],
            "locType": "restaurant"
        },
        "bagilu": {
            "closest_to": "mysore",
            "address": "Bhagyada Bagilu Road, Gandhinagar, Yelahanka, Jakkur, Bangalore Urban, Karnataka, 560064, India",
            "longitude": "77.5972724",
            "latitude": "13.0991212",
            "blogLinks": [
                "https://en.wikipedia.org/wiki/Chitradurga_Fort"
            ],
            "locType": "secondary"
        },
        "bangalore-mysore road": {
            "closest_to": "mysore",
            "address": "Bangalore-Mysore Road, Bangalore Urban, Karnataka, 560074, India",
            "longitude": "77.4337983",
            "latitude": "12.8633084",
            "blogLinks": [
                "http://samharshbangalore.blogspot.com/2012/10/travelling-by-road-from-bangalore-to.html"
            ],
            "locType": "trunk"
        },
        "coorg": {
            "closest_to": "mysore",
            "address": "Madikeri, Madikeri taluku, Kodagu, Karnataka, India",
            "longitude": "75.740031",
            "latitude": "12.4204003",
            "blogLinks": [
                "http://www.indiamike.com/india/karnataka-f38/places-to-go-in-south-karnataka-t102701/",
                "http://www.nivalink.com/destination/coorg-(madikeri)"
            ],
            "locType": "town"
        },
        "hoysala village resort": {
            "closest_to": "mysore",
            "address": "Hoysala Village Resort, Beluru Road, Basavapura, Beluru taluk, Hassan district, Karnataka, India",
            "longitude": "76.066493",
            "latitude": "13.028919",
            "blogLinks": [
                "http://wikitravel.org/en/Shravanabelagola"
            ],
            "locType": "hotel"
        },
        "amrutapura": {
            "closest_to": "mysore",
            "address": "Amrutapura, Tarikere taluku, Chikkamagaluru district, Karnataka, India",
            "longitude": "75.8535015",
            "latitude": "13.7425193",
            "blogLinks": [
                "http://wikitravel.org/en/Chikmagalur"
            ],
            "locType": "village"
        },
        "kunti betta": {
            "closest_to": "mysore",
            "address": "Kunti Betta, Pandavapura taluk, Mandya district, Karnataka, India",
            "longitude": "76.6982646",
            "latitude": "12.5082433",
            "blogLinks": [
                "http://samharshbangalore.blogspot.com/2012/10/travelling-by-road-from-bangalore-to.html"
            ],
            "locType": "peak"
        },
        "bidadi": {
            "closest_to": "mysore",
            "address": "Bidadi, Ramanagara taluk, Ramanagara district, Karnataka, India",
            "longitude": "77.3869947",
            "latitude": "12.7988507",
            "blogLinks": [
                "http://samharshbangalore.blogspot.com/2012/10/travelling-by-road-from-bangalore-to.html",
                "http://www.godakshin.com/travel-guides/4-exciting-places-visit-around-bangalore-732.html"
            ],
            "locType": "town"
        },
        "brahmagiri": {
            "closest_to": "mysore",
            "address": "Brahmagiri, Madikeri taluku, Kodagu, Karnataka, India",
            "longitude": "75.490746",
            "latitude": "12.3868578",
            "blogLinks": [
                "https://en.wikipedia.org/wiki/Chitradurga_Fort",
                "https://en.wikipedia.org/wiki/Chitradurga_district"
            ],
            "locType": "peak"
        },
        "bangalore": {
            "closest_to": "mysore",
            "address": "Bengaluru, Bangalore Urban, Karnataka, 560001, India",
            "longitude": "77.5912997",
            "latitude": "12.9791198",
            "blogLinks": [
                "http://www.nivalink.com/destination/chitradurga",
                "http://wikitravel.org/en/Shravanabelagola",
                "http://samharshbangalore.blogspot.com/2012/10/travelling-by-road-from-bangalore-to.html",
                "http://enjoyinkarnataka.blogspot.com/",
                "http://www.karnatakatourism.org/",
                "http://www.godakshin.com/travel-guides/4-exciting-places-visit-around-bangalore-732.html",
                "https://en.wikipedia.org/wiki/Chitradurga_Fort",
                "http://wikitravel.org/en/Chikmagalur",
                "http://www.indiamike.com/india/karnataka-f38/mysore-to-chitradurga-t90619/",
                "http://goindia.about.com/od/karnataka/tp/karnataka.htm",
                "http://nychthemeron.blogspot.com/2014/01/day-3-day-trip-to-chitradurga-fort.html",
                "http://www.nivalink.com/destination/coorg-(madikeri)",
                "http://enjoyinkarnataka.blogspot.com/2012/04/sri-venugopala-swamy-temple.html",
                "https://en.wikipedia.org/wiki/Chitradurga_district"
            ],
            "locType": "city"
        },
        "garrison": {
            "closest_to": "mysore",
            "address": "Garrison Engineer (R and D )West, Dr. APJ Abdul Kalam Road, Sudgunte Palya, Thippasandra, Benniganahalli, Bangalore Urban, Karnataka, 560075, India",
            "longitude": "77.652828",
            "latitude": "12.9796086",
            "blogLinks": [
                "http://www.indiamike.com/india/karnataka-f38/places-to-go-in-south-karnataka-t102701/"
            ],
            "locType": "government"
        },
        "manikyadhara": {
            "closest_to": "mysore",
            "address": "Manikyadhara, Bababudangiri Road, Inam Dattatreya Pitha, Chikkamagaluru taluku, Chikkamagaluru district, Karnataka, India",
            "longitude": "75.7701434",
            "latitude": "13.4220248",
            "blogLinks": [
                "http://wikitravel.org/en/Chikmagalur"
            ],
            "locType": "attraction"
        },
        "aihole": {
            "closest_to": "chitradurga",
            "address": "Aihole, Hunagunda taluku, Bagalkote district, Karnataka, India",
            "longitude": "75.8819129",
            "latitude": "16.0192298",
            "blogLinks": [
                "http://goindia.about.com/od/karnataka/tp/karnataka.htm"
            ],
            "locType": "village"
        },
        "mm hills": {
            "closest_to": "mysore",
            "address": "Male Mahadeswara Betta, Kollegala taluk, Chamarajanagar district, Karnataka, India",
            "longitude": "77.5892977",
            "latitude": "12.0333126",
            "blogLinks": [
                "http://samharshbangalore.blogspot.com/2012/10/travelling-by-road-from-bangalore-to.html"
            ],
            "locType": "village"
        },
        "vijayanagar": {
            "closest_to": "mysore",
            "address": "Vijayanagar, Chord Road, Marenahalli, Vijaya Nagar, Binny Layout, Bangalore Urban, Karnataka, 560040, India",
            "longitude": "77.5375757",
            "latitude": "12.9713392",
            "blogLinks": [
                "http://goindia.about.com/od/karnataka/tp/karnataka.htm"
            ],
            "locType": "station"
        },
        "gopalakrishna temple": {
            "closest_to": "chitradurga",
            "address": "Sri Gopalakrishna Temple, Valagere, Sagara taluk, Shimoga district, Karnataka, India",
            "longitude": "74.8713209348962",
            "latitude": "14.05922645",
            "blogLinks": [
                "https://en.wikipedia.org/wiki/Chitradurga_Fort"
            ],
            "locType": "place_of_worship"
        },
        "botanical gardens": {
            "closest_to": "mysore",
            "address": "Botanical Garden, Cart road, Judicial Layout, Jakkur, Bangalore Urban, Karnataka, 560065, India",
            "longitude": "77.5744817798899",
            "latitude": "13.08099125",
            "blogLinks": [
                "http://www.indiamike.com/india/karnataka-f38/places-to-go-in-south-karnataka-t102701/"
            ],
            "locType": "protected_area"
        },
        "kudremukh": {
            "closest_to": "mysore",
            "address": "Kudremukha, Mudigere taluk, Chikkamagaluru district, Karnataka, India",
            "longitude": "75.2523304",
            "latitude": "13.2144007",
            "blogLinks": [
                "http://wikitravel.org/en/Chikmagalur"
            ],
            "locType": "village"
        },
        "tumkur": {
            "closest_to": "mysore",
            "address": "Tumakuru, Tumkur district, Karnataka, India",
            "longitude": "77.0002445",
            "latitude": "13.4999406",
            "blogLinks": [
                "http://nychthemeron.blogspot.com/2014/01/day-3-day-trip-to-chitradurga-fort.html",
                "http://www.indiamike.com/india/karnataka-f38/mysore-to-chitradurga-t90619/",
                "http://wikitravel.org/en/Chikmagalur"
            ],
            "locType": "county"
        },
        "il": {
            "closest_to": "chitradurga",
            "address": "Karnataka, India",
            "longitude": "75.7223521",
            "latitude": "14.5203896",
            "blogLinks": [
                "https://en.wikipedia.org/wiki/Chitradurga_Fort"
            ],
            "locType": "administrative"
        },
        "raghavendra swamy": {
            "closest_to": "mysore",
            "address": "Banashankari Raghavendra Swamy Mutt, 24th Main Road, Yediyur, Banashankari 2nd Stage, Bengaluru, Bangalore Urban, Karnataka, 560001, India",
            "longitude": "77.563636",
            "latitude": "12.9276061",
            "blogLinks": [
                "http://samharshbangalore.blogspot.com/2012/10/travelling-by-road-from-bangalore-to.html"
            ],
            "locType": "place_of_worship"
        },
        "kadur": {
            "closest_to": "mysore",
            "address": "Mudigere-Kadur Road, Basavannahalli, Chikkamagaluru, Chikkamagaluru taluku, Chikkamagaluru district, Karnataka, 577101, India",
            "longitude": "75.7820095",
            "latitude": "13.3283654",
            "blogLinks": [
                "http://wikitravel.org/en/Chikmagalur"
            ],
            "locType": "trunk"
        },
        "kalasa": {
            "closest_to": "mysore",
            "address": "Kalasa, Mudigere taluk, Chikkamagaluru district, Karnataka, 577124, India",
            "longitude": "75.3582366",
            "latitude": "13.2322235",
            "blogLinks": [
                "http://wikitravel.org/en/Chikmagalur"
            ],
            "locType": "town"
        },
        "hosadurga taluk": {
            "closest_to": "chitradurga",
            "address": "Hosadurga, Pavagada taluk, Tumkur district, Karnataka, India",
            "longitude": "77.2095258",
            "latitude": "14.2608929",
            "blogLinks": [
                "http://www.holidayiq.com/Chitradurga-Sightseeing-650.html"
            ],
            "locType": "village"
        },
        "shravanabelagola": {
            "closest_to": "mysore",
            "address": "Shravanabelagola, Channarayapattana taluk, Hassan district, Karnataka, 573135, India",
            "longitude": "76.4869997",
            "latitude": "12.8581305",
            "blogLinks": [
                "http://wikitravel.org/en/Shravanabelagola",
                "http://goindia.about.com/od/karnataka/tp/karnataka.htm"
            ],
            "locType": "town"
        },
        "belur road": {
            "closest_to": "mysore",
            "address": "Belur, Beluru taluk, Hassan district, Karnataka, 573115, India",
            "longitude": "75.8634851",
            "latitude": "13.1645671",
            "blogLinks": [
                "http://wikitravel.org/en/Shravanabelagola"
            ],
            "locType": "town"
        },
        "hebbe": {
            "closest_to": "mysore",
            "address": "Hebbe falls, Kemmannagundi Road, Attigundi, Chikkamagaluru taluku, Chikkamagaluru district, Karnataka, India",
            "longitude": "75.7253701",
            "latitude": "13.5414025",
            "blogLinks": [
                "http://wikitravel.org/en/Chikmagalur"
            ],
            "locType": "attraction"
        },
        "gowdahalli": {
            "closest_to": "mysore",
            "address": "Gowdahalli, Mudigere taluk, Chikkamagaluru district, Karnataka, India",
            "longitude": "75.5981999",
            "latitude": "13.0422415",
            "blogLinks": [
                "http://wikitravel.org/en/Chikmagalur"
            ],
            "locType": "village"
        },
        "hemavati": {
            "closest_to": "mysore",
            "address": "Hemavati, Hasana taluk, Hassan district, Karnataka, India",
            "longitude": "76.0723187",
            "latitude": "12.8179996",
            "blogLinks": [
                "http://wikitravel.org/en/Chikmagalur"
            ],
            "locType": "river"
        },
        "hassan": {
            "closest_to": "mysore",
            "address": "Hassan, Hasana taluk, Hassan district, Karnataka, 573201, India",
            "longitude": "76.0992703",
            "latitude": "13.0070817",
            "blogLinks": [
                "http://wikitravel.org/en/Shravanabelagola",
                "http://goindia.about.com/od/karnataka/tp/karnataka.htm"
            ],
            "locType": "town"
        },
        "rameshwara temple": {
            "closest_to": "mysore",
            "address": "Rameshwara Temple, Kranthikavi Sarvagnya Road, Rajajinagar 4th Block, Sriramapura, Bengaluru, Bangalore Urban, Karnataka, 560001, India",
            "longitude": "77.5678621969321",
            "latitude": "12.99365815",
            "blogLinks": [
                "http://www.holidayiq.com/Kabini-Sightseeing-392.html"
            ],
            "locType": "place_of_worship"
        },
        "vedavati river": {
            "closest_to": "mysore",
            "address": "Vedavati, Kaduru taluk, Chikkamagaluru district, Karnataka, India",
            "longitude": "76.1347937",
            "latitude": "13.6048777",
            "blogLinks": [
                "https://en.wikipedia.org/wiki/Chitradurga_Fort",
                "http://www.holidayiq.com/Chitradurga-Sightseeing-650.html",
                "https://en.wikipedia.org/wiki/Chitradurga_district"
            ],
            "locType": "river"
        },
        "wonderla": {
            "closest_to": "mysore",
            "address": "Wonderla, Wonder La Road, Manchanayakanahalli, Ramanagara taluk, Ramanagara district, Karnataka, India",
            "longitude": "77.4026822",
            "latitude": "12.8382986",
            "blogLinks": [
                "http://samharshbangalore.blogspot.com/2012/10/travelling-by-road-from-bangalore-to.html"
            ],
            "locType": "bus_stop"
        },
        "madurai": {
            "closest_to": "mysore",
            "address": "Madurai Idly Shop, 5th Main Road, Teachers Colony, HSR Layout, Bengaluru, Bangalore Urban, Karnataka, 560001, India",
            "longitude": "77.6320535",
            "latitude": "12.9185419",
            "blogLinks": [
                "http://www.indiamike.com/india/karnataka-f38/places-to-go-in-south-karnataka-t102701/"
            ],
            "locType": "restaurant"
        },
        "kaveri river": {
            "closest_to": "mysore",
            "address": "Kaveri, Malavalli taluk, Mandya district, Karnataka, India",
            "longitude": "77.1600751",
            "latitude": "12.2873835",
            "blogLinks": [
                "http://www.holidayiq.com/Kabini-Sightseeing-392.html"
            ],
            "locType": "river"
        },
        "maradi": {
            "closest_to": "mysore",
            "address": "Maradi, Arakalagudu taluk, Hassan district, Karnataka, India",
            "longitude": "76.0757799",
            "latitude": "12.8130205",
            "blogLinks": [
                "http://wikitravel.org/en/Chikmagalur"
            ],
            "locType": "village"
        },
        "yagachi river": {
            "closest_to": "mysore",
            "address": "Yagachi, Beluru taluk, Hassan district, Karnataka, India",
            "longitude": "75.950911",
            "latitude": "13.0658494",
            "blogLinks": [
                "http://goindia.about.com/od/karnataka/tp/karnataka.htm"
            ],
            "locType": "river"
        },
        "krishnagiri": {
            "closest_to": "chitradurga",
            "address": "Krishnagiri Colony, Padmaraj Nagar, Hubballi - \u0cb9\u0cc1\u0cac\u0ccd\u0cac\u0cb3\u0ccd\u0cb3\u0cbf, Hubballi taluku, Dharwad district, Karnataka, 580020, India",
            "longitude": "75.1096736",
            "latitude": "15.3375394",
            "blogLinks": [
                "http://www.godakshin.com/travel-guides/4-exciting-places-visit-around-bangalore-732.html"
            ],
            "locType": "neighbourhood"
        },
        "brahmagiri hill": {
            "closest_to": "chitradurga",
            "address": "Brahmagiri Betta, Molakalmuru taluku, Chitradurga district, Karnataka, India",
            "longitude": "76.8122474",
            "latitude": "14.8001586",
            "blogLinks": [
                "http://www.holidayiq.com/Kabini-Sightseeing-392.html"
            ],
            "locType": "peak"
        },
        "tungabhadra river": {
            "closest_to": "chitradurga",
            "address": "Tungabhadra, Gangavati taluku, Koppal district, Karnataka, India",
            "longitude": "76.4931607",
            "latitude": "15.3446123",
            "blogLinks": [
                "https://en.wikipedia.org/wiki/Chitradurga_Fort",
                "https://en.wikipedia.org/wiki/Chitradurga_district"
            ],
            "locType": "river"
        },
        "beechanahalli village": {
            "closest_to": "mysore",
            "address": "Beechanahalli, Krishnarajanagara taluk, Mysuru district, Karnataka, India",
            "longitude": "76.349661",
            "latitude": "12.5271227",
            "blogLinks": [
                "http://www.holidayiq.com/Kabini-Sightseeing-392.html"
            ],
            "locType": "village"
        },
        "mumbai": {
            "closest_to": "mysore",
            "address": "Mumbai Spice, 18/2, 10th Cross, Malleswaram, Vyalikaval, Malleswaram, Bengaluru, Bangalore Urban, Karnataka, 560003, India",
            "longitude": "77.5718472",
            "latitude": "13.0002869",
            "blogLinks": [
                "https://en.wikipedia.org/wiki/Chitradurga_district",
                "http://www.nivalink.com/destination/chitradurga"
            ],
            "locType": "restaurant"
        },
        "purandara mantapa": {
            "closest_to": "mysore",
            "address": "Purandara mantapa, 2nd Cross Road BSK 5th Stage, Singapore Gardens, ISRO Layout, Gubbalala, Bangalore Urban, Karnataka, 560086, India",
            "longitude": "77.5550213209869",
            "latitude": "12.89529155",
            "blogLinks": [
                "http://samharshbangalore.blogspot.com/2012/10/travelling-by-road-from-bangalore-to.html"
            ],
            "locType": "protected_area"
        },
        "srinivasa temple": {
            "closest_to": "mysore",
            "address": "Srinivasa Temple, 4th Cross Road, Maruthi Nagar, Madivala, Bengaluru, Bangalore Urban, Karnataka, 560001, India",
            "longitude": "77.61467675",
            "latitude": "12.9264648",
            "blogLinks": [
                "http://samharshbangalore.blogspot.com/2012/10/travelling-by-road-from-bangalore-to.html"
            ],
            "locType": "place_of_worship"
        },
        "kaimara": {
            "closest_to": "mysore",
            "address": "Kaimara, Chikkamagaluru taluku, Chikkamagaluru district, Karnataka, India",
            "longitude": "75.7448654",
            "latitude": "13.3713857",
            "blogLinks": [
                "http://wikitravel.org/en/Chikmagalur"
            ],
            "locType": "village"
        },
        "kengeri-uttarahalli": {
            "closest_to": "mysore",
            "address": "Uttarahalli - Kengeri Road, AGS Layout, Ganakkal, Bangalore Urban, Karnataka, 560086, India",
            "longitude": "77.5259323",
            "latitude": "12.9041537",
            "blogLinks": [
                "http://samharshbangalore.blogspot.com/2012/10/travelling-by-road-from-bangalore-to.html"
            ],
            "locType": "secondary"
        },
        "lakkavalli": {
            "closest_to": "chitradurga",
            "address": "Lakkavalli, Soraba taluk, Shimoga district, Karnataka, India",
            "longitude": "75.1078097",
            "latitude": "14.5841018",
            "blogLinks": [
                "http://wikitravel.org/en/Chikmagalur"
            ],
            "locType": "village"
        },
        "sripadaraja": {
            "closest_to": "mysore",
            "address": "Sri Sripadaraja Mutt, Old Madras Road, Halekuppa, Mulubagilu taluk, Kolar district, Karnataka, India",
            "longitude": "78.4098989814967",
            "latitude": "13.1741086",
            "blogLinks": [
                "http://samharshbangalore.blogspot.com/2012/10/travelling-by-road-from-bangalore-to.html"
            ],
            "locType": "place_of_worship"
        },
        "ranganathaswamy temple": {
            "closest_to": "mysore",
            "address": "Ranganathaswamy Temple, Steps to Ranganathaswami Temple, Halekote, Hole Narasipura taluk, Hassan district, Karnataka, 573211, India",
            "longitude": "76.1812411",
            "latitude": "12.854149",
            "blogLinks": [
                "http://www.holidayiq.com/Chitradurga-Sightseeing-650.html"
            ],
            "locType": "place_of_worship"
        },
        "kanva river": {
            "closest_to": "mysore",
            "address": "Kanva Reservoir, Chamanahalli, Ramanagara taluk, Ramanagara district, Karnataka, India",
            "longitude": "77.2039784730662",
            "latitude": "12.73575",
            "blogLinks": [
                "http://samharshbangalore.blogspot.com/2012/10/travelling-by-road-from-bangalore-to.html"
            ],
            "locType": "reservoir"
        },
        "lakshminarayana": {
            "closest_to": "mysore",
            "address": "Sri Lakshminarayana Swami Temple, SH85, Kattaraghatta, Krishnarajapete taluk, Mandya district, Karnataka, India",
            "longitude": "76.4786794480367",
            "latitude": "12.64241745",
            "blogLinks": [
                "http://samharshbangalore.blogspot.com/2012/10/travelling-by-road-from-bangalore-to.html"
            ],
            "locType": "place_of_worship"
        },
        "hubli": {
            "closest_to": "chitradurga",
            "address": "Hubballi - \u0cb9\u0cc1\u0cac\u0ccd\u0cac\u0cb3\u0ccd\u0cb3\u0cbf, Hubballi taluku, Dharwad district, Karnataka, 580020, India",
            "longitude": "75.1379848",
            "latitude": "15.3518378",
            "blogLinks": [
                "http://www.nivalink.com/destination/chitradurga"
            ],
            "locType": "city"
        },
        "chamarajeshwara": {
            "closest_to": "mysore",
            "address": "Sri Chamarajeshwara Temple, Car Street, Chamarajanagara, Chamarajanagara taluk, Chamarajanagar district, Karnataka, 571313, India",
            "longitude": "76.9377863895392",
            "latitude": "11.92690485",
            "blogLinks": [
                "http://samharshbangalore.blogspot.com/2012/10/travelling-by-road-from-bangalore-to.html"
            ],
            "locType": "place_of_worship"
        },
        "kutta": {
            "closest_to": "mysore",
            "address": "Kutta, Virajpet taluk, Kodagu, Karnataka, India",
            "longitude": "76.0491296",
            "latitude": "11.9696155",
            "blogLinks": [
                "http://www.holidayiq.com/Kabini-Sightseeing-392.html"
            ],
            "locType": "village"
        },
        "bangalore-pune": {
            "closest_to": "chitradurga",
            "address": "Pune-Bangalore Road, Motebennur, Byadagi taluk, Haveri district, Karnataka, 581106, India",
            "longitude": "75.4974847",
            "latitude": "14.7156528",
            "blogLinks": [
                "http://nychthemeron.blogspot.com/2014/01/day-3-day-trip-to-chitradurga-fort.html"
            ],
            "locType": "trunk"
        },
        "holalkere": {
            "closest_to": "mysore",
            "address": "Holalkere, Holalkere taluk, Chitradurga district, Karnataka, 577526, India",
            "longitude": "76.1830578",
            "latitude": "14.0424479",
            "blogLinks": [
                "https://en.wikipedia.org/wiki/Chitradurga_district"
            ],
            "locType": "town"
        },
        "south kodagu": {
            "closest_to": "mysore",
            "address": "Kodagu, Karnataka, India",
            "longitude": "75.6677235950852",
            "latitude": "12.38117345",
            "blogLinks": [
                "http://www.holidayiq.com/Kabini-Sightseeing-392.html"
            ],
            "locType": "administrative"
        },
        "paschimavahini": {
            "closest_to": "mysore",
            "address": "Paschimavahini, Bangalore-Mysore Road, Srirangapatna, Srirangapattana taluk, Mandya district, Karnataka, 571438, India",
            "longitude": "76.6713373",
            "latitude": "12.4174222",
            "blogLinks": [
                "http://samharshbangalore.blogspot.com/2012/10/travelling-by-road-from-bangalore-to.html"
            ],
            "locType": "motorway_junction"
        },
        "belur": {
            "closest_to": "mysore",
            "address": "Belur, Beluru taluk, Hassan district, Karnataka, 573115, India",
            "longitude": "75.8634851",
            "latitude": "13.1645671",
            "blogLinks": [
                "http://wikitravel.org/en/Shravanabelagola",
                "http://enjoyinkarnataka.blogspot.com/",
                "http://www.distancesfrom.com/in/flight-time-from-Mysuru-to-Badami-via-Chickmagaluru-Chitradurga-Hampi/FlightTimeHistory/34902190.aspx",
                "http://wikitravel.org/en/Chikmagalur",
                "http://www.indiamike.com/india/karnataka-f38/places-to-go-in-south-karnataka-t102701/",
                "http://goindia.about.com/od/karnataka/tp/karnataka.htm",
                "http://enjoyinkarnataka.blogspot.com/2012/04/sri-venugopala-swamy-temple.html"
            ],
            "locType": "town"
        },
        "karnataka": {
            "closest_to": "mysore",
            "address": "Karnataka, Shalivahana Road, Nazarbad, Mysuru, Mysuru taluk, Mysuru district, Karnataka, 570001, India",
            "longitude": "76.6639936",
            "latitude": "12.3084901",
            "blogLinks": [
                "http://www.nivalink.com/destination/chitradurga",
                "http://www.holidayiq.com/Chitradurga-Sightseeing-650.html",
                "http://wikitravel.org/en/Shravanabelagola",
                "http://samharshbangalore.blogspot.com/2012/10/travelling-by-road-from-bangalore-to.html",
                "http://www.karnatakatourism.org/",
                "http://www.distancesfrom.com/in/flight-time-from-Mysuru-to-Badami-via-Chickmagaluru-Chitradurga-Hampi/FlightTimeHistory/34902190.aspx",
                "http://www.godakshin.com/travel-guides/4-exciting-places-visit-around-bangalore-732.html",
                "https://en.wikipedia.org/wiki/Chitradurga_Fort",
                "http://www.indiamike.com/india/karnataka-f38/places-to-go-in-south-karnataka-t102701/",
                "http://wikitravel.org/en/Chikmagalur",
                "http://www.indiamike.com/india/karnataka-f38/mysore-to-chitradurga-t90619/",
                "http://distancecalculator.globefeed.com/India_Distance_Calculator.asp?state=19",
                "http://goindia.about.com/od/karnataka/tp/karnataka.htm",
                "http://nychthemeron.blogspot.com/2014/01/day-3-day-trip-to-chitradurga-fort.html",
                "http://www.holidayiq.com/Kabini-Sightseeing-392.html",
                "http://www.nivalink.com/destination/coorg-(madikeri)",
                "http://enjoyinkarnataka.blogspot.com/2012/04/sri-venugopala-swamy-temple.html",
                "https://en.wikipedia.org/wiki/Chitradurga_district"
            ],
            "locType": "atm"
        },
        "kannada": {
            "closest_to": "mysore",
            "address": "Dakshina Kannada, Karnataka, India",
            "longitude": "75.1008028650794",
            "latitude": "12.8114089",
            "blogLinks": [
                "https://en.wikipedia.org/wiki/Chitradurga_Fort",
                "https://en.wikipedia.org/wiki/Chitradurga_district"
            ],
            "locType": "administrative"
        },
        "chitradurga": {
            "closest_to": "chitradurga",
            "address": "Chitradurga, Chitradurga taluku, Chitradurga district, Karnataka, 577500, India",
            "longitude": "76.4005122",
            "latitude": "14.2266443",
            "blogLinks": [
                "http://www.nivalink.com/destination/chitradurga",
                "http://www.holidayiq.com/Chitradurga-Sightseeing-650.html",
                "https://en.wikipedia.org/wiki/Chitradurga_Fort",
                "http://www.indiamike.com/india/karnataka-f38/mysore-to-chitradurga-t90619/",
                "http://nychthemeron.blogspot.com/2014/01/day-3-day-trip-to-chitradurga-fort.html",
                "https://en.wikipedia.org/wiki/Chitradurga_district"
            ],
            "locType": "town"
        },
        "veerabhadra": {
            "closest_to": "chitradurga",
            "address": "Veerabhadra Galli, Sirsi, Shirasi taluk, Uttara Kannada, Karnataka, 581400, India",
            "longitude": "74.8354754",
            "latitude": "14.6129642",
            "blogLinks": [
                "http://samharshbangalore.blogspot.com/2012/10/travelling-by-road-from-bangalore-to.html"
            ],
            "locType": "residential"
        },
        "kodagu": {
            "closest_to": "mysore",
            "address": "Kodagu, Karnataka, India",
            "longitude": "75.6677235950852",
            "latitude": "12.38117345",
            "blogLinks": [
                "http://wikitravel.org/en/Shravanabelagola",
                "http://goindia.about.com/od/karnataka/tp/karnataka.htm"
            ],
            "locType": "administrative"
        },
        "davanagere district": {
            "closest_to": "chitradurga",
            "address": "Davanagere district, Karnataka, India",
            "longitude": "75.8904782659728",
            "latitude": "14.37090835",
            "blogLinks": [
                "https://en.wikipedia.org/wiki/Chitradurga_district"
            ],
            "locType": "administrative"
        },
        "bangalore-mysore": {
            "closest_to": "mysore",
            "address": "Bangalore-Mysore Road, Yaliyuru, Mandya taluk, Mandya district, Karnataka, 571426, India",
            "longitude": "76.807544",
            "latitude": "12.4964879",
            "blogLinks": [
                "http://samharshbangalore.blogspot.com/2012/10/travelling-by-road-from-bangalore-to.html"
            ],
            "locType": "trunk"
        },
        "chitradurga district": {
            "closest_to": "chitradurga",
            "address": "Chitradurga district, Karnataka, India",
            "longitude": "76.5299366059272",
            "latitude": "14.3051049",
            "blogLinks": [
                "https://en.wikipedia.org/wiki/Chitradurga_district",
                "https://en.wikipedia.org/wiki/Chitradurga_Fort",
                "http://www.holidayiq.com/Chitradurga-Sightseeing-650.html",
                "http://www.nivalink.com/destination/chitradurga"
            ],
            "locType": "administrative"
        },
        "tirupathi": {
            "closest_to": "mysore",
            "address": "Malekallu Tirupathi, Arasikere taluku, Hassan district, Karnataka, India",
            "longitude": "76.2727455",
            "latitude": "13.3289007",
            "blogLinks": [
                "http://samharshbangalore.blogspot.com/2012/10/travelling-by-road-from-bangalore-to.html"
            ],
            "locType": "village"
        },
        "india": {
            "closest_to": "chitradurga",
            "address": "Karnataka, India",
            "longitude": "75.7223521",
            "latitude": "14.5203896",
            "blogLinks": [
                "http://www.nivalink.com/destination/chitradurga",
                "http://wikitravel.org/en/Shravanabelagola",
                "http://samharshbangalore.blogspot.com/2012/10/travelling-by-road-from-bangalore-to.html",
                "http://www.distancesfrom.com/in/flight-time-from-Mysuru-to-Badami-via-Chickmagaluru-Chitradurga-Hampi/FlightTimeHistory/34902190.aspx",
                "https://en.wikipedia.org/wiki/Chitradurga_Fort",
                "http://wikitravel.org/en/Chikmagalur",
                "http://www.indiamike.com/india/karnataka-f38/places-to-go-in-south-karnataka-t102701/",
                "http://distancecalculator.globefeed.com/India_Distance_Calculator.asp?state=19",
                "http://goindia.about.com/od/karnataka/tp/karnataka.htm",
                "http://www.holidayiq.com/Kabini-Sightseeing-392.html",
                "http://www.nivalink.com/destination/coorg-(madikeri)",
                "https://en.wikipedia.org/wiki/Chitradurga_district"
            ],
            "locType": "administrative"
        },
        "urbana": {
            "closest_to": "mysore",
            "address": "Ozone Urbana, Sir M Vishweshwaraiah Enclave, Kannamangala, Devanahalli taluk, Bangalore Rural, Karnataka, 562110, India",
            "longitude": "77.6625494733109",
            "latitude": "13.2088319",
            "blogLinks": [
                "https://en.wikipedia.org/wiki/Chitradurga_Fort"
            ],
            "locType": "residential"
        },
        "channarayapatna": {
            "closest_to": "mysore",
            "address": "Channarayapatna, Devanahalli taluk, Bangalore Rural, Karnataka, India",
            "longitude": "77.797084",
            "latitude": "13.2455918",
            "blogLinks": [
                "http://wikitravel.org/en/Shravanabelagola"
            ],
            "locType": "village"
        },
        "juma masjid": {
            "closest_to": "mysore",
            "address": "New Juma Masjid, Pudiyo Palli, MSEZL Corridor Rd, Jokatte, Mangaluru taluk, Dakshina Kannada, Karnataka, 575014, India",
            "longitude": "74.8447647",
            "latitude": "12.9623947",
            "blogLinks": [
                "http://samharshbangalore.blogspot.com/2012/10/travelling-by-road-from-bangalore-to.html"
            ],
            "locType": "place_of_worship"
        },
        "srirangapatna": {
            "closest_to": "mysore",
            "address": "Srirangapatna, Srirangapattana taluk, Mandya district, Karnataka, 571438, India",
            "longitude": "76.6850743",
            "latitude": "12.4225604",
            "blogLinks": [
                "http://samharshbangalore.blogspot.com/2012/10/travelling-by-road-from-bangalore-to.html"
            ],
            "locType": "town"
        },
        "abbur": {
            "closest_to": "mysore",
            "address": "Government Higher Primary School Abbur, Abburu, Hunasuru taluk, Mysuru district, Karnataka, India",
            "longitude": "76.18024",
            "latitude": "12.22133",
            "blogLinks": [
                "http://samharshbangalore.blogspot.com/2012/10/travelling-by-road-from-bangalore-to.html"
            ],
            "locType": "school"
        },
        "brahmi": {
            "closest_to": "mysore",
            "address": "MES Kishore Kendra, 10th Main Road, Vyalikaval, Gayatri Nagar, Bengaluru, Bangalore Urban, Karnataka, 560055, India",
            "longitude": "77.5641994467667",
            "latitude": "13.00475195",
            "blogLinks": [
                "https://en.wikipedia.org/wiki/Chitradurga_district"
            ],
            "locType": "school"
        },
        "madikeri": {
            "closest_to": "mysore",
            "address": "Madikeri, Madikeri taluku, Kodagu, Karnataka, India",
            "longitude": "75.740031",
            "latitude": "12.4204003",
            "blogLinks": [
                "http://www.nivalink.com/destination/coorg-(madikeri)"
            ],
            "locType": "town"
        }
    },
    "mysore": {
        "place_id": "20900757",
        "osm_id": "2068274800",
        "icon": "https://nominatim.openstreetmap.org/images/mapicons/poi_place_city.p.20.png",
        "osm_type": "node",
        "licence": "Data \u00a9 OpenStreetMap contributors, ODbL 1.0. http://www.openstreetmap.org/copyright",
        "display_name": "Mysuru, Mysuru taluk, Mysuru district, Karnataka, 570001, India",
        "type": "city",
        "lon": "76.6553609",
        "boundingbox": [
            "12.1451828",
            "12.4651828",
            "76.4953609",
            "76.8153609"
        ],
        "importance": 0.6487665495944,
        "lat": "12.3051828",
        "class": "place"
    }
}