{
    "chitradurga": {
        "lat": "14.2266443",
        "class": "place",
        "importance": 0.5,
        "osm_type": "node",
        "lon": "76.4005122",
        "place_id": "4897275",
        "display_name": "Chitradurga, Chitradurga taluku, Chitradurga district, Karnataka, 577500, India",
        "osm_id": "571409087",
        "boundingbox": [
            "14.1866443",
            "14.2666443",
            "76.3605122",
            "76.4405122"
        ],
        "type": "town",
        "licence": "Data \u00a9 OpenStreetMap contributors, ODbL 1.0. http://www.openstreetmap.org/copyright",
        "icon": "https://nominatim.openstreetmap.org/images/mapicons/poi_place_town.p.20.png"
    },
    "dandeli": {
        "lat": "15.2490284",
        "class": "place",
        "importance": 0.5,
        "osm_type": "node",
        "lon": "74.6236037",
        "place_id": "5820025",
        "display_name": "Dandeli, Haliyala taluku, Uttara Kannada, Karnataka, 581325, India",
        "osm_id": "612546262",
        "boundingbox": [
            "15.2090284",
            "15.2890284",
            "74.5836037",
            "74.6636037"
        ],
        "type": "town",
        "licence": "Data \u00a9 OpenStreetMap contributors, ODbL 1.0. http://www.openstreetmap.org/copyright",
        "icon": "https://nominatim.openstreetmap.org/images/mapicons/poi_place_town.p.20.png"
    },
    "mentions": {
        "kamalapura": {
            "blogLinks": [
                "http://www.team-bhp.com/forum/route-travel-queries/47758-bangalore-sirsi-dandeli-hubli.html"
            ],
            "longitude": "75.7316366",
            "address": "Kamalapura, Harihara taluku, Davanagere district, Karnataka, India",
            "latitude": "14.4449672",
            "locType": "village",
            "closest_to": "dandeli"
        },
        "varaha": {
            "blogLinks": [
                "https://en.wikipedia.org/wiki/Tourism_in_Karnataka"
            ],
            "longitude": "75.3718812",
            "address": "Varaha, Hirekeruru taluk, Haveri district, Karnataka, India",
            "latitude": "14.390777",
            "locType": "village",
            "closest_to": "dandeli"
        },
        "ranganathittu bird sanctuary": {
            "blogLinks": [
                "https://en.wikipedia.org/wiki/Tourism_in_Karnataka"
            ],
            "longitude": "76.6553081",
            "address": "Ranganathittu Bird Sanctuary, SH154, Palahalli, Srirangapattana taluk, Mandya district, Karnataka, 571438, India",
            "latitude": "12.4238524",
            "locType": "attraction",
            "closest_to": "chitradurga"
        },
        "sanapur lake": {
            "blogLinks": [
                "http://wikitravel.org/en/Hampi"
            ],
            "longitude": "76.4294274988777",
            "address": "Sanapura Kere, Sanapura, Gangavati taluku, Koppal district, Karnataka, India",
            "latitude": "15.35823095",
            "locType": "reservoir",
            "closest_to": "dandeli"
        },
        "nagajhari river": {
            "blogLinks": [
                "http://www.holidayiq.com/Dandeli-Sightseeing-345.html"
            ],
            "longitude": "74.5013412",
            "address": "Nagajhari School, Belgaum - Panaji Highway, Cantonment, Belagavi, Belagavi taluku, Belgaum district, Karnataka, 590001, India",
            "latitude": "15.8351706",
            "locType": "school",
            "closest_to": "dandeli"
        },
        "narasimha swamy temple": {
            "blogLinks": [
                "https://en.wikipedia.org/wiki/Tourism_in_Karnataka"
            ],
            "longitude": "76.2427318",
            "address": "Narasimha Swamy Temple, Attavara Mudigere Road, Attavara, Hasana taluk, Hassan district, Karnataka, India",
            "latitude": "13.0943931",
            "locType": "place_of_worship",
            "closest_to": "chitradurga"
        },
        "kagal": {
            "blogLinks": [
                "https://en.wikipedia.org/wiki/Tourism_in_Karnataka"
            ],
            "longitude": "74.3575302591262",
            "address": "Kagal Fort, Birkodi Village, Kumata taluk, Uttara Kannada, Karnataka, India",
            "latitude": "14.5055819",
            "locType": "grass",
            "closest_to": "dandeli"
        },
        "haveri": {
            "blogLinks": [
                "https://en.wikipedia.org/wiki/Tourism_in_Karnataka"
            ],
            "longitude": "75.3996731",
            "address": "Haveri, Haveri taluku, Haveri district, Karnataka, 581110, India",
            "latitude": "14.7874825",
            "locType": "town",
            "closest_to": "dandeli"
        },
        "vyasanakere": {
            "blogLinks": [
                "http://travel.india.com/explore/wildlife-sanctuaries-in-karnataka/"
            ],
            "longitude": "76.3553916",
            "address": "Vyasanakere, Hosapete taluk, Bellary district, Karnataka, India",
            "latitude": "15.1954023",
            "locType": "village",
            "closest_to": "dandeli"
        },
        "lokapura": {
            "blogLinks": [
                "https://en.wikipedia.org/wiki/Tourism_in_Karnataka"
            ],
            "longitude": "75.3685939",
            "address": "Lokapura, Mudhola taluku, Bagalkote district, Karnataka, 587122, India",
            "latitude": "16.1627427",
            "locType": "town",
            "closest_to": "dandeli"
        },
        "shimoga": {
            "blogLinks": [
                "https://en.wikipedia.org/wiki/Tourism_in_Karnataka"
            ],
            "longitude": "75.569737",
            "address": "Shivamogga, Shivamogga taluku, Shimoga district, Karnataka, 577200, India",
            "latitude": "13.9311723",
            "locType": "city",
            "closest_to": "dandeli"
        },
        "vishnu": {
            "blogLinks": [
                "https://en.wikipedia.org/wiki/Tourism_in_Karnataka"
            ],
            "longitude": "77.7198022157059",
            "address": "Vishnu Residency Apartments, Thubarahalli, Siddapura, Bangalore Urban, Karnataka, 560066, India",
            "latitude": "12.95388635",
            "locType": "residential",
            "closest_to": "chitradurga"
        },
        "kalyani": {
            "blogLinks": [
                "https://en.wikipedia.org/wiki/Tourism_in_Karnataka"
            ],
            "longitude": "77.6286090192686",
            "address": "Kalyani, Neeladri Road, Electronics City Phase 1, Bettadasana Pura, Bangalore Urban, Karnataka, 560100, India",
            "latitude": "12.8406466",
            "locType": "water",
            "closest_to": "chitradurga"
        },
        "manipal": {
            "blogLinks": [
                "https://en.wikipedia.org/wiki/Tourism_in_Karnataka"
            ],
            "longitude": "74.7870308",
            "address": "Manipal, Udupi taluku, Udupi district, Karnataka, India",
            "latitude": "13.3519723",
            "locType": "town",
            "closest_to": "dandeli"
        },
        "kumta": {
            "blogLinks": [
                "https://en.wikipedia.org/wiki/Tourism_in_Karnataka"
            ],
            "longitude": "74.4107617",
            "address": "Kumta, Kumata taluk, Uttara Kannada, Karnataka, India",
            "latitude": "14.4261647",
            "locType": "town",
            "closest_to": "dandeli"
        },
        "mysore district": {
            "blogLinks": [
                "https://en.wikipedia.org/wiki/Tourism_in_Karnataka"
            ],
            "longitude": "76.6553609",
            "address": "Mysuru, Mysuru taluk, Mysuru district, Karnataka, 570001, India",
            "latitude": "12.3051828",
            "locType": "city",
            "closest_to": "chitradurga"
        },
        "kodachadri": {
            "blogLinks": [
                "https://en.wikipedia.org/wiki/Tourism_in_Karnataka"
            ],
            "longitude": "74.8705395",
            "address": "Kodachadri, \u0c95\u0cc1\u0c82\u0ca6\u0cbe\u0caa\u0cc1\u0cb0 \u0ca4\u0cbe\u0cb2\u0cc2\u0c95\u0cc1, Udupi district, Karnataka, India",
            "latitude": "13.8565758",
            "locType": "peak",
            "closest_to": "dandeli"
        },
        "marikamba": {
            "blogLinks": [
                "http://traveltwosome.com/exciting-road-trips-from-bangalore-6/"
            ],
            "longitude": "74.8103631279317",
            "address": "Marikamba Temple, NH766C;SH26, Halkal, \u0c95\u0cc1\u0c82\u0ca6\u0cbe\u0caa\u0cc1\u0cb0 \u0ca4\u0cbe\u0cb2\u0cc2\u0c95\u0cc1, Udupi district, Karnataka, 576220, India",
            "latitude": "13.8626958",
            "locType": "place_of_worship",
            "closest_to": "dandeli"
        },
        "belgaum railway station": {
            "blogLinks": [
                "http://www.nivalink.com/destination/dandeli"
            ],
            "longitude": "74.509065",
            "address": "Belgaum, Belgaum - Panaji Highway, Cantonment, Belagavi, Belagavi taluku, Belgaum district, Karnataka, 590001, India",
            "latitude": "15.8489677",
            "locType": "station",
            "closest_to": "dandeli"
        },
        "lakkavalli": {
            "blogLinks": [
                "http://travel.india.com/explore/wildlife-sanctuaries-in-karnataka/"
            ],
            "longitude": "75.1078097",
            "address": "Lakkavalli, Soraba taluk, Shimoga district, Karnataka, India",
            "latitude": "14.5841018",
            "locType": "village",
            "closest_to": "dandeli"
        },
        "karnataka state": {
            "blogLinks": [
                "http://www.holidayiq.com/Dandeli-Sightseeing-345.html"
            ],
            "longitude": "76.6236231",
            "address": "Karnataka State Open University, \u0cb9\u0cc1\u0ca3\u0cb8\u0cc2\u0cb0\u0cc1 \u0cb0\u0cb8\u0ccd\u0ca4\u0cc6, Gokulam, Mysuru, Mysuru taluk, Mysuru district, Karnataka, 570001, India",
            "latitude": "12.315382",
            "locType": "university",
            "closest_to": "chitradurga"
        },
        "coastal karnataka": {
            "blogLinks": [
                "https://en.wikipedia.org/wiki/Tourism_in_Karnataka"
            ],
            "longitude": "74.8137275833157",
            "address": "Bharat Petroleum Mangalore Coastal Installation, Baikampady, Mangaluru taluk, Dakshina Kannada, Karnataka, 575014, India",
            "latitude": "12.96014675",
            "locType": "industrial",
            "closest_to": "chitradurga"
        },
        "haliyal": {
            "blogLinks": [
                "http://www.holidayiq.com/Dandeli-Sightseeing-345.html"
            ],
            "longitude": "74.7646665",
            "address": "Haliyal, Haliyala taluku, Uttara Kannada, Karnataka, 581329, India",
            "latitude": "15.3299733",
            "locType": "town",
            "closest_to": "dandeli"
        },
        "siddheshwara": {
            "blogLinks": [
                "https://en.wikipedia.org/wiki/Tourism_in_Karnataka"
            ],
            "longitude": "77.5876527",
            "address": "Siddheshwara Medicals, Judicial Layout, Allalasandra, Bangalore, 7th Main Road, Judicial Layout, Bengaluru, Bangalore Urban, Karnataka, 560001, India",
            "latitude": "13.0797146",
            "locType": "pharmacy",
            "closest_to": "chitradurga"
        },
        "bhatkal": {
            "blogLinks": [
                "https://en.wikipedia.org/wiki/Tourism_in_Karnataka"
            ],
            "longitude": "74.5485295",
            "address": "Bhatkal, Bhatkala taluk, Uttara Kannada, Karnataka, 581320, India",
            "latitude": "13.9952114",
            "locType": "town",
            "closest_to": "dandeli"
        },
        "dakshina kannada": {
            "blogLinks": [
                "https://en.wikipedia.org/wiki/Tourism_in_Karnataka"
            ],
            "longitude": "75.1008028650794",
            "address": "Dakshina Kannada, Karnataka, India",
            "latitude": "12.8114089",
            "locType": "administrative",
            "closest_to": "chitradurga"
        },
        "virupaksha temple": {
            "blogLinks": [
                "https://en.wikipedia.org/wiki/Tourism_in_Karnataka",
                "http://wikitravel.org/en/Hampi"
            ],
            "longitude": "76.4587777156223",
            "address": "Virupaksha Temple, Hampi Bazaar, Hampe, Hosapete taluk, Bellary district, Karnataka, 583239, India",
            "latitude": "15.3351754",
            "locType": "place_of_worship",
            "closest_to": "dandeli"
        },
        "daroji": {
            "blogLinks": [
                "http://travel.india.com/explore/wildlife-sanctuaries-in-karnataka/"
            ],
            "longitude": "76.6667172",
            "address": "Daroji, Sanduru taluk, Bellary district, Karnataka, India",
            "latitude": "15.2671318",
            "locType": "village",
            "closest_to": "dandeli"
        },
        "lakshmeshwar": {
            "blogLinks": [
                "https://en.wikipedia.org/wiki/Tourism_in_Karnataka"
            ],
            "longitude": "75.4741167",
            "address": "Lakshmeshwar KSRTC Bus stand, SH6, Bastibana, Lakshmeshvara, Shirahatti taluku, Gadag district, Karnataka, 582116, India",
            "latitude": "15.12373",
            "locType": "bus_station",
            "closest_to": "dandeli"
        },
        "bagamandala": {
            "blogLinks": [
                "https://en.wikipedia.org/wiki/Tourism_in_Karnataka"
            ],
            "longitude": "75.748408",
            "address": "Madikeri - Bagamandala ,Tala Kaveri Road, Mekeri, Madikeri taluku, Kodagu, Karnataka, India",
            "latitude": "12.388062",
            "locType": "primary",
            "closest_to": "chitradurga"
        },
        "malaprabha": {
            "blogLinks": [
                "https://en.wikipedia.org/wiki/Tourism_in_Karnataka"
            ],
            "longitude": "75.1982668",
            "address": "Malaprabha, Ramadurga taluku, Belgaum district, Karnataka, India",
            "latitude": "15.8914192",
            "locType": "river",
            "closest_to": "dandeli"
        },
        "sahyadri range": {
            "blogLinks": [
                "http://www.holidayiq.com/Dandeli-Sightseeing-345.html"
            ],
            "longitude": "75.2317987800043",
            "address": "Sahyadri Polytechnic, SH1, Seebinakere, Sankadahole, Tirthahalli taluk, Shimoga district, Karnataka, 577432, India",
            "latitude": "13.6983273",
            "locType": "school",
            "closest_to": "dandeli"
        },
        "gudavi": {
            "blogLinks": [
                "https://en.wikipedia.org/wiki/Tourism_in_Karnataka"
            ],
            "longitude": "75.009649",
            "address": "Gudavi, Soraba taluk, Shimoga district, Karnataka, India",
            "latitude": "14.4400296",
            "locType": "village",
            "closest_to": "dandeli"
        },
        "tungabadra dam": {
            "blogLinks": [
                "http://wikitravel.org/en/Hampi"
            ],
            "longitude": "76.8686753",
            "address": "Tungabadra High Level Canal, Ballari, Bellary taluk, Bellary district, Karnataka, India",
            "latitude": "15.1764865",
            "locType": "canal",
            "closest_to": "chitradurga"
        },
        "chalukya": {
            "blogLinks": [
                "https://en.wikipedia.org/wiki/Tourism_in_Karnataka"
            ],
            "longitude": "77.5192989605445",
            "address": "Chalukya Nagar, Chandra Layout, GKW Layout, Bangalore Urban, Karnataka, 560072, India",
            "latitude": "12.9617207",
            "locType": "residential",
            "closest_to": "chitradurga"
        },
        "lushington falls": {
            "blogLinks": [
                "https://en.wikipedia.org/wiki/Tourism_in_Karnataka"
            ],
            "longitude": "74.7477592",
            "address": "\u0c89\u0c82\u0c9a\u0cb3\u0ccd\u0cb3\u0cbf \u0c9c\u0cb2\u0caa\u0cbe\u0ca4, Siddapura taluk, Uttara Kannada, Karnataka, India",
            "latitude": "14.4097755",
            "locType": "waterfall",
            "closest_to": "dandeli"
        },
        "bengal": {
            "blogLinks": [
                "http://travel.india.com/explore/wildlife-sanctuaries-in-karnataka/"
            ],
            "longitude": "77.7517038151245",
            "address": "Bengal Lamps, Konadasapura, Bangalore Urban, Karnataka, 560066, India",
            "latitude": "13.0492646",
            "locType": "industrial",
            "closest_to": "chitradurga"
        },
        "bahubali": {
            "blogLinks": [
                "https://en.wikipedia.org/wiki/Tourism_in_Karnataka"
            ],
            "longitude": "76.4846128",
            "address": "Bahubali Statue, SH8, Shravanabelagola, Channarayapattana taluk, Hassan district, Karnataka, 573135, India",
            "latitude": "12.8540505",
            "locType": "place_of_worship",
            "closest_to": "chitradurga"
        },
        "malpe": {
            "blogLinks": [
                "https://en.wikipedia.org/wiki/Tourism_in_Karnataka"
            ],
            "longitude": "74.7036914",
            "address": "Malpe, Udupi taluku, Udupi district, Karnataka, India",
            "latitude": "13.3507423",
            "locType": "village",
            "closest_to": "dandeli"
        },
        "itagi": {
            "blogLinks": [
                "https://en.wikipedia.org/wiki/Tourism_in_Karnataka"
            ],
            "longitude": "75.6701043",
            "address": "Itagi, Ranebennuru taluk, Haveri district, Karnataka, India",
            "latitude": "14.550374",
            "locType": "village",
            "closest_to": "dandeli"
        },
        "gokak": {
            "blogLinks": [
                "https://en.wikipedia.org/wiki/Tourism_in_Karnataka"
            ],
            "longitude": "74.8224338",
            "address": "Gokak, Gokak taluku, Belgaum district, Karnataka, 591307, India",
            "latitude": "16.1693033",
            "locType": "town",
            "closest_to": "dandeli"
        },
        "gadag": {
            "blogLinks": [
                "https://en.wikipedia.org/wiki/Tourism_in_Karnataka"
            ],
            "longitude": "75.6300786",
            "address": "Gadag, Gadag taluk, Gadag district, Karnataka, 582101, India",
            "latitude": "15.4263647",
            "locType": "town",
            "closest_to": "dandeli"
        },
        "kamalapur": {
            "blogLinks": [
                "http://travel.india.com/explore/wildlife-sanctuaries-in-karnataka/",
                "http://wikitravel.org/en/Hampi"
            ],
            "longitude": "75.003629911571",
            "address": "Kamalapur Nursing Home, Station Road, Kalyana nagar, Gandhinagar, Dharwad, Dharawada taluku, Dharwad district, Karnataka, 580001, India",
            "latitude": "15.4456282",
            "locType": "yes",
            "closest_to": "dandeli"
        },
        "hoysala": {
            "blogLinks": [
                "https://en.wikipedia.org/wiki/Tourism_in_Karnataka"
            ],
            "longitude": "77.6375990817051",
            "address": "Hoysala Nagar, Bengaluru, Bangalore Urban, Karnataka, 560001, India",
            "latitude": "12.97813815",
            "locType": "administrative",
            "closest_to": "chitradurga"
        },
        "unchalli falls": {
            "blogLinks": [
                "https://en.wikipedia.org/wiki/Tourism_in_Karnataka"
            ],
            "longitude": "74.7477592",
            "address": "\u0c89\u0c82\u0c9a\u0cb3\u0ccd\u0cb3\u0cbf \u0c9c\u0cb2\u0caa\u0cbe\u0ca4, Siddapura taluk, Uttara Kannada, Karnataka, India",
            "latitude": "14.4097755",
            "locType": "waterfall",
            "closest_to": "dandeli"
        },
        "chikmagalur district": {
            "blogLinks": [
                "https://en.wikipedia.org/wiki/Tourism_in_Karnataka"
            ],
            "longitude": "75.5",
            "address": "Chikmagalur, Chikkamagaluru district, Karnataka, India",
            "latitude": "13.5",
            "locType": "county",
            "closest_to": "dandeli"
        },
        "mookambika": {
            "blogLinks": [
                "https://en.wikipedia.org/wiki/Tourism_in_Karnataka"
            ],
            "longitude": "74.8145296",
            "address": "Mukambika Devasthana, NH766C;SH26, Halkal, \u0c95\u0cc1\u0c82\u0ca6\u0cbe\u0caa\u0cc1\u0cb0 \u0ca4\u0cbe\u0cb2\u0cc2\u0c95\u0cc1, Udupi district, Karnataka, 576220, India",
            "latitude": "13.8638043",
            "locType": "place_of_worship",
            "closest_to": "dandeli"
        },
        "gokarna": {
            "blogLinks": [
                "https://en.wikipedia.org/wiki/Tourism_in_Karnataka",
                "http://wikitravel.org/en/Hampi"
            ],
            "longitude": "74.3184418",
            "address": "Gokarna, Kumata taluk, Uttara Kannada, Karnataka, 581326, India",
            "latitude": "14.5439629",
            "locType": "town",
            "closest_to": "dandeli"
        },
        "sri mallikarjuna temple": {
            "blogLinks": [
                "http://www.holidayiq.com/Dandeli-Sightseeing-345.html"
            ],
            "longitude": "75.2508225556439",
            "address": "Sri Mallikarjuna Temple, Parking, Sringeri, Sringeri taluku, Chikkamagaluru district, Karnataka, 577592, India",
            "latitude": "13.4188371",
            "locType": "place_of_worship",
            "closest_to": "dandeli"
        },
        "karkala": {
            "blogLinks": [
                "https://en.wikipedia.org/wiki/Tourism_in_Karnataka"
            ],
            "longitude": "74.9959586",
            "address": "Karkala, Karkala taluk, Udupi district, Karnataka, 574104, India",
            "latitude": "13.2112826",
            "locType": "town",
            "closest_to": "chitradurga"
        },
        "goa": {
            "blogLinks": [
                "https://en.wikipedia.org/wiki/Tourism_in_Karnataka",
                "https://www.tripoto.com/trip/bangalore-to-goa-road-trip-places-of-interest-132888",
                "http://wikitravel.org/en/Hampi"
            ],
            "longitude": "77.6200027",
            "address": "Carnival De Goa, Bhaskaran Road, Gupta Layout, Halasuru, Bengaluru, Bangalore Urban, Karnataka, 560001, India",
            "latitude": "12.9750047",
            "locType": "restaurant",
            "closest_to": "chitradurga"
        },
        "bangalore city": {
            "blogLinks": [
                "https://www.tripoto.com/trip/bangalore-to-goa-road-trip-places-of-interest-132888"
            ],
            "longitude": "77.5912997",
            "address": "Bengaluru, Bangalore Urban, Karnataka, 560001, India",
            "latitude": "12.9791198",
            "locType": "city",
            "closest_to": "chitradurga"
        },
        "bannerghatta national park": {
            "blogLinks": [
                "https://en.wikipedia.org/wiki/Tourism_in_Karnataka"
            ],
            "longitude": "77.5722783830694",
            "address": "Bannerghatta National Park, Anekal Road, Begihalli, Bangalore Urban, Karnataka, 560076, India",
            "latitude": "12.77900335",
            "locType": "national_park",
            "closest_to": "chitradurga"
        },
        "sharavati": {
            "blogLinks": [
                "https://en.wikipedia.org/wiki/Tourism_in_Karnataka"
            ],
            "longitude": "74.7647294",
            "address": "Sharavati, Sagara taluk, Shimoga district, Karnataka, India",
            "latitude": "14.2360979",
            "locType": "river",
            "closest_to": "dandeli"
        },
        "ooty-mysore": {
            "blogLinks": [
                "http://travel.india.com/explore/wildlife-sanctuaries-in-karnataka/"
            ],
            "longitude": "76.6586807",
            "address": "Ooty Road, Vidyaranyapuram, Mysuru, Mysuru taluk, Mysuru district, Karnataka, 570001, India",
            "latitude": "12.2774807",
            "locType": "primary",
            "closest_to": "chitradurga"
        },
        "bhadra river": {
            "blogLinks": [
                "https://en.wikipedia.org/wiki/Tourism_in_Karnataka"
            ],
            "longitude": "75.527118",
            "address": "Bhadra, Chikkamagaluru taluku, Chikkamagaluru district, Karnataka, India",
            "latitude": "13.4888356",
            "locType": "river",
            "closest_to": "dandeli"
        },
        "anshi national park": {
            "blogLinks": [
                "https://en.wikipedia.org/wiki/Tourism_in_Karnataka",
                "http://travel.india.com/explore/wildlife-sanctuaries-in-karnataka/",
                "http://www.holidayiq.com/Dandeli-Sightseeing-345.html"
            ],
            "longitude": "74.3934408094182",
            "address": "Anshi National Park, SH46, Bidoli, Joida taluk, Uttara Kannada, Karnataka, India",
            "latitude": "14.9994424",
            "locType": "national_park",
            "closest_to": "dandeli"
        },
        "beluru": {
            "blogLinks": [
                "https://en.wikipedia.org/wiki/Tourism_in_Karnataka"
            ],
            "longitude": "75.8634851",
            "address": "Belur, Beluru taluk, Hassan district, Karnataka, 573115, India",
            "latitude": "13.1645671",
            "locType": "town",
            "closest_to": "chitradurga"
        },
        "italy": {
            "blogLinks": [
                "https://www.quora.com/Which-are-the-best-places-to-visit-in-Karnataka-in-winter"
            ],
            "longitude": "77.6416686",
            "address": "Little Italy, 100 Feet Road(S K Karim Khan Road), HAL 1st Stage, Hoysala Nagar, Bengaluru, Bangalore Urban, Karnataka, 560001, India",
            "latitude": "12.9663337",
            "locType": "restaurant",
            "closest_to": "chitradurga"
        },
        "laughing buddha": {
            "blogLinks": [
                "http://wikitravel.org/en/Hampi"
            ],
            "longitude": "76.4563679",
            "address": "Laughing Buddha, Hampi - Monkey Temple, Virupapura Gaddi, Hosapete taluk, Bellary district, Karnataka, 583239, India",
            "latitude": "15.3387731",
            "locType": "restaurant",
            "closest_to": "dandeli"
        },
        "bangalore international": {
            "blogLinks": [
                "http://travel.india.com/explore/wildlife-sanctuaries-in-karnataka/"
            ],
            "longitude": "77.6467233975225",
            "address": "Bangalore International School, Hennur Bagalur Road, Poojappa Layout, Agara, Geddalahalli, Bangalore Urban, Karnataka, 560 077, India",
            "latitude": "13.0471784",
            "locType": "school",
            "closest_to": "chitradurga"
        },
        "nilgiris": {
            "blogLinks": [
                "https://en.wikipedia.org/wiki/Tourism_in_Karnataka"
            ],
            "longitude": "77.6069792",
            "address": "Nilgiris, Brigade Road, Tasker Town, Ashok Nagar, Bengaluru, Bangalore Urban, Karnataka, 560001, India",
            "latitude": "12.9725052",
            "locType": "supermarket",
            "closest_to": "chitradurga"
        },
        "hampi": {
            "blogLinks": [
                "https://en.wikipedia.org/wiki/Tourism_in_Karnataka",
                "http://wikitravel.org/en/Hampi",
                "http://www.nivalink.com/destination/dandeli",
                "https://www.quora.com/Which-are-the-best-places-to-visit-in-Karnataka-in-winter"
            ],
            "longitude": "76.4606199",
            "address": "Hampe, Hosapete taluk, Bellary district, Karnataka, 583239, India",
            "latitude": "15.3359769",
            "locType": "village",
            "closest_to": "dandeli"
        },
        "koppal": {
            "blogLinks": [
                "https://en.wikipedia.org/wiki/Tourism_in_Karnataka",
                "http://wikitravel.org/en/Hampi"
            ],
            "longitude": "76.1547421",
            "address": "Koppala, Koppala taluku, Koppal district, Karnataka, 583231, India",
            "latitude": "15.3484144",
            "locType": "town",
            "closest_to": "dandeli"
        },
        "mastikatte": {
            "blogLinks": [
                "https://en.wikipedia.org/wiki/Tourism_in_Karnataka"
            ],
            "longitude": "74.4604101",
            "address": "Mastikatte, Ankola taluk, Uttara Kannada, Karnataka, India",
            "latitude": "14.6857168",
            "locType": "village",
            "closest_to": "dandeli"
        },
        "seoul": {
            "blogLinks": [
                "https://www.quora.com/Which-are-the-best-places-to-visit-in-Karnataka-in-winter"
            ],
            "longitude": "77.6430858",
            "address": "Hi Seoul, 309, 4th B cross, GNR Gardens, Kalyan Nagar, Chelekere, Bangalore Urban, Karnataka, 560043, India",
            "latitude": "13.0204944",
            "locType": "restaurant",
            "closest_to": "chitradurga"
        },
        "netravati": {
            "blogLinks": [
                "https://en.wikipedia.org/wiki/Tourism_in_Karnataka"
            ],
            "longitude": "75.1562182",
            "address": "Netravati, Bantwal taluk, Dakshina Kannada, Karnataka, India",
            "latitude": "12.8537655",
            "locType": "river",
            "closest_to": "chitradurga"
        },
        "shiggaon taluk": {
            "blogLinks": [
                "https://en.wikipedia.org/wiki/Tourism_in_Karnataka"
            ],
            "longitude": "75.1756764988777",
            "address": "Shiggaon taluk, Haveri district, Karnataka, India",
            "latitude": "15.0138079",
            "locType": "administrative",
            "closest_to": "dandeli"
        },
        "belgaum fort": {
            "blogLinks": [
                "https://en.wikipedia.org/wiki/Tourism_in_Karnataka"
            ],
            "longitude": "74.5255651",
            "address": "Belgaum Fort, Belagavi, Belagavi taluku, Belgaum district, Karnataka, 590001, India",
            "latitude": "15.8581696",
            "locType": "locality",
            "closest_to": "dandeli"
        },
        "hospet": {
            "blogLinks": [
                "http://travel.india.com/explore/wildlife-sanctuaries-in-karnataka/",
                "http://wikitravel.org/en/Hampi"
            ],
            "longitude": "76.3870527",
            "address": "Hosapete, Hosapete taluk, Bellary district, Karnataka, 583200, India",
            "latitude": "15.266079",
            "locType": "town",
            "closest_to": "dandeli"
        },
        "silent valley": {
            "blogLinks": [
                "http://travel.india.com/explore/wildlife-sanctuaries-in-karnataka/"
            ],
            "longitude": "76.5819054",
            "address": "Silent Shores Resort, Krishnaraja Sagara Road, Kurgalli, Bastipura, Srirangapattana taluk, Mandya district, Karnataka, 570027, India",
            "latitude": "12.3459371",
            "locType": "hotel",
            "closest_to": "chitradurga"
        },
        "iceland": {
            "blogLinks": [
                "http://wikitravel.org/en/Hampi"
            ],
            "longitude": "76.3885296",
            "address": "Iceland, Sardar Patel Road, Hosapete, Hosapete taluk, Bellary district, Karnataka, 583200, India",
            "latitude": "15.2760556",
            "locType": "restaurant",
            "closest_to": "dandeli"
        },
        "kaneri": {
            "blogLinks": [
                "http://www.nivalink.com/destination/dandeli"
            ],
            "longitude": "74.4834864",
            "address": "Kaneri, Joida taluk, Uttara Kannada, Karnataka, India",
            "latitude": "15.0680686",
            "locType": "river",
            "closest_to": "dandeli"
        },
        "mercara": {
            "blogLinks": [
                "https://en.wikipedia.org/wiki/Tourism_in_Karnataka"
            ],
            "longitude": "75.740031",
            "address": "Madikeri, Madikeri taluku, Kodagu, Karnataka, India",
            "latitude": "12.4204003",
            "locType": "town",
            "closest_to": "chitradurga"
        },
        "devbagh beach": {
            "blogLinks": [
                "http://traveltwosome.com/exciting-road-trips-from-bangalore-6/"
            ],
            "longitude": "74.1079961668745",
            "address": "Devbagh Beach, NH66, Majali, Karavara taluk, Uttara Kannada, Karnataka, 581352, India",
            "latitude": "14.8682714",
            "locType": "beach",
            "closest_to": "dandeli"
        },
        "dharma river": {
            "blogLinks": [
                "https://en.wikipedia.org/wiki/Tourism_in_Karnataka"
            ],
            "longitude": "77.5575864485219",
            "address": "Dharma Naidu Udhyanavana, 44th cross, Rajajinagar 4th Block, Rajaji Nagar, Bengaluru, Bangalore Urban, Karnataka, 560001, India",
            "latitude": "12.98914885",
            "locType": "park",
            "closest_to": "chitradurga"
        },
        "arabhavi": {
            "blogLinks": [
                "https://en.wikipedia.org/wiki/Tourism_in_Karnataka"
            ],
            "longitude": "74.8213227",
            "address": "Arabhavi, Gokak taluku, Belgaum district, Karnataka, India",
            "latitude": "16.2193552",
            "locType": "village",
            "closest_to": "dandeli"
        },
        "banavasi": {
            "blogLinks": [
                "https://en.wikipedia.org/wiki/Tourism_in_Karnataka",
                "http://traveltwosome.com/exciting-road-trips-from-bangalore-6/"
            ],
            "longitude": "75.0129845",
            "address": "Banavasi, Shirasi taluk, Uttara Kannada, Karnataka, India",
            "latitude": "14.5389738",
            "locType": "town",
            "closest_to": "dandeli"
        },
        "hazara rama temple": {
            "blogLinks": [
                "http://wikitravel.org/en/Hampi"
            ],
            "longitude": "76.4687794",
            "address": "Hazara Rama Temple, Hampi Kamalapura Road, Kamalapura, Hosapete taluk, Bellary district, Karnataka, 583221, India",
            "latitude": "15.3178218",
            "locType": "place_of_worship",
            "closest_to": "dandeli"
        },
        "margao": {
            "blogLinks": [
                "http://wikitravel.org/en/Hampi"
            ],
            "longitude": "73.9583411",
            "address": "Karnataka bank, NH66, Aquem, Fatorda, Margao, South Goa, Goa, 403600, India",
            "latitude": "15.2740083",
            "locType": "bank",
            "closest_to": "dandeli"
        },
        "sagara taluk": {
            "blogLinks": [
                "https://en.wikipedia.org/wiki/Tourism_in_Karnataka"
            ],
            "longitude": "74.9610874491152",
            "address": "Sagara taluk, Shimoga district, Karnataka, India",
            "latitude": "14.09993045",
            "locType": "administrative",
            "closest_to": "dandeli"
        },
        "malnad": {
            "blogLinks": [
                "http://traveltwosome.com/exciting-road-trips-from-bangalore-6/"
            ],
            "longitude": "75.7715495",
            "address": "Malnad Hospital, Mudigere-Kadur Road, Chikkamagaluru, Chikkamagaluru taluku, Chikkamagaluru district, Karnataka, 577101, India",
            "latitude": "13.3160351",
            "locType": "hospital",
            "closest_to": "chitradurga"
        },
        "hampi bazaar": {
            "blogLinks": [
                "http://wikitravel.org/en/Hampi"
            ],
            "longitude": "76.4621571",
            "address": "Hampi Bazaar, Hampe, Hosapete taluk, Bellary district, Karnataka, 583239, India",
            "latitude": "15.3347585",
            "locType": "unclassified",
            "closest_to": "dandeli"
        },
        "udipi": {
            "blogLinks": [
                "http://www.nivalink.com/destination/dandeli"
            ],
            "longitude": "77.652888",
            "address": "Udipi Park, 2nd Cross Road, Muniyappa Layout, Murugeshpalaya, Belure Ambedkar Nagar, Bangalore Urban, Karnataka, 560067, India",
            "latitude": "12.9530588",
            "locType": "restaurant",
            "closest_to": "chitradurga"
        },
        "shirali": {
            "blogLinks": [
                "https://en.wikipedia.org/wiki/Tourism_in_Karnataka"
            ],
            "longitude": "74.5286591",
            "address": "Shirali, Bhatkala taluk, Uttara Kannada, Karnataka, 581354, India",
            "latitude": "14.0280925",
            "locType": "village",
            "closest_to": "dandeli"
        },
        "river kaneri": {
            "blogLinks": [
                "http://www.holidayiq.com/Dandeli-Sightseeing-345.html"
            ],
            "longitude": "74.4834864",
            "address": "Kaneri, Joida taluk, Uttara Kannada, Karnataka, India",
            "latitude": "15.0680686",
            "locType": "river",
            "closest_to": "dandeli"
        },
        "the park": {
            "blogLinks": [
                "https://www.tripoto.com/trip/bangalore-to-goa-road-trip-places-of-interest-132888"
            ],
            "longitude": "77.5957945764651",
            "address": "park, 34th Cross Road, Tilak Nagar, Marenahalli, Bengaluru, Bangalore Urban, Karnataka, 560001, India",
            "latitude": "12.92511275",
            "locType": "park",
            "closest_to": "chitradurga"
        },
        "srirangapatna": {
            "blogLinks": [
                "https://en.wikipedia.org/wiki/Tourism_in_Karnataka"
            ],
            "longitude": "76.6850743",
            "address": "Srirangapatna, Srirangapattana taluk, Mandya district, Karnataka, 571438, India",
            "latitude": "12.4225604",
            "locType": "town",
            "closest_to": "chitradurga"
        },
        "pattadakal": {
            "blogLinks": [
                "https://en.wikipedia.org/wiki/Tourism_in_Karnataka"
            ],
            "longitude": "75.815884048161",
            "address": "Pattadakal Temples, SH14, \u0cac\u0cbe\u0c9a\u0cbf\u0ca8\u0c97\u0cc1\u0ca1\u0ccd\u0ca1, Badami taluku, Bagalkote district, Karnataka, 587211, India",
            "latitude": "15.9506349",
            "locType": "attraction",
            "closest_to": "dandeli"
        },
        "maharashtra": {
            "blogLinks": [
                "https://en.wikipedia.org/wiki/Tourism_in_Karnataka",
                "http://www.nivalink.com/destination/dandeli",
                "http://www.holidayiq.com/Dandeli-Sightseeing-345.html"
            ],
            "longitude": "77.5856013",
            "address": "Bank of Maharashtra, 24th Main, K R Layout, Puttenahalli, Bengaluru, Bangalore Urban, Karnataka, 560001, India",
            "latitude": "12.9049455",
            "locType": "bank",
            "closest_to": "chitradurga"
        },
        "subramanya": {
            "blogLinks": [
                "https://en.wikipedia.org/wiki/Tourism_in_Karnataka"
            ],
            "longitude": "77.6015800913134",
            "address": "Subramanya Arcade, Marenahalli, Bengaluru, Bangalore Urban, Karnataka, 560001, India",
            "latitude": "12.9251206",
            "locType": "commercial",
            "closest_to": "chitradurga"
        },
        "gadag district": {
            "blogLinks": [
                "https://en.wikipedia.org/wiki/Tourism_in_Karnataka"
            ],
            "longitude": "75.6807542794645",
            "address": "Gadag district, Karnataka, India",
            "latitude": "15.416337",
            "locType": "administrative",
            "closest_to": "dandeli"
        },
        "dharwad": {
            "blogLinks": [
                "https://en.wikipedia.org/wiki/Tourism_in_Karnataka"
            ],
            "longitude": "75.0066516",
            "address": "Dharwad, Dharawada taluku, Dharwad district, Karnataka, 580001, India",
            "latitude": "15.4540505",
            "locType": "city",
            "closest_to": "dandeli"
        },
        "chitradurga": {
            "blogLinks": [
                "http://www.distancesfrom.com/distance-from-Chitradurga-to-Dandeli-via-Shimoga/DistanceHistory/254454.aspx",
                "https://en.wikipedia.org/wiki/Tourism_in_Karnataka",
                "https://www.tripoto.com/trip/bangalore-to-goa-road-trip-places-of-interest-132888",
                "http://www.nivalink.com/destination/dandeli",
                "http://www.bangaloretrips.info/dandeli",
                "http://www.distancesfrom.com/distance-from-Chitradurga-to-Dandeli-via-Shimoga-Sirsi/DistanceHistory/254459.aspx"
            ],
            "longitude": "76.4005122",
            "address": "Chitradurga, Chitradurga taluku, Chitradurga district, Karnataka, 577500, India",
            "latitude": "14.2266443",
            "locType": "town",
            "closest_to": "chitradurga"
        },
        "bankapura": {
            "blogLinks": [
                "https://en.wikipedia.org/wiki/Tourism_in_Karnataka"
            ],
            "longitude": "75.2639298",
            "address": "Bankapura, Shiggaon taluk, Haveri district, Karnataka, 581202, India",
            "latitude": "14.9217443",
            "locType": "town",
            "closest_to": "dandeli"
        },
        "vijayanagara": {
            "blogLinks": [
                "https://en.wikipedia.org/wiki/Tourism_in_Karnataka"
            ],
            "longitude": "74.7380455",
            "address": "Vijayanagara, Chikodi taluk, Belgaum district, Karnataka, India",
            "latitude": "16.3270486",
            "locType": "village",
            "closest_to": "dandeli"
        },
        "bellary": {
            "blogLinks": [
                "https://en.wikipedia.org/wiki/Tourism_in_Karnataka",
                "http://wikitravel.org/en/Hampi"
            ],
            "longitude": "76.8323648",
            "address": "Bellary, Bellary district, Karnataka, India",
            "latitude": "15.2485413",
            "locType": "county",
            "closest_to": "chitradurga"
        },
        "kerala": {
            "blogLinks": [
                "http://travel.india.com/explore/wildlife-sanctuaries-in-karnataka/",
                "https://www.quora.com/Which-are-the-best-places-to-visit-in-Karnataka-in-winter"
            ],
            "longitude": "77.6382683",
            "address": "New Life Kerala Mess, Sai Baba Mandira Road, Mottappanapalaya, Indiranagar, Bengaluru, Bangalore Urban, Karnataka, 560001, India",
            "latitude": "12.9726449",
            "locType": "restaurant",
            "closest_to": "chitradurga"
        },
        "bangalore highway": {
            "blogLinks": [
                "https://www.tripoto.com/trip/bangalore-to-goa-road-trip-places-of-interest-132888"
            ],
            "longitude": "77.5912997",
            "address": "Bengaluru, Bangalore Urban, Karnataka, 560001, India",
            "latitude": "12.9791198",
            "locType": "city",
            "closest_to": "chitradurga"
        },
        "anegondi": {
            "blogLinks": [
                "http://wikitravel.org/en/Hampi"
            ],
            "longitude": "76.4924232",
            "address": "Anegundi, Gangavati taluku, Koppal district, Karnataka, India",
            "latitude": "15.3509583",
            "locType": "village",
            "closest_to": "dandeli"
        },
        "kali river": {
            "blogLinks": [
                "http://travel.india.com/explore/wildlife-sanctuaries-in-karnataka/",
                "http://www.nivalink.com/destination/dandeli"
            ],
            "longitude": "74.5802901",
            "address": "Kali, Joida taluk, Uttara Kannada, Karnataka, India",
            "latitude": "15.0145378",
            "locType": "river",
            "closest_to": "dandeli"
        },
        "varadaraja": {
            "blogLinks": [
                "https://en.wikipedia.org/wiki/Tourism_in_Karnataka"
            ],
            "longitude": "77.5542736",
            "address": "Varadaraja Petrol / Gas Station, Dr. Rajkumar Road, Rajajinagar 1st Block, Subrahmanya Nagar, Bengaluru, Bangalore Urban, Karnataka, 560001, India",
            "latitude": "13.005885",
            "locType": "fuel",
            "closest_to": "chitradurga"
        },
        "hebbe falls": {
            "blogLinks": [
                "https://en.wikipedia.org/wiki/Tourism_in_Karnataka"
            ],
            "longitude": "75.7253701",
            "address": "Hebbe falls, Kemmannagundi Road, Attigundi, Chikkamagaluru taluku, Chikkamagaluru district, Karnataka, India",
            "latitude": "13.5414025",
            "locType": "attraction",
            "closest_to": "chitradurga"
        },
        "hassan district": {
            "blogLinks": [
                "https://en.wikipedia.org/wiki/Tourism_in_Karnataka"
            ],
            "longitude": "76.1745460751981",
            "address": "Hassan district, Karnataka, India",
            "latitude": "13.0315068",
            "locType": "administrative",
            "closest_to": "chitradurga"
        },
        "kudremukh national park": {
            "blogLinks": [
                "https://en.wikipedia.org/wiki/Tourism_in_Karnataka",
                "http://travel.india.com/explore/wildlife-sanctuaries-in-karnataka/"
            ],
            "longitude": "75.1828713712862",
            "address": "Kudremukh National Park, SH66, Sringeri taluku, Chikkamagaluru district, Karnataka, India",
            "latitude": "13.25397485",
            "locType": "national_park",
            "closest_to": "chitradurga"
        },
        "varada": {
            "blogLinks": [
                "https://en.wikipedia.org/wiki/Tourism_in_Karnataka"
            ],
            "longitude": "75.47206",
            "address": "Varada, Savanura taluk, Haveri district, Karnataka, India",
            "latitude": "14.8717792",
            "locType": "river",
            "closest_to": "dandeli"
        },
        "kamala": {
            "blogLinks": [
                "https://en.wikipedia.org/wiki/Tourism_in_Karnataka"
            ],
            "longitude": "77.5664867",
            "address": "Kamala Nehru Patashala (Emmanual English School), 5th A Cross Road, Yediyur, Thyagaraja Nagar, Bengaluru, Bangalore Urban, Karnataka, 560001, India",
            "latitude": "12.9339482",
            "locType": "school",
            "closest_to": "chitradurga"
        },
        "matanga hill": {
            "blogLinks": [
                "http://wikitravel.org/en/Hampi"
            ],
            "longitude": "76.4682314",
            "address": "Matanga Hill, Hosapete taluk, Bellary district, Karnataka, India",
            "latitude": "15.3315267",
            "locType": "peak",
            "closest_to": "dandeli"
        },
        "kalasa": {
            "blogLinks": [
                "https://en.wikipedia.org/wiki/Tourism_in_Karnataka"
            ],
            "longitude": "75.3582366",
            "address": "Kalasa, Mudigere taluk, Chikkamagaluru district, Karnataka, 577124, India",
            "latitude": "13.2322235",
            "locType": "town",
            "closest_to": "chitradurga"
        },
        "kambadahalli": {
            "blogLinks": [
                "https://en.wikipedia.org/wiki/Tourism_in_Karnataka"
            ],
            "longitude": "77.1671918",
            "address": "Kambadahalli, Madhugiri taluk, Tumkur district, Karnataka, India",
            "latitude": "13.6843692",
            "locType": "village",
            "closest_to": "chitradurga"
        },
        "india": {
            "blogLinks": [
                "http://www.distancesfrom.com/distance-from-Chitradurga-to-Dandeli-via-Shimoga/DistanceHistory/254454.aspx",
                "https://en.wikipedia.org/wiki/Tourism_in_Karnataka",
                "http://www.nivalink.com/destination/dandeli",
                "https://www.quora.com/Which-are-the-best-places-to-visit-in-Karnataka-in-winter",
                "http://traveltwosome.com/exciting-road-trips-from-bangalore-6/",
                "http://travel.india.com/explore/wildlife-sanctuaries-in-karnataka/",
                "http://wikitravel.org/en/Hampi",
                "http://www.distancesfrom.com/distance-from-Chitradurga-to-Dandeli-via-Shimoga-Sirsi/DistanceHistory/254459.aspx",
                "https://www.distancecalculator.net/from-chitradurga-to-dandeli"
            ],
            "longitude": "75.7223521",
            "address": "Karnataka, India",
            "latitude": "14.5203896",
            "locType": "administrative",
            "closest_to": "dandeli"
        },
        "bijapur": {
            "blogLinks": [
                "https://en.wikipedia.org/wiki/Tourism_in_Karnataka",
                "http://www.nivalink.com/destination/dandeli"
            ],
            "longitude": "75.7175387",
            "address": "Vijayapura, Vijayapura taluk, Bijapur district, Karnataka, 586101, India",
            "latitude": "16.8269911",
            "locType": "city",
            "closest_to": "dandeli"
        },
        "anjenaya hill": {
            "blogLinks": [
                "http://wikitravel.org/en/Hampi"
            ],
            "longitude": "76.4065341",
            "address": "Anjenaya temple, Jambunatha Traditional Temple Stairs, Rajapu, Hosapete taluk, Bellary district, Karnataka, 583200, India",
            "latitude": "15.2403311",
            "locType": "place_of_worship",
            "closest_to": "dandeli"
        },
        "nippani": {
            "blogLinks": [
                "https://en.wikipedia.org/wiki/Tourism_in_Karnataka"
            ],
            "longitude": "74.3842372",
            "address": "Nippani, Chikodi taluk, Belgaum district, Karnataka, 591237, India",
            "latitude": "16.4020402",
            "locType": "town",
            "closest_to": "dandeli"
        },
        "kuknur": {
            "blogLinks": [
                "https://en.wikipedia.org/wiki/Tourism_in_Karnataka"
            ],
            "longitude": "75.9934934",
            "address": "Kukanura, Yelaburga taluku, Koppal district, Karnataka, 583232, India",
            "latitude": "15.4902753",
            "locType": "village",
            "closest_to": "dandeli"
        },
        "gotagodi village": {
            "blogLinks": [
                "https://en.wikipedia.org/wiki/Tourism_in_Karnataka"
            ],
            "longitude": "75.0452834",
            "address": "Gotagodi, Hanagal taluk, Haveri district, Karnataka, India",
            "latitude": "14.7634556",
            "locType": "village",
            "closest_to": "dandeli"
        },
        "narayana": {
            "blogLinks": [
                "https://en.wikipedia.org/wiki/Tourism_in_Karnataka"
            ],
            "longitude": "76.201037",
            "address": "Narayana Gondanahalli, Holalkere taluk, Chitradurga district, Karnataka, India",
            "latitude": "13.9181889",
            "locType": "village",
            "closest_to": "chitradurga"
        },
        "anegundi": {
            "blogLinks": [
                "https://en.wikipedia.org/wiki/Tourism_in_Karnataka",
                "http://wikitravel.org/en/Hampi"
            ],
            "longitude": "76.4924232",
            "address": "Anegundi, Gangavati taluku, Koppal district, Karnataka, India",
            "latitude": "15.3509583",
            "locType": "village",
            "closest_to": "dandeli"
        },
        "tumkur": {
            "blogLinks": [
                "https://en.wikipedia.org/wiki/Tourism_in_Karnataka"
            ],
            "longitude": "77.0002445",
            "address": "Tumakuru, Tumkur district, Karnataka, India",
            "latitude": "13.4999406",
            "locType": "county",
            "closest_to": "chitradurga"
        },
        "bangalore railway": {
            "blogLinks": [
                "http://travel.india.com/explore/wildlife-sanctuaries-in-karnataka/"
            ],
            "longitude": "77.6182271274845",
            "address": "Bangalore East Railway Station, Cox Town, Bengaluru, Bangalore Urban, Karnataka, 560001, India",
            "latitude": "13.001147",
            "locType": "railway",
            "closest_to": "chitradurga"
        },
        "nethrani island": {
            "blogLinks": [
                "https://en.wikipedia.org/wiki/Tourism_in_Karnataka"
            ],
            "longitude": "74.3272086675849",
            "address": "Netrani, Uttara Kannada, Karnataka, India",
            "latitude": "14.0174924",
            "locType": "island",
            "closest_to": "dandeli"
        },
        "hospet junction": {
            "blogLinks": [
                "http://wikitravel.org/en/Hampi"
            ],
            "longitude": "76.3869935",
            "address": "Hospet Junction, Station Road, Basavanada, Hosapete taluk, Bellary district, Karnataka, 583201, India",
            "latitude": "15.2865104",
            "locType": "station",
            "closest_to": "dandeli"
        },
        "xa0areca valley": {
            "blogLinks": [
                "http://traveltwosome.com/exciting-road-trips-from-bangalore-6/"
            ],
            "longitude": "74.1388522",
            "address": "Karnataka Housing Board Colony, Karwar, Karavara taluk, Uttara Kannada, Karnataka, 581300, India",
            "latitude": "14.8163354",
            "locType": "suburb",
            "closest_to": "dandeli"
        },
        "sahasra linga": {
            "blogLinks": [
                "http://traveltwosome.com/exciting-road-trips-from-bangalore-6/"
            ],
            "longitude": "74.8068413",
            "address": "Sahasra Linga, SH93, Hakkimane, Shirasi taluk, Uttara Kannada, Karnataka, India",
            "latitude": "14.7201887",
            "locType": "place_of_worship",
            "closest_to": "dandeli"
        },
        "tungabhadra": {
            "blogLinks": [
                "https://en.wikipedia.org/wiki/Tourism_in_Karnataka",
                "http://www.godakshin.com/?q=travel-guides/chitradurga-sightseeing-158.html",
                "http://wikitravel.org/en/Hampi"
            ],
            "longitude": "76.4931607",
            "address": "Tungabhadra, Gangavati taluku, Koppal district, Karnataka, India",
            "latitude": "15.3446123",
            "locType": "river",
            "closest_to": "dandeli"
        },
        "kanaganahalli": {
            "blogLinks": [
                "https://en.wikipedia.org/wiki/Tourism_in_Karnataka"
            ],
            "longitude": "76.5876958",
            "address": "Kanaganahalli, Pandavapura taluk, Mandya district, Karnataka, India",
            "latitude": "12.5588444",
            "locType": "village",
            "closest_to": "chitradurga"
        },
        "vijayanagar": {
            "blogLinks": [
                "http://wikitravel.org/en/Hampi"
            ],
            "longitude": "77.5375757",
            "address": "Vijayanagar, Chord Road, Marenahalli, Vijaya Nagar, Binny Layout, Bangalore Urban, Karnataka, 560040, India",
            "latitude": "12.9713392",
            "locType": "station",
            "closest_to": "chitradurga"
        },
        "yeshwantpur": {
            "blogLinks": [
                "https://www.tripoto.com/trip/bangalore-to-goa-road-trip-places-of-interest-132888"
            ],
            "longitude": "77.5566302",
            "address": "Yeshwantpur, Deewanarapalya, Bangalore Urban, Karnataka, India",
            "latitude": "13.0236062",
            "locType": "suburb",
            "closest_to": "chitradurga"
        },
        "karwar": {
            "blogLinks": [
                "https://en.wikipedia.org/wiki/Tourism_in_Karnataka",
                "http://traveltwosome.com/exciting-road-trips-from-bangalore-6/"
            ],
            "longitude": "74.1319229",
            "address": "Karwar, Karavara taluk, Uttara Kannada, Karnataka, 581300, India",
            "latitude": "14.8120931",
            "locType": "town",
            "closest_to": "dandeli"
        },
        "ballari": {
            "blogLinks": [
                "http://travel.india.com/explore/wildlife-sanctuaries-in-karnataka/"
            ],
            "longitude": "76.9125211",
            "address": "Ballari, Bellary taluk, Bellary district, Karnataka, India",
            "latitude": "15.1467299",
            "locType": "city",
            "closest_to": "chitradurga"
        },
        "kodagu": {
            "blogLinks": [
                "https://en.wikipedia.org/wiki/Tourism_in_Karnataka"
            ],
            "longitude": "75.6677235950852",
            "address": "Kodagu, Karnataka, India",
            "latitude": "12.38117345",
            "locType": "administrative",
            "closest_to": "chitradurga"
        },
        "halebidu": {
            "blogLinks": [
                "https://en.wikipedia.org/wiki/Tourism_in_Karnataka"
            ],
            "longitude": "76.4607075",
            "address": "Halebidu, Hunasuru taluk, Mysuru district, Karnataka, India",
            "latitude": "12.359893",
            "locType": "village",
            "closest_to": "chitradurga"
        },
        "karnataka": {
            "blogLinks": [
                "http://www.distancesfrom.com/distance-from-Chitradurga-to-Dandeli-via-Shimoga/DistanceHistory/254454.aspx",
                "http://www.holidayiq.com/Dandeli-Sightseeing-345.html",
                "https://en.wikipedia.org/wiki/Tourism_in_Karnataka",
                "https://www.tripoto.com/trip/bangalore-to-goa-road-trip-places-of-interest-132888",
                "http://www.karnatakatourism.org/",
                "http://www.nivalink.com/destination/dandeli",
                "https://www.quora.com/Which-are-the-best-places-to-visit-in-Karnataka-in-winter",
                "http://traveltwosome.com/exciting-road-trips-from-bangalore-6/",
                "http://travel.india.com/explore/wildlife-sanctuaries-in-karnataka/",
                "http://wikitravel.org/en/Hampi",
                "http://www.godakshin.com/?q=travel-guides/chitradurga-sightseeing-158.html",
                "http://www.distancesfrom.com/distance-from-Chitradurga-to-Dandeli-via-Shimoga-Sirsi/DistanceHistory/254459.aspx",
                "https://www.distancecalculator.net/from-chitradurga-to-dandeli",
                "http://www.dandelichalet.com/"
            ],
            "longitude": "76.6639936",
            "address": "Karnataka, Shalivahana Road, Nazarbad, Mysuru, Mysuru taluk, Mysuru district, Karnataka, 570001, India",
            "latitude": "12.3084901",
            "locType": "atm",
            "closest_to": "chitradurga"
        },
        "north karnataka": {
            "blogLinks": [
                "https://en.wikipedia.org/wiki/Tourism_in_Karnataka",
                "http://www.nivalink.com/destination/dandeli"
            ],
            "longitude": "77.7660547",
            "address": "N, Chaithanya Samarpan, Kadugodi, Kannamangala, Bangalore Urban, Karnataka, 560066, India",
            "latitude": "13.0217151",
            "locType": "service",
            "closest_to": "chitradurga"
        },
        "sangameshwara": {
            "blogLinks": [
                "https://en.wikipedia.org/wiki/Tourism_in_Karnataka"
            ],
            "longitude": "74.87651",
            "address": "Sangameshwara, Kalaghatagi taluku, Dharwad district, Karnataka, India",
            "latitude": "15.184341",
            "locType": "village",
            "closest_to": "dandeli"
        },
        "mysore maharaja": {
            "blogLinks": [
                "http://www.godakshin.com/?q=travel-guides/chitradurga-sightseeing-158.html"
            ],
            "longitude": "76.6596385",
            "address": "Maharaja Hotel Mysore, Bangalore Nilgiri Road, Mandi Mohalla, Mysuru, Mysuru taluk, Mysuru district, Karnataka, 570001, India",
            "latitude": "12.3112197",
            "locType": "hotel",
            "closest_to": "chitradurga"
        },
        "sagara": {
            "blogLinks": [
                "https://en.wikipedia.org/wiki/Tourism_in_Karnataka"
            ],
            "longitude": "75.0262551",
            "address": "Sagara, Sagara taluk, Shimoga district, Karnataka, 577400, India",
            "latitude": "14.1666594",
            "locType": "town",
            "closest_to": "dandeli"
        },
        "kanakapura road": {
            "blogLinks": [
                "https://en.wikipedia.org/wiki/Tourism_in_Karnataka"
            ],
            "longitude": "77.5733483",
            "address": "Kanakapura Road, Rajotsava Nagar, Kaderenahalli, Bengaluru, Bangalore Urban, Karnataka, 560001, India",
            "latitude": "12.9064528",
            "locType": "trunk",
            "closest_to": "chitradurga"
        },
        "' river varahi": {
            "blogLinks": [
                "https://en.wikipedia.org/wiki/Tourism_in_Karnataka"
            ],
            "longitude": "74.9489117",
            "address": "Varahi, \u0c95\u0cc1\u0c82\u0ca6\u0cbe\u0caa\u0cc1\u0cb0 \u0ca4\u0cbe\u0cb2\u0cc2\u0c95\u0cc1, Udupi district, Karnataka, India",
            "latitude": "13.6582668",
            "locType": "river",
            "closest_to": "dandeli"
        },
        "hubli": {
            "blogLinks": [
                "http://www.team-bhp.com/forum/route-travel-queries/47758-bangalore-sirsi-dandeli-hubli.html"
            ],
            "longitude": "75.1379848",
            "address": "Hubballi - \u0cb9\u0cc1\u0cac\u0ccd\u0cac\u0cb3\u0ccd\u0cb3\u0cbf, Hubballi taluku, Dharwad district, Karnataka, 580020, India",
            "latitude": "15.3518378",
            "locType": "city",
            "closest_to": "dandeli"
        },
        "hassan": {
            "blogLinks": [
                "https://en.wikipedia.org/wiki/Tourism_in_Karnataka"
            ],
            "longitude": "76.0992703",
            "address": "Hassan, Hasana taluk, Hassan district, Karnataka, 573201, India",
            "latitude": "13.0070817",
            "locType": "town",
            "closest_to": "chitradurga"
        },
        "varur": {
            "blogLinks": [
                "https://en.wikipedia.org/wiki/Tourism_in_Karnataka"
            ],
            "longitude": "75.1387568",
            "address": "Varur, Hubballi taluku, Dharwad district, Karnataka, India",
            "latitude": "15.2077105",
            "locType": "village",
            "closest_to": "dandeli"
        },
        "shimoga district": {
            "blogLinks": [
                "https://en.wikipedia.org/wiki/Tourism_in_Karnataka"
            ],
            "longitude": "75.1312533993886",
            "address": "Shimoga district, Karnataka, India",
            "latitude": "14.0558284",
            "locType": "administrative",
            "closest_to": "dandeli"
        },
        "hemakuta hill": {
            "blogLinks": [
                "http://wikitravel.org/en/Hampi"
            ],
            "longitude": "76.4602971",
            "address": "Hemakuta Hill, Hosapete taluk, Bellary district, Karnataka, India",
            "latitude": "15.332915",
            "locType": "peak",
            "closest_to": "dandeli"
        },
        "chandramoulishwara": {
            "blogLinks": [
                "https://en.wikipedia.org/wiki/Tourism_in_Karnataka"
            ],
            "longitude": "76.6290267",
            "address": "Chandramoulishwara Temple, Adipampa Road, Gokulam, Mysuru, Mysuru taluk, Mysuru district, Karnataka, 570001, India",
            "latitude": "12.3225663",
            "locType": "place_of_worship",
            "closest_to": "chitradurga"
        },
        "koppal district": {
            "blogLinks": [
                "https://en.wikipedia.org/wiki/Tourism_in_Karnataka"
            ],
            "longitude": "76.310639117029",
            "address": "Koppal district, Karnataka, India",
            "latitude": "15.57825725",
            "locType": "administrative",
            "closest_to": "dandeli"
        },
        "ratnagiri highway": {
            "blogLinks": [
                "http://www.nivalink.com/destination/dandeli"
            ],
            "longitude": "75.7727724",
            "address": "Ratnagiri Road, Basavannahalli, Chikkamagaluru, Chikkamagaluru taluku, Chikkamagaluru district, Karnataka, 577101, India",
            "latitude": "13.3292344",
            "locType": "secondary",
            "closest_to": "chitradurga"
        },
        "dandeli": {
            "blogLinks": [
                "http://www.distancesfrom.com/distance-from-Chitradurga-to-Dandeli-via-Shimoga/DistanceHistory/254454.aspx",
                "http://www.holidayiq.com/Dandeli-Sightseeing-345.html",
                "https://en.wikipedia.org/wiki/Tourism_in_Karnataka",
                "http://www.karnatakatourism.org/",
                "http://www.nivalink.com/destination/dandeli",
                "https://www.quora.com/Which-are-the-best-places-to-visit-in-Karnataka-in-winter",
                "http://www.bangaloretrips.info/dandeli",
                "http://travel.india.com/explore/wildlife-sanctuaries-in-karnataka/",
                "http://www.team-bhp.com/forum/route-travel-queries/47758-bangalore-sirsi-dandeli-hubli.html",
                "http://www.distancesfrom.com/distance-from-Chitradurga-to-Dandeli-via-Shimoga-Sirsi/DistanceHistory/254459.aspx"
            ],
            "longitude": "74.6236037",
            "address": "Dandeli, Haliyala taluku, Uttara Kannada, Karnataka, 581325, India",
            "latitude": "15.2490284",
            "locType": "town",
            "closest_to": "dandeli"
        },
        "madhukeshwara": {
            "blogLinks": [
                "http://traveltwosome.com/exciting-road-trips-from-bangalore-6/"
            ],
            "longitude": "75.1480027",
            "address": "Madhukeshwara Temple, Kattinakere Road, Kattinakere Bus Stand, Soraba taluk, Shimoga district, Karnataka, India",
            "latitude": "14.3058996",
            "locType": "place_of_worship",
            "closest_to": "dandeli"
        },
        "dandeli wildlife sanctuary": {
            "blogLinks": [
                "http://www.holidayiq.com/Dandeli-Sightseeing-345.html"
            ],
            "longitude": "74.3665654142884",
            "address": "Dandeli Wildlife Sanctuary, SH146, Terali, Joida taluk, Uttara Kannada, Karnataka, India",
            "latitude": "15.1654776",
            "locType": "national_park",
            "closest_to": "dandeli"
        },
        "chola": {
            "blogLinks": [
                "https://en.wikipedia.org/wiki/Tourism_in_Karnataka"
            ],
            "longitude": "76.098782",
            "address": "Chola Gold Loan, Bengaluru - Mangaluru Road, Ravindra Nagar, Santhe Pete, Hassan, Hasana taluk, Hassan district, Karnataka, 573201, India",
            "latitude": "13.0023906",
            "locType": "yes",
            "closest_to": "chitradurga"
        },
        "kundapura": {
            "blogLinks": [
                "http://www.nivalink.com/destination/dandeli"
            ],
            "longitude": "74.6915722",
            "address": "Kundapura, \u0c95\u0cc1\u0c82\u0ca6\u0cbe\u0caa\u0cc1\u0cb0 \u0ca4\u0cbe\u0cb2\u0cc2\u0c95\u0cc1, Udupi district, Karnataka, 576200, India",
            "latitude": "13.6250993",
            "locType": "town",
            "closest_to": "dandeli"
        },
        "bagalkote": {
            "blogLinks": [
                "https://en.wikipedia.org/wiki/Tourism_in_Karnataka"
            ],
            "longitude": "75.5825586777167",
            "address": "Bagalkote district, Karnataka, India",
            "latitude": "16.28998085",
            "locType": "administrative",
            "closest_to": "dandeli"
        },
        "kadamba": {
            "blogLinks": [
                "http://www.godakshin.com/?q=travel-guides/chitradurga-sightseeing-158.html",
                "http://www.holidayiq.com/Dandeli-Sightseeing-345.html"
            ],
            "longitude": "77.7436954",
            "address": "Kadamba Avenue, R. Narayanapura, Brookefields, Dodsworth Enclave, Bangalore Urban, Karnataka, 560066, India",
            "latitude": "12.9703178",
            "locType": "residential",
            "closest_to": "chitradurga"
        },
        "kudalasangama": {
            "blogLinks": [
                "https://en.wikipedia.org/wiki/Tourism_in_Karnataka"
            ],
            "longitude": "76.0604244",
            "address": "Kudala Sangama, Hunagunda taluku, Bagalkote district, Karnataka, India",
            "latitude": "16.2033992",
            "locType": "village",
            "closest_to": "dandeli"
        },
        "south": {
            "blogLinks": [
                "https://en.wikipedia.org/wiki/Tourism_in_Karnataka"
            ],
            "longitude": "77.8040874",
            "address": "s, Vijayapura, Devanahalli taluk, Bangalore Rural, Karnataka, 562135, India",
            "latitude": "13.2942848",
            "locType": "residential",
            "closest_to": "chitradurga"
        },
        "kali": {
            "blogLinks": [
                "http://traveltwosome.com/exciting-road-trips-from-bangalore-6/",
                "http://www.bangaloretrips.info/dandeli",
                "http://www.nivalink.com/destination/dandeli",
                "http://www.team-bhp.com/forum/route-travel-queries/47758-bangalore-sirsi-dandeli-hubli.html"
            ],
            "longitude": "74.5802901",
            "address": "Kali, Joida taluk, Uttara Kannada, Karnataka, India",
            "latitude": "15.0145378",
            "locType": "river",
            "closest_to": "dandeli"
        },
        "bagalkot district": {
            "blogLinks": [
                "https://en.wikipedia.org/wiki/Tourism_in_Karnataka"
            ],
            "longitude": "75.6967919",
            "address": "Bagalakote, Bagalakote taluk, Bagalkote district, Karnataka, India",
            "latitude": "16.1853166",
            "locType": "city",
            "closest_to": "dandeli"
        },
        "kemmangundi": {
            "blogLinks": [
                "https://en.wikipedia.org/wiki/Tourism_in_Karnataka"
            ],
            "longitude": "75.7520082",
            "address": "Kemmannagundi, Tarikere taluku, Chikkamagaluru district, Karnataka, India",
            "latitude": "13.5463048",
            "locType": "village",
            "closest_to": "chitradurga"
        },
        "yellapur": {
            "blogLinks": [
                "http://www.team-bhp.com/forum/route-travel-queries/47758-bangalore-sirsi-dandeli-hubli.html"
            ],
            "longitude": "74.7061458",
            "address": "Yellapura, Yallapura taluk, Uttara Kannada, Karnataka, 581359, India",
            "latitude": "14.9622518",
            "locType": "town",
            "closest_to": "dandeli"
        },
        "bankpur fort": {
            "blogLinks": [
                "https://en.wikipedia.org/wiki/Tourism_in_Karnataka"
            ],
            "longitude": "75.2512090188504",
            "address": "Bankapura Fort, SH137, Guddada Channapura, Shiggaon taluk, Haveri district, Karnataka, 581202, India",
            "latitude": "14.9231815",
            "locType": "archaeological_site",
            "closest_to": "dandeli"
        },
        "mandya": {
            "blogLinks": [
                "https://en.wikipedia.org/wiki/Tourism_in_Karnataka"
            ],
            "longitude": "76.8937392",
            "address": "Mandya, Mandya taluk, Mandya district, Karnataka, 571401, India",
            "latitude": "12.5217836",
            "locType": "town",
            "closest_to": "chitradurga"
        },
        "manjusha museum": {
            "blogLinks": [
                "https://en.wikipedia.org/wiki/Tourism_in_Karnataka"
            ],
            "longitude": "75.3821342838196",
            "address": "Manjusha Museum, SH37, Dharmasthala, Beltangadi taluk, Dakshina Kannada, Karnataka, 574216, India",
            "latitude": "12.95116975",
            "locType": "museum",
            "closest_to": "chitradurga"
        },
        "dattatreya": {
            "blogLinks": [
                "https://en.wikipedia.org/wiki/Tourism_in_Karnataka"
            ],
            "longitude": "75.7539724",
            "address": "Inam Dattatreya Pitha, Chikkamagaluru taluku, Chikkamagaluru district, Karnataka, India",
            "latitude": "13.4315216",
            "locType": "hamlet",
            "closest_to": "chitradurga"
        },
        "uttara kannada district": {
            "blogLinks": [
                "http://www.holidayiq.com/Dandeli-Sightseeing-345.html"
            ],
            "longitude": "74.583333",
            "address": "Uttara Kannada, Karnataka, India",
            "latitude": "14.883333",
            "locType": "county",
            "closest_to": "dandeli"
        },
        "north": {
            "blogLinks": [
                "https://www.quora.com/Which-are-the-best-places-to-visit-in-Karnataka-in-winter"
            ],
            "longitude": "77.7660547",
            "address": "N, Chaithanya Samarpan, Kadugodi, Kannamangala, Bangalore Urban, Karnataka, 560066, India",
            "latitude": "13.0217151",
            "locType": "service",
            "closest_to": "chitradurga"
        },
        "venur": {
            "blogLinks": [
                "https://en.wikipedia.org/wiki/Tourism_in_Karnataka"
            ],
            "longitude": "75.1443252",
            "address": "Venoor, Beltangadi taluk, Dakshina Kannada, Karnataka, 574242, India",
            "latitude": "13.0122097",
            "locType": "village",
            "closest_to": "chitradurga"
        },
        "naganur": {
            "blogLinks": [
                "https://en.wikipedia.org/wiki/Tourism_in_Karnataka"
            ],
            "longitude": "74.4824431",
            "address": "Naganur, Hukkeri taluku, Belgaum district, Karnataka, India",
            "latitude": "16.073351",
            "locType": "village",
            "closest_to": "dandeli"
        },
        "bannerghatta": {
            "blogLinks": [
                "https://en.wikipedia.org/wiki/Tourism_in_Karnataka"
            ],
            "longitude": "77.5789509",
            "address": "Bannerghatta, Bangalore Urban, Karnataka, India",
            "latitude": "12.813337",
            "locType": "village",
            "closest_to": "chitradurga"
        },
        "south karnataka": {
            "blogLinks": [
                "https://en.wikipedia.org/wiki/Tourism_in_Karnataka"
            ],
            "longitude": "77.8040874",
            "address": "s, Vijayapura, Devanahalli taluk, Bangalore Rural, Karnataka, 562135, India",
            "latitude": "13.2942848",
            "locType": "residential",
            "closest_to": "chitradurga"
        },
        "mundgod": {
            "blogLinks": [
                "http://www.nivalink.com/destination/dandeli"
            ],
            "longitude": "75.0371451",
            "address": "Mundgod, Mundagoda taluk, Uttara Kannada, Karnataka, 581349, India",
            "latitude": "14.9705105",
            "locType": "village",
            "closest_to": "dandeli"
        },
        "shalmala": {
            "blogLinks": [
                "http://traveltwosome.com/exciting-road-trips-from-bangalore-6/"
            ],
            "longitude": "74.800353",
            "address": "Shalmala, Shirasi taluk, Uttara Kannada, Karnataka, India",
            "latitude": "14.7028929",
            "locType": "river",
            "closest_to": "dandeli"
        },
        "india bengaluru": {
            "blogLinks": [
                "https://www.quora.com/Which-are-the-best-places-to-visit-in-Karnataka-in-winter"
            ],
            "longitude": "77.5925914",
            "address": "Karnataka High Court, Dr B R Ambedkar Veedhi, Shantala Nagar, Gandhinagar, Bengaluru, Bangalore Urban, Karnataka, 560001, India",
            "latitude": "12.977944",
            "locType": "courthouse",
            "closest_to": "chitradurga"
        },
        "uttara kannada": {
            "blogLinks": [
                "https://en.wikipedia.org/wiki/Tourism_in_Karnataka",
                "http://travel.india.com/explore/wildlife-sanctuaries-in-karnataka/",
                "http://www.team-bhp.com/forum/route-travel-queries/47758-bangalore-sirsi-dandeli-hubli.html",
                "http://traveltwosome.com/exciting-road-trips-from-bangalore-6/"
            ],
            "longitude": "74.4729163045979",
            "address": "Uttara Kannada, Karnataka, India",
            "latitude": "14.6726379",
            "locType": "administrative",
            "closest_to": "dandeli"
        },
        "mandya district": {
            "blogLinks": [
                "https://en.wikipedia.org/wiki/Tourism_in_Karnataka"
            ],
            "longitude": "76.7302318329607",
            "address": "Mandya district, Karnataka, India",
            "latitude": "12.6336348",
            "locType": "administrative",
            "closest_to": "chitradurga"
        },
        "belavadi": {
            "blogLinks": [
                "https://en.wikipedia.org/wiki/Tourism_in_Karnataka"
            ],
            "longitude": "75.3760773",
            "address": "Belavadi, Koppa taluk, Chikkamagaluru district, Karnataka, India",
            "latitude": "13.5284899",
            "locType": "village",
            "closest_to": "dandeli"
        },
        "royal centre": {
            "blogLinks": [
                "http://wikitravel.org/en/Hampi"
            ],
            "longitude": "77.62083471365",
            "address": "Royal Legend Apartments, Bommanahalli, Bengaluru, Bangalore Urban, Karnataka, 560001, India",
            "latitude": "12.8992404",
            "locType": "residential",
            "closest_to": "chitradurga"
        },
        "haveri district": {
            "blogLinks": [
                "https://en.wikipedia.org/wiki/Tourism_in_Karnataka"
            ],
            "longitude": "75.3845674304742",
            "address": "Haveri district, Karnataka, India",
            "latitude": "14.714635",
            "locType": "administrative",
            "closest_to": "dandeli"
        },
        "netrani island of uttara kannada": {
            "blogLinks": [
                "https://en.wikipedia.org/wiki/Tourism_in_Karnataka"
            ],
            "longitude": "74.3272086675849",
            "address": "Netrani, Uttara Kannada, Karnataka, India",
            "latitude": "14.0174924",
            "locType": "island",
            "closest_to": "dandeli"
        },
        "venkateshwara": {
            "blogLinks": [
                "http://wikitravel.org/en/Hampi"
            ],
            "longitude": "77.5452768748626",
            "address": "Sri Venkateshwara Temple, 12th Cross Road, Rajajinagar 1st Block, Nandini Layout, Bengaluru, Bangalore Urban, Karnataka, 560001, India",
            "latitude": "13.00856755",
            "locType": "place_of_worship",
            "closest_to": "chitradurga"
        },
        "arasikere": {
            "blogLinks": [
                "https://en.wikipedia.org/wiki/Tourism_in_Karnataka"
            ],
            "longitude": "76.2568436",
            "address": "Arasikere, Arasikere taluku, Hassan district, Karnataka, 573103, India",
            "latitude": "13.3159809",
            "locType": "town",
            "closest_to": "chitradurga"
        },
        "east": {
            "blogLinks": [
                "https://en.wikipedia.org/wiki/Tourism_in_Karnataka"
            ],
            "longitude": "77.6601401",
            "address": "East, 43, Velankani Drive, Electronics City Phase 1, Doddathoguru, Bangalore Urban, Karnataka, 560100, India",
            "latitude": "12.8504319",
            "locType": "restaurant",
            "closest_to": "chitradurga"
        },
        "syntheri rock": {
            "blogLinks": [
                "http://www.holidayiq.com/Dandeli-Sightseeing-345.html"
            ],
            "longitude": "74.5242505",
            "address": "Syntheri Rock, SH46, Kaneri, Joida taluk, Uttara Kannada, Karnataka, India",
            "latitude": "15.0846142",
            "locType": "attraction",
            "closest_to": "dandeli"
        },
        "district bagalkot": {
            "blogLinks": [
                "https://en.wikipedia.org/wiki/Tourism_in_Karnataka"
            ],
            "longitude": "75.6736388363024",
            "address": "District Commissioner's Office, Bagalkot, Navanagara, Bagalakote, Bagalakote taluk, Bagalkote district, Karnataka, India",
            "latitude": "16.16028195",
            "locType": "commercial",
            "closest_to": "dandeli"
        },
        "mumbai": {
            "blogLinks": [
                "http://wikitravel.org/en/Hampi"
            ],
            "longitude": "77.5718472",
            "address": "Mumbai Spice, 18/2, 10th Cross, Malleswaram, Vyalikaval, Malleswaram, Bengaluru, Bangalore Urban, Karnataka, 560003, India",
            "latitude": "13.0002869",
            "locType": "restaurant",
            "closest_to": "chitradurga"
        },
        "aihole": {
            "blogLinks": [
                "https://en.wikipedia.org/wiki/Tourism_in_Karnataka"
            ],
            "longitude": "75.8819129",
            "address": "Aihole, Hunagunda taluku, Bagalkote district, Karnataka, India",
            "latitude": "16.0192298",
            "locType": "village",
            "closest_to": "dandeli"
        },
        "river kali": {
            "blogLinks": [
                "http://travel.india.com/explore/wildlife-sanctuaries-in-karnataka/",
                "http://traveltwosome.com/exciting-road-trips-from-bangalore-6/",
                "http://www.holidayiq.com/Dandeli-Sightseeing-345.html"
            ],
            "longitude": "74.5802901",
            "address": "Kali, Joida taluk, Uttara Kannada, Karnataka, India",
            "latitude": "15.0145378",
            "locType": "river",
            "closest_to": "dandeli"
        },
        "kannada": {
            "blogLinks": [
                "http://www.godakshin.com/?q=travel-guides/chitradurga-sightseeing-158.html"
            ],
            "longitude": "75.1008028650794",
            "address": "Dakshina Kannada, Karnataka, India",
            "latitude": "12.8114089",
            "locType": "administrative",
            "closest_to": "chitradurga"
        },
        "badami": {
            "blogLinks": [
                "https://en.wikipedia.org/wiki/Tourism_in_Karnataka"
            ],
            "longitude": "75.6807865",
            "address": "Badami, Badami taluku, Bagalkote district, Karnataka, 587200, India",
            "latitude": "15.9203874",
            "locType": "town",
            "closest_to": "dandeli"
        },
        "sirigere": {
            "blogLinks": [
                "https://en.wikipedia.org/wiki/Tourism_in_Karnataka"
            ],
            "longitude": "76.2051907",
            "address": "Sirigere, Chitradurga taluku, Chitradurga district, Karnataka, India",
            "latitude": "14.2840739",
            "locType": "village",
            "closest_to": "dandeli"
        },
        "anshi": {
            "blogLinks": [
                "http://www.nivalink.com/destination/dandeli",
                "http://traveltwosome.com/exciting-road-trips-from-bangalore-6/"
            ],
            "longitude": "74.3708809",
            "address": "Anshi, Joida taluk, Uttara Kannada, Karnataka, India",
            "latitude": "14.9925559",
            "locType": "village",
            "closest_to": "dandeli"
        },
        "bellary district": {
            "blogLinks": [
                "https://en.wikipedia.org/wiki/Tourism_in_Karnataka"
            ],
            "longitude": "76.7137978546465",
            "address": "Bellary district, Karnataka, India",
            "latitude": "15.20597305",
            "locType": "administrative",
            "closest_to": "chitradurga"
        },
        "bangalore": {
            "blogLinks": [
                "https://en.wikipedia.org/wiki/Tourism_in_Karnataka",
                "https://www.tripoto.com/trip/bangalore-to-goa-road-trip-places-of-interest-132888",
                "http://www.nivalink.com/destination/dandeli",
                "http://www.bangaloretrips.info/dandeli",
                "http://travel.india.com/explore/wildlife-sanctuaries-in-karnataka/",
                "http://wikitravel.org/en/Hampi"
            ],
            "longitude": "77.5912997",
            "address": "Bengaluru, Bangalore Urban, Karnataka, 560001, India",
            "latitude": "12.9791198",
            "locType": "city",
            "closest_to": "chitradurga"
        },
        "kudremukh": {
            "blogLinks": [
                "http://travel.india.com/explore/wildlife-sanctuaries-in-karnataka/"
            ],
            "longitude": "75.2523304",
            "address": "Kudremukha, Mudigere taluk, Chikkamagaluru district, Karnataka, India",
            "latitude": "13.2144007",
            "locType": "village",
            "closest_to": "chitradurga"
        },
        "ganeshgudi": {
            "blogLinks": [
                "http://www.nivalink.com/destination/dandeli"
            ],
            "longitude": "74.5335693",
            "address": "Ganeshagudi, Joida taluk, Uttara Kannada, Karnataka, India",
            "latitude": "15.2815822",
            "locType": "village",
            "closest_to": "dandeli"
        },
        "ragihalli": {
            "blogLinks": [
                "http://travel.india.com/explore/wildlife-sanctuaries-in-karnataka/"
            ],
            "longitude": "77.5745803",
            "address": "Ragihalli, Bangalore Urban, Karnataka, India",
            "latitude": "12.7386426",
            "locType": "village",
            "closest_to": "chitradurga"
        },
        "bangalore - hubli": {
            "blogLinks": [
                "https://www.tripoto.com/trip/bangalore-to-goa-road-trip-places-of-interest-132888"
            ],
            "longitude": "75.1368445",
            "address": "Pune Bangalore Road, Chanakya Puri, Old Hubli, Hubballi - \u0cb9\u0cc1\u0cac\u0ccd\u0cac\u0cb3\u0ccd\u0cb3\u0cbf, Hubballi taluku, Dharwad district, Karnataka, 580020, India",
            "latitude": "15.3416245",
            "locType": "primary",
            "closest_to": "dandeli"
        },
        "brahmi": {
            "blogLinks": [
                "http://www.godakshin.com/?q=travel-guides/chitradurga-sightseeing-158.html"
            ],
            "longitude": "77.5641994467667",
            "address": "MES Kishore Kendra, 10th Main Road, Vyalikaval, Gayatri Nagar, Bengaluru, Bangalore Urban, Karnataka, 560055, India",
            "latitude": "13.00475195",
            "locType": "school",
            "closest_to": "chitradurga"
        },
        "udupi": {
            "blogLinks": [
                "https://en.wikipedia.org/wiki/Tourism_in_Karnataka"
            ],
            "longitude": "74.7473232",
            "address": "Udupi, Udupi taluku, Udupi district, Karnataka, 576101, India",
            "latitude": "13.3419169",
            "locType": "city",
            "closest_to": "dandeli"
        },
        "ghataprabha river": {
            "blogLinks": [
                "https://en.wikipedia.org/wiki/Tourism_in_Karnataka"
            ],
            "longitude": "74.9165235",
            "address": "Ghataprabha, Gokak taluku, Belgaum district, Karnataka, India",
            "latitude": "16.2124344",
            "locType": "river",
            "closest_to": "dandeli"
        },
        "belgaum": {
            "blogLinks": [
                "https://en.wikipedia.org/wiki/Tourism_in_Karnataka"
            ],
            "longitude": "74.75",
            "address": "Belgaum, Belgaum district, Karnataka, India",
            "latitude": "16.333333",
            "locType": "county",
            "closest_to": "dandeli"
        }
    }
}