{
    "shimoga": {
        "place_id": "639702",
        "osm_id": "245625473",
        "icon": "https://nominatim.openstreetmap.org/images/mapicons/poi_place_city.p.20.png",
        "osm_type": "node",
        "licence": "Data \u00a9 OpenStreetMap contributors, ODbL 1.0. http://www.openstreetmap.org/copyright",
        "display_name": "Shivamogga, Shivamogga taluku, Shimoga district, Karnataka, 577200, India",
        "type": "city",
        "lon": "75.569737",
        "boundingbox": [
            "13.7711723",
            "14.0911723",
            "75.409737",
            "75.729737"
        ],
        "importance": 0.55,
        "lat": "13.9311723",
        "class": "place"
    },
    "mentions": {
        "malaprabha river": {
            "closest_to": "hubli",
            "address": "Malaprabha, Ramadurga taluku, Belgaum district, Karnataka, India",
            "longitude": "75.1982668",
            "latitude": "15.8914192",
            "blogLinks": [
                "https://www.tripoto.com/trip/popular-places-to-see-in-karnataka-57b7e9c84299c"
            ],
            "locType": "river"
        },
        "giriyas": {
            "closest_to": "shimoga",
            "address": "Giriyas Electronics, Karnad Sadashiva Rao Road, Dongerkeri, Attavar, Mangaluru, Mangaluru taluk, Dakshina Kannada, Karnataka, 575001, India",
            "longitude": "74.8422606",
            "latitude": "12.8694149",
            "blogLinks": [
                "http://wikitravel.org/en/Hubli"
            ],
            "locType": "supermarket"
        },
        "shivamogga": {
            "closest_to": "shimoga",
            "address": "Shivamogga, Shivamogga taluku, Shimoga district, Karnataka, 577200, India",
            "longitude": "75.569737",
            "latitude": "13.9311723",
            "blogLinks": [
                "https://en.wikipedia.org/wiki/Sagara,_Karnataka"
            ],
            "locType": "city"
        },
        "kargal": {
            "closest_to": "shimoga",
            "address": "Kargal, Arakalagudu taluk, Hassan district, Karnataka, India",
            "longitude": "75.9613152",
            "latitude": "12.627292",
            "blogLinks": [
                "https://en.wikipedia.org/wiki/Sagara,_Karnataka"
            ],
            "locType": "village"
        },
        "dharwad": {
            "closest_to": "hubli",
            "address": "Dharwad, Dharawada taluku, Dharwad district, Karnataka, 580001, India",
            "longitude": "75.0066516",
            "latitude": "15.4540505",
            "blogLinks": [
                "https://en.wikipedia.org/wiki/Sirsi,_Karnataka"
            ],
            "locType": "city"
        },
        "jog road": {
            "closest_to": "shimoga",
            "address": "Jog Falls, Joga - Kargal, Sagara taluk, Shimoga district, Karnataka, India",
            "longitude": "74.8128715",
            "latitude": "14.2276106",
            "blogLinks": [
                "https://en.wikipedia.org/wiki/Sagara,_Karnataka"
            ],
            "locType": "locality"
        },
        "sahyadri": {
            "closest_to": "shimoga",
            "address": "Sahyadri Polytechnic, SH1, Seebinakere, Sankadahole, Tirthahalli taluk, Shimoga district, Karnataka, 577432, India",
            "longitude": "75.2317987800043",
            "latitude": "13.6983273",
            "blogLinks": [
                "https://en.wikipedia.org/wiki/Sirsi,_Karnataka"
            ],
            "locType": "school"
        },
        "honnali": {
            "closest_to": "shimoga",
            "address": "Honnali, Honnali taluku, Davanagere district, Karnataka, 577217, India",
            "longitude": "75.6457434",
            "latitude": "14.2389785",
            "blogLinks": [
                "https://en.wikipedia.org/wiki/Sagara,_Karnataka"
            ],
            "locType": "town"
        },
        "kalaseshwara temple": {
            "closest_to": "shimoga",
            "address": "Kalaseshwara Temple, SH66, Kalasa, Mudigere taluk, Chikkamagaluru district, Karnataka, 577124, India",
            "longitude": "75.363446975",
            "latitude": "13.23228505",
            "blogLinks": [
                "http://www.nivalink.com/destination/thirthahalli",
                "http://www.nivalink.com/destination/shimoga"
            ],
            "locType": "place_of_worship"
        },
        "uttara kannada": {
            "closest_to": "shimoga",
            "address": "Uttara Kannada, Karnataka, India",
            "longitude": "74.4729163045979",
            "latitude": "14.6726379",
            "blogLinks": [
                "https://en.wikipedia.org/wiki/Sirsi,_Karnataka",
                "https://www.tripoto.com/trip/popular-places-to-see-in-karnataka-57b7e9c84299c",
                "http://www.team-bhp.com/forum/route-travel-queries/47758-bangalore-sirsi-dandeli-hubli.html"
            ],
            "locType": "administrative"
        },
        "p.b rd": {
            "closest_to": "shimoga",
            "address": "Pune Bangalore Road, Chanakya Puri, Old Hubli, Hubballi - \u0cb9\u0cc1\u0cac\u0ccd\u0cac\u0cb3\u0ccd\u0cb3\u0cbf, Hubballi taluku, Dharwad district, Karnataka, 580020, India",
            "longitude": "75.1368445",
            "latitude": "15.3416245",
            "blogLinks": [
                "http://wikitravel.org/en/Hubli"
            ],
            "locType": "primary"
        },
        "sorab": {
            "closest_to": "shimoga",
            "address": "Sorab Ulavi Rd, Ulavi, Soraba taluk, Shimoga district, Karnataka, 577434, India",
            "longitude": "75.1114212",
            "latitude": "14.2779168",
            "blogLinks": [
                "http://www.holidayiq.com/Shimoga-Sightseeing-748.html"
            ],
            "locType": "secondary"
        },
        "tumkur": {
            "closest_to": "shimoga",
            "address": "Tumakuru, Tumkur district, Karnataka, India",
            "longitude": "77.0002445",
            "latitude": "13.4999406",
            "blogLinks": [
                "https://en.wikipedia.org/wiki/Sagara,_Karnataka"
            ],
            "locType": "county"
        },
        "linganamakki": {
            "closest_to": "shimoga",
            "address": "Linganamakki, Sagara taluk, Shimoga district, Karnataka, India",
            "longitude": "74.8292508",
            "latitude": "14.1731954",
            "blogLinks": [
                "https://en.wikipedia.org/wiki/Sagara,_Karnataka"
            ],
            "locType": "village"
        },
        "ranebennur": {
            "closest_to": "shimoga",
            "address": "Ranebennur, Ranebennuru taluk, Haveri district, Karnataka, 581115, India",
            "longitude": "75.6341529",
            "latitude": "14.6165795",
            "blogLinks": [
                "https://en.wikipedia.org/wiki/Sagara,_Karnataka"
            ],
            "locType": "town"
        },
        "tunga": {
            "closest_to": "shimoga",
            "address": "Tunga, Tirthahalli taluk, Shimoga district, Karnataka, India",
            "longitude": "75.3221835",
            "latitude": "13.6632221",
            "blogLinks": [
                "http://www.nivalink.com/destination/shimoga"
            ],
            "locType": "river"
        },
        "keladi": {
            "closest_to": "shimoga",
            "address": "Keladi, Sagara taluk, Shimoga district, Karnataka, India",
            "longitude": "75.0165753",
            "latitude": "14.2214761",
            "blogLinks": [
                "https://en.wikipedia.org/wiki/Sagara,_Karnataka",
                "http://www.holidayiq.com/Shimoga-Sightseeing-748.html"
            ],
            "locType": "village"
        },
        "ganapathi lake": {
            "closest_to": "shimoga",
            "address": "Ganapathi Lake, J. C. Road, Sagara, Sagara taluk, Shimoga district, Karnataka, 577400, India",
            "longitude": "75.0337898302367",
            "latitude": "14.1660665",
            "blogLinks": [
                "https://en.wikipedia.org/wiki/Sagara,_Karnataka"
            ],
            "locType": "water"
        },
        "sringeri": {
            "closest_to": "shimoga",
            "address": "Sringeri, Sringeri taluku, Chikkamagaluru district, Karnataka, 577592, India",
            "longitude": "75.2553718",
            "latitude": "13.4261724",
            "blogLinks": [
                "http://www.nivalink.com/destination/thirthahalli"
            ],
            "locType": "town"
        },
        "kalghatgi": {
            "closest_to": "shimoga",
            "address": "Kalghatgi Road, Hindasageri, Kalaghatagi taluku, Dharwad district, Karnataka, 581204, India",
            "longitude": "75.0064745",
            "latitude": "15.1756059",
            "blogLinks": [
                "http://wikitravel.org/en/Hubli"
            ],
            "locType": "primary"
        },
        "gokak falls": {
            "closest_to": "hubli",
            "address": "Gokak Falls, Gokak taluku, Belgaum district, Karnataka, India",
            "longitude": "74.7775947",
            "latitude": "16.1918383",
            "blogLinks": [
                "http://wikitravel.org/en/Hubli"
            ],
            "locType": "waterfall"
        },
        "kali": {
            "closest_to": "shimoga",
            "address": "Kali, Joida taluk, Uttara Kannada, Karnataka, India",
            "longitude": "74.5802901",
            "latitude": "15.0145378",
            "blogLinks": [
                "http://www.team-bhp.com/forum/route-travel-queries/47758-bangalore-sirsi-dandeli-hubli.html"
            ],
            "locType": "river"
        },
        "hampi": {
            "closest_to": "hubli",
            "address": "Hampe, Hosapete taluk, Bellary district, Karnataka, 583239, India",
            "longitude": "76.4606199",
            "latitude": "15.3359769",
            "blogLinks": [
                "http://www.mapsofindia.com/karnataka/tourism/",
                "http://wikitravel.org/en/Hubli"
            ],
            "locType": "village"
        },
        "hubli-dharwad road": {
            "closest_to": "hubli",
            "address": "Hubli Dharwad Road, Gandhinagar, Navalur, Dharawada taluku, Dharwad district, Karnataka, 580002, India",
            "longitude": "75.0366396",
            "latitude": "15.4231154",
            "blogLinks": [
                "http://wikitravel.org/en/Hubli"
            ],
            "locType": "primary"
        },
        "tungabhadra river": {
            "closest_to": "hubli",
            "address": "Tungabhadra, Gangavati taluku, Koppal district, Karnataka, India",
            "longitude": "76.4931607",
            "latitude": "15.3446123",
            "blogLinks": [
                "http://www.nivalink.com/destination/shimoga"
            ],
            "locType": "river"
        },
        "kundapura": {
            "closest_to": "shimoga",
            "address": "Kundapura, \u0c95\u0cc1\u0c82\u0ca6\u0cbe\u0caa\u0cc1\u0cb0 \u0ca4\u0cbe\u0cb2\u0cc2\u0c95\u0cc1, Udupi district, Karnataka, 576200, India",
            "longitude": "74.6915722",
            "latitude": "13.6250993",
            "blogLinks": [
                "http://www.nivalink.com/destination/thirthahalli",
                "http://www.nivalink.com/destination/shimoga"
            ],
            "locType": "town"
        },
        "riversidedam28kundadrikundagiri hills": {
            "closest_to": "shimoga",
            "address": "Kadri Hills, Mangaluru, Mangaluru taluk, Dakshina Kannada, Karnataka, 575001, India",
            "longitude": "74.860152",
            "latitude": "12.8935998",
            "blogLinks": [
                "http://www.nivalink.com/destination/shimoga"
            ],
            "locType": "suburb"
        },
        "bhatkal": {
            "closest_to": "shimoga",
            "address": "Bhatkal, Bhatkala taluk, Uttara Kannada, Karnataka, 581320, India",
            "longitude": "74.5485295",
            "latitude": "13.9952114",
            "blogLinks": [
                "https://en.wikipedia.org/wiki/Sagara,_Karnataka"
            ],
            "locType": "town"
        },
        "tirthahalli": {
            "closest_to": "shimoga",
            "address": "Tirthahalli, Tirthahalli taluk, Shimoga district, Karnataka, 577432, India",
            "longitude": "75.2463699",
            "latitude": "13.6901992",
            "blogLinks": [
                "http://www.nivalink.com/destination/thirthahalli"
            ],
            "locType": "town"
        },
        "mangalore": {
            "closest_to": "shimoga",
            "address": "Mangaluru, Mangaluru taluk, Dakshina Kannada, Karnataka, 575001, India",
            "longitude": "74.8430082",
            "latitude": "12.8698101",
            "blogLinks": [
                "https://en.wikipedia.org/wiki/Sirsi,_Karnataka",
                "https://en.wikipedia.org/wiki/Sagara,_Karnataka",
                "https://www.tripoto.com/trip/bangalore-to-jog-falls-karnataka",
                "https://www.tripoto.com/trip/popular-places-to-see-in-karnataka-57b7e9c84299c",
                "http://www.mapsofindia.com/karnataka/tourism/"
            ],
            "locType": "city"
        },
        "thirthahalli": {
            "closest_to": "shimoga",
            "address": "Thirthahalli - Udupi Highway, Shivapura, Karkala taluk, Udupi district, Karnataka, India",
            "longitude": "74.9626368",
            "latitude": "13.4265327",
            "blogLinks": [
                "http://www.nivalink.com/destination/thirthahalli"
            ],
            "locType": "trunk"
        },
        "shimoga district of karnataka": {
            "closest_to": "shimoga",
            "address": "Shimoga district, Karnataka, India",
            "longitude": "75.1312533993886",
            "latitude": "14.0558284",
            "blogLinks": [
                "http://www.holidayiq.com/Shimoga-Sightseeing-748.html"
            ],
            "locType": "administrative"
        },
        "sagar": {
            "closest_to": "shimoga",
            "address": "Sagara, Sagara taluk, Shimoga district, Karnataka, 577400, India",
            "longitude": "75.0262551",
            "latitude": "14.1666594",
            "blogLinks": [
                "https://en.wikipedia.org/wiki/Sagara,_Karnataka"
            ],
            "locType": "town"
        },
        "vidhyanagar": {
            "closest_to": "shimoga",
            "address": "Vidhyanagar Road, Nituvalli, Davanagere, Davanagere taluku, Davanagere district, Karnataka, 577000, India",
            "longitude": "75.9176086",
            "latitude": "14.4416416",
            "blogLinks": [
                "http://wikitravel.org/en/Hubli"
            ],
            "locType": "tertiary"
        },
        "kannur": {
            "closest_to": "shimoga",
            "address": "Netravati bridge - Kannur Bypass Road (Proposed), Padil, Bajal, Mangaluru taluk, Dakshina Kannada, Karnataka, 575007, India",
            "longitude": "74.8858161",
            "latitude": "12.8487602",
            "blogLinks": [
                "http://www.nivalink.com/destination/thirthahalli"
            ],
            "locType": "construction"
        },
        "honnavar": {
            "closest_to": "shimoga",
            "address": "Honnavar, Honnavara taluku, Uttara Kannada, Karnataka, 581334, India",
            "longitude": "74.4446716",
            "latitude": "14.2810827",
            "blogLinks": [
                "https://en.wikipedia.org/wiki/Sagara,_Karnataka"
            ],
            "locType": "town"
        },
        "banavasi": {
            "closest_to": "shimoga",
            "address": "Banavasi, Shirasi taluk, Uttara Kannada, Karnataka, India",
            "longitude": "75.0129845",
            "latitude": "14.5389738",
            "blogLinks": [
                "https://en.wikipedia.org/wiki/Sirsi,_Karnataka",
                "https://en.wikipedia.org/wiki/Sagara,_Karnataka",
                "http://wikitravel.org/en/Hubli"
            ],
            "locType": "town"
        },
        "p.b road": {
            "closest_to": "shimoga",
            "address": "Pune Bangalore Road, Chanakya Puri, Old Hubli, Hubballi - \u0cb9\u0cc1\u0cac\u0ccd\u0cac\u0cb3\u0ccd\u0cb3\u0cbf, Hubballi taluku, Dharwad district, Karnataka, 580020, India",
            "longitude": "75.1368445",
            "latitude": "15.3416245",
            "blogLinks": [
                "http://wikitravel.org/en/Hubli"
            ],
            "locType": "primary"
        },
        "bagewadi": {
            "closest_to": "hubli",
            "address": "Bagewadi, Hukkeri taluku, Belgaum district, Karnataka, 591305, India",
            "longitude": "74.721498",
            "latitude": "16.300076",
            "blogLinks": [
                "http://wikitravel.org/en/Hubli"
            ],
            "locType": "village"
        },
        "sagar taluk": {
            "closest_to": "shimoga",
            "address": "Sagara, Sagara taluk, Shimoga district, Karnataka, 577400, India",
            "longitude": "75.0262551",
            "latitude": "14.1666594",
            "blogLinks": [
                "https://en.wikipedia.org/wiki/Sagara,_Karnataka"
            ],
            "locType": "town"
        },
        "unchalli falls": {
            "closest_to": "shimoga",
            "address": "\u0c89\u0c82\u0c9a\u0cb3\u0ccd\u0cb3\u0cbf \u0c9c\u0cb2\u0caa\u0cbe\u0ca4, Siddapura taluk, Uttara Kannada, Karnataka, India",
            "longitude": "74.7477592",
            "latitude": "14.4097755",
            "blogLinks": [
                "https://en.wikipedia.org/wiki/Sirsi,_Karnataka"
            ],
            "locType": "waterfall"
        },
        "kittur": {
            "closest_to": "hubli",
            "address": "Kitturu, Bailahongala taluku, Belgaum district, Karnataka, 591115, India",
            "longitude": "74.7876971",
            "latitude": "15.5957166",
            "blogLinks": [
                "http://wikitravel.org/en/Hubli"
            ],
            "locType": "town"
        },
        "haveri": {
            "closest_to": "shimoga",
            "address": "Haveri, Haveri taluku, Haveri district, Karnataka, 581110, India",
            "longitude": "75.3996731",
            "latitude": "14.7874825",
            "blogLinks": [
                "https://en.wikipedia.org/wiki/Sirsi,_Karnataka",
                "https://en.wikipedia.org/wiki/Sagara,_Karnataka"
            ],
            "locType": "town"
        },
        "river tunga": {
            "closest_to": "shimoga",
            "address": "Tunga, Tirthahalli taluk, Shimoga district, Karnataka, India",
            "longitude": "75.3221835",
            "latitude": "13.6632221",
            "blogLinks": [
                "http://www.holidayiq.com/Shimoga-Sightseeing-748.html"
            ],
            "locType": "river"
        },
        "sagara": {
            "closest_to": "shimoga",
            "address": "Sagara, Sagara taluk, Shimoga district, Karnataka, 577400, India",
            "longitude": "75.0262551",
            "latitude": "14.1666594",
            "blogLinks": [
                "https://en.wikipedia.org/wiki/Sagara,_Karnataka",
                "http://www.holidayiq.com/Shimoga-Sightseeing-748.html"
            ],
            "locType": "town"
        },
        "yellapur": {
            "closest_to": "shimoga",
            "address": "Yellapura, Yallapura taluk, Uttara Kannada, Karnataka, 581359, India",
            "longitude": "74.7061458",
            "latitude": "14.9622518",
            "blogLinks": [
                "http://www.team-bhp.com/forum/route-travel-queries/47758-bangalore-sirsi-dandeli-hubli.html"
            ],
            "locType": "town"
        },
        "pattadakal": {
            "closest_to": "hubli",
            "address": "Pattadakal Temples, SH14, \u0cac\u0cbe\u0c9a\u0cbf\u0ca8\u0c97\u0cc1\u0ca1\u0ccd\u0ca1, Badami taluku, Bagalkote district, Karnataka, 587211, India",
            "longitude": "75.815884048161",
            "latitude": "15.9506349",
            "blogLinks": [
                "http://www.mapsofindia.com/karnataka/tourism/"
            ],
            "locType": "attraction"
        },
        "urdu": {
            "closest_to": "shimoga",
            "address": "Urdu Ground, Ranebennur, Ranebennuru taluk, Haveri district, Karnataka, 581115, India",
            "longitude": "75.636575371858",
            "latitude": "14.6180369",
            "blogLinks": [
                "https://en.wikipedia.org/wiki/Sirsi,_Karnataka"
            ],
            "locType": "recreation_ground"
        },
        "kodachadri": {
            "closest_to": "shimoga",
            "address": "Kodachadri, \u0c95\u0cc1\u0c82\u0ca6\u0cbe\u0caa\u0cc1\u0cb0 \u0ca4\u0cbe\u0cb2\u0cc2\u0c95\u0cc1, Udupi district, Karnataka, India",
            "longitude": "74.8705395",
            "latitude": "13.8565758",
            "blogLinks": [
                "http://www.holidayiq.com/Shimoga-Sightseeing-748.html"
            ],
            "locType": "peak"
        },
        "sagar road": {
            "closest_to": "shimoga",
            "address": "Sagar Road, Anandapura, Sagara taluk, Shimoga district, Karnataka, 577412, India",
            "longitude": "75.2002048",
            "latitude": "14.0904271",
            "blogLinks": [
                "http://www.holidayiq.com/Shimoga-Sightseeing-748.html"
            ],
            "locType": "trunk"
        },
        "marikamba": {
            "closest_to": "shimoga",
            "address": "Marikamba Temple, NH766C;SH26, Halkal, \u0c95\u0cc1\u0c82\u0ca6\u0cbe\u0caa\u0cc1\u0cb0 \u0ca4\u0cbe\u0cb2\u0cc2\u0c95\u0cc1, Udupi district, Karnataka, 576220, India",
            "longitude": "74.8103631279317",
            "latitude": "13.8626958",
            "blogLinks": [
                "https://en.wikipedia.org/wiki/Sirsi,_Karnataka"
            ],
            "locType": "place_of_worship"
        },
        "jog falls": {
            "closest_to": "shimoga",
            "address": "Jog Falls, Joga - Kargal, Sagara taluk, Shimoga district, Karnataka, India",
            "longitude": "74.8128715",
            "latitude": "14.2276106",
            "blogLinks": [
                "https://en.wikipedia.org/wiki/Sagara,_Karnataka",
                "http://www.holidayiq.com/Shimoga-Sightseeing-748.html",
                "http://wikitravel.org/en/Hubli"
            ],
            "locType": "locality"
        },
        "halebid": {
            "closest_to": "shimoga",
            "address": "Halebidu, Beluru taluk, Hassan district, Karnataka, 573121, India",
            "longitude": "75.9918793",
            "latitude": "13.2167959",
            "blogLinks": [
                "http://www.mapsofindia.com/karnataka/tourism/"
            ],
            "locType": "village"
        },
        "udupi": {
            "closest_to": "shimoga",
            "address": "Udupi, Udupi taluku, Udupi district, Karnataka, 576101, India",
            "longitude": "74.7473232",
            "latitude": "13.3419169",
            "blogLinks": [
                "https://en.wikipedia.org/wiki/Sirsi,_Karnataka",
                "https://en.wikipedia.org/wiki/Sagara,_Karnataka",
                "http://www.mapsofindia.com/karnataka/tourism/"
            ],
            "locType": "city"
        },
        "humcha": {
            "closest_to": "shimoga",
            "address": "Humcha Main Road, Huncha, Hosanagara taluk, Shimoga district, Karnataka, India",
            "longitude": "75.2098487",
            "latitude": "13.862013",
            "blogLinks": [
                "http://www.nivalink.com/destination/thirthahalli",
                "http://www.nivalink.com/destination/shimoga"
            ],
            "locType": "secondary"
        },
        "kadur": {
            "closest_to": "shimoga",
            "address": "Mudigere-Kadur Road, Basavannahalli, Chikkamagaluru, Chikkamagaluru taluku, Chikkamagaluru district, Karnataka, 577101, India",
            "longitude": "75.7820095",
            "latitude": "13.3283654",
            "blogLinks": [
                "https://en.wikipedia.org/wiki/Sagara,_Karnataka"
            ],
            "locType": "trunk"
        },
        "bhadra river": {
            "closest_to": "shimoga",
            "address": "Bhadra, Chikkamagaluru taluku, Chikkamagaluru district, Karnataka, India",
            "longitude": "75.527118",
            "latitude": "13.4888356",
            "blogLinks": [
                "http://www.nivalink.com/destination/shimoga"
            ],
            "locType": "river"
        },
        "hanagal": {
            "closest_to": "shimoga",
            "address": "Hanagal, Molakalmuru taluku, Chitradurga district, Karnataka, 577535, India",
            "longitude": "76.7039857",
            "latitude": "14.7383723",
            "blogLinks": [
                "https://en.wikipedia.org/wiki/Sagara,_Karnataka"
            ],
            "locType": "village"
        },
        "koodli": {
            "closest_to": "shimoga",
            "address": "Koodli Road, Yadtadi, Udupi taluku, Udupi district, Karnataka, India",
            "longitude": "74.7671",
            "latitude": "13.4868433",
            "blogLinks": [
                "http://www.nivalink.com/destination/shimoga"
            ],
            "locType": "tertiary"
        },
        "hoysaleswara temple": {
            "closest_to": "shimoga",
            "address": "Hoysaleswara Temple, SH21, Halebidu, Beluru taluk, Hassan district, Karnataka, 573121, India",
            "longitude": "75.9941649",
            "latitude": "13.2127193",
            "blogLinks": [
                "http://www.mapsofindia.com/karnataka/tourism/"
            ],
            "locType": "place_of_worship"
        },
        "aihole": {
            "closest_to": "hubli",
            "address": "Aihole, Hunagunda taluku, Bagalkote district, Karnataka, India",
            "longitude": "75.8819129",
            "latitude": "16.0192298",
            "blogLinks": [
                "http://wikitravel.org/en/Hubli"
            ],
            "locType": "village"
        },
        "sorab road": {
            "closest_to": "shimoga",
            "address": "Sorab Road, Sagara, Sagara taluk, Shimoga district, Karnataka, 577400, India",
            "longitude": "75.0293897",
            "latitude": "14.1747341",
            "blogLinks": [
                "https://en.wikipedia.org/wiki/Sagara,_Karnataka"
            ],
            "locType": "unclassified"
        },
        "hubli road": {
            "closest_to": "hubli",
            "address": "Hubli Road, Betageri, Gadag, Gadag taluk, Gadag district, Karnataka, 582102, India",
            "longitude": "75.6212485",
            "latitude": "15.4223718",
            "blogLinks": [
                "https://en.wikipedia.org/wiki/Sirsi,_Karnataka"
            ],
            "locType": "trunk"
        },
        "malnad": {
            "closest_to": "shimoga",
            "address": "Malnad Hospital, Mudigere-Kadur Road, Chikkamagaluru, Chikkamagaluru taluku, Chikkamagaluru district, Karnataka, 577101, India",
            "longitude": "75.7715495",
            "latitude": "13.3160351",
            "blogLinks": [
                "http://www.nivalink.com/destination/thirthahalli"
            ],
            "locType": "hospital"
        },
        "subrahmanya temple": {
            "closest_to": "shimoga",
            "address": "Subrahmanya Temple Road, Lakshmi Puram, Arasikere, Arasikere taluku, Hassan district, Karnataka, 573103, India",
            "longitude": "76.2499985",
            "latitude": "13.3105901",
            "blogLinks": [
                "http://www.nivalink.com/destination/shimoga"
            ],
            "locType": "residential"
        },
        "chennakesava temple": {
            "closest_to": "shimoga",
            "address": "Chennakesava Temple, NH73, Navilahalli, Beluru taluk, Hassan district, Karnataka, India",
            "longitude": "75.8603311",
            "latitude": "13.1629239",
            "blogLinks": [
                "http://www.mapsofindia.com/karnataka/tourism/"
            ],
            "locType": "place_of_worship"
        },
        "tunga river": {
            "closest_to": "shimoga",
            "address": "Tunga, Tirthahalli taluk, Shimoga district, Karnataka, India",
            "longitude": "75.3221835",
            "latitude": "13.6632221",
            "blogLinks": [
                "http://www.nivalink.com/destination/shimoga"
            ],
            "locType": "river"
        },
        "kumta": {
            "closest_to": "shimoga",
            "address": "Kumta, Kumata taluk, Uttara Kannada, Karnataka, India",
            "longitude": "74.4107617",
            "latitude": "14.4261647",
            "blogLinks": [
                "https://en.wikipedia.org/wiki/Sirsi,_Karnataka"
            ],
            "locType": "town"
        },
        "hubli": {
            "closest_to": "hubli",
            "address": "Hubballi - \u0cb9\u0cc1\u0cac\u0ccd\u0cac\u0cb3\u0ccd\u0cb3\u0cbf, Hubballi taluku, Dharwad district, Karnataka, 580020, India",
            "longitude": "75.1379848",
            "latitude": "15.3518378",
            "blogLinks": [
                "http://www.team-bhp.com/forum/route-travel-queries/47758-bangalore-sirsi-dandeli-hubli.html"
            ],
            "locType": "city"
        },
        "hosagadde": {
            "closest_to": "shimoga",
            "address": "Hosagadde, Kelaginamane, Siddapura taluk, Uttara Kannada, Karnataka, India",
            "longitude": "74.7527463",
            "latitude": "14.3274092",
            "blogLinks": [
                "https://en.wikipedia.org/wiki/Sagara,_Karnataka"
            ],
            "locType": "locality"
        },
        "gokarn": {
            "closest_to": "shimoga",
            "address": "Gokarna, Kumata taluk, Uttara Kannada, Karnataka, 581326, India",
            "longitude": "74.3184418",
            "latitude": "14.5439629",
            "blogLinks": [
                "http://wikitravel.org/en/Hubli"
            ],
            "locType": "town"
        },
        "badami of karnataka": {
            "closest_to": "hubli",
            "address": "Badami taluku, Bagalkote district, Karnataka, India",
            "longitude": "75.6419100722642",
            "latitude": "15.98301895",
            "blogLinks": [
                "http://www.mapsofindia.com/karnataka/tourism/"
            ],
            "locType": "administrative"
        },
        "belur": {
            "closest_to": "shimoga",
            "address": "Belur, Beluru taluk, Hassan district, Karnataka, 573115, India",
            "longitude": "75.8634851",
            "latitude": "13.1645671",
            "blogLinks": [
                "https://en.wikipedia.org/wiki/Sagara,_Karnataka",
                "http://www.mapsofindia.com/karnataka/tourism/"
            ],
            "locType": "town"
        },
        "karwar": {
            "closest_to": "hubli",
            "address": "Karwar, Karavara taluk, Uttara Kannada, Karnataka, 581300, India",
            "longitude": "74.1319229",
            "latitude": "14.8120931",
            "blogLinks": [
                "https://en.wikipedia.org/wiki/Sirsi,_Karnataka",
                "http://wikitravel.org/en/Hubli"
            ],
            "locType": "town"
        },
        "chennamma circle": {
            "closest_to": "hubli",
            "address": "Rani Chennamma Circle, Cantonment, Belagavi, Belagavi taluku, Belgaum district, Karnataka, 590001, India",
            "longitude": "74.511712864861",
            "latitude": "15.86722145",
            "blogLinks": [
                "http://wikitravel.org/en/Hubli"
            ],
            "locType": "trunk"
        },
        "river kali": {
            "closest_to": "shimoga",
            "address": "Kali, Joida taluk, Uttara Kannada, Karnataka, India",
            "longitude": "74.5802901",
            "latitude": "15.0145378",
            "blogLinks": [
                "https://www.tripoto.com/trip/popular-places-to-see-in-karnataka-57b7e9c84299c"
            ],
            "locType": "river"
        },
        "shimoga": {
            "closest_to": "shimoga",
            "address": "Shivamogga, Shivamogga taluku, Shimoga district, Karnataka, 577200, India",
            "longitude": "75.569737",
            "latitude": "13.9311723",
            "blogLinks": [
                "https://www.tripoto.com/trip/popular-places-to-see-in-karnataka-57b7e9c84299c"
            ],
            "locType": "city"
        },
        "hasan": {
            "closest_to": "shimoga",
            "address": "Hassan, Hasana taluk, Hassan district, Karnataka, 573201, India",
            "longitude": "76.0992703",
            "latitude": "13.0070817",
            "blogLinks": [
                "http://www.mapsofindia.com/karnataka/tourism/"
            ],
            "locType": "town"
        },
        "hosanagar": {
            "closest_to": "shimoga",
            "address": "Hosanagar Santhe Market, Nehru Road, Kaluru, Hosanagara taluk, Shimoga district, Karnataka, 577418, India",
            "longitude": "75.0631116",
            "latitude": "13.9166601",
            "blogLinks": [
                "https://en.wikipedia.org/wiki/Sagara,_Karnataka"
            ],
            "locType": "marketplace"
        },
        "dandeli": {
            "closest_to": "hubli",
            "address": "Dandeli, Haliyala taluku, Uttara Kannada, Karnataka, 581325, India",
            "longitude": "74.6236037",
            "latitude": "15.2490284",
            "blogLinks": [
                "http://www.team-bhp.com/forum/route-travel-queries/47758-bangalore-sirsi-dandeli-hubli.html"
            ],
            "locType": "town"
        },
        "sharavati river": {
            "closest_to": "shimoga",
            "address": "Sharavati, Sagara taluk, Shimoga district, Karnataka, India",
            "longitude": "74.7647294",
            "latitude": "14.2360979",
            "blogLinks": [
                "https://en.wikipedia.org/wiki/Sagara,_Karnataka"
            ],
            "locType": "river"
        },
        "marikamba temple": {
            "closest_to": "shimoga",
            "address": "Marikamba Temple, NH766C;SH26, Halkal, \u0c95\u0cc1\u0c82\u0ca6\u0cbe\u0caa\u0cc1\u0cb0 \u0ca4\u0cbe\u0cb2\u0cc2\u0c95\u0cc1, Udupi district, Karnataka, 576220, India",
            "longitude": "74.8103631279317",
            "latitude": "13.8626958",
            "blogLinks": [
                "https://en.wikipedia.org/wiki/Sagara,_Karnataka"
            ],
            "locType": "place_of_worship"
        },
        "gokarna": {
            "closest_to": "shimoga",
            "address": "Gokarna, Kumata taluk, Uttara Kannada, Karnataka, 581326, India",
            "longitude": "74.3184418",
            "latitude": "14.5439629",
            "blogLinks": [
                "http://www.mapsofindia.com/karnataka/tourism/",
                "http://www.holidayiq.com/Shimoga-Sightseeing-748.html"
            ],
            "locType": "town"
        },
        "soraba": {
            "closest_to": "shimoga",
            "address": "Soraba, Soraba taluk, Shimoga district, Karnataka, 577429, India",
            "longitude": "75.0921749",
            "latitude": "14.3794806",
            "blogLinks": [
                "https://en.wikipedia.org/wiki/Sagara,_Karnataka"
            ],
            "locType": "village"
        },
        "india": {
            "closest_to": "shimoga",
            "address": "Karnataka, India",
            "longitude": "75.7223521",
            "latitude": "14.5203896",
            "blogLinks": [
                "http://www.holidayiq.com/Shimoga-Sightseeing-748.html",
                "http://www.distancecalculator.net/from-hubli-to-shimoga",
                "http://wikitravel.org/en/Hubli",
                "http://www.nivalink.com/destination/shimoga",
                "http://www.karnatakatourism.org/",
                "https://en.wikipedia.org/wiki/Sirsi,_Karnataka",
                "https://www.tripoto.com/trip/bangalore-to-jog-falls-karnataka",
                "http://distancecalculator.globefeed.com/India_Distance_Calculator.asp?state=19",
                "https://en.wikipedia.org/wiki/Sagara,_Karnataka",
                "http://www.mapsofindia.com/karnataka/tourism/",
                "https://www.tripoto.com/trip/popular-places-to-see-in-karnataka-57b7e9c84299c"
            ],
            "locType": "administrative"
        },
        "sharavati": {
            "closest_to": "shimoga",
            "address": "Sharavati, Sagara taluk, Shimoga district, Karnataka, India",
            "longitude": "74.7647294",
            "latitude": "14.2360979",
            "blogLinks": [
                "https://en.wikipedia.org/wiki/Sagara,_Karnataka"
            ],
            "locType": "river"
        }
    },
    "hubli": {
        "place_id": "6298582",
        "osm_id": "670289984",
        "icon": "https://nominatim.openstreetmap.org/images/mapicons/poi_place_city.p.20.png",
        "osm_type": "node",
        "licence": "Data \u00a9 OpenStreetMap contributors, ODbL 1.0. http://www.openstreetmap.org/copyright",
        "display_name": "Hubballi - \u0cb9\u0cc1\u0cac\u0ccd\u0cac\u0cb3\u0ccd\u0cb3\u0cbf, Hubballi taluku, Dharwad district, Karnataka, 580020, India",
        "type": "city",
        "lon": "75.1379848",
        "boundingbox": [
            "15.1918378",
            "15.5118378",
            "74.9779848",
            "75.2979848"
        ],
        "importance": 0.45,
        "lat": "15.3518378",
        "class": "place"
    }
}