{
    "mangalore": {
        "place_id": "637002",
        "osm_id": "245612641",
        "icon": "https://nominatim.openstreetmap.org/images/mapicons/poi_place_city.p.20.png",
        "osm_type": "node",
        "licence": "Data \u00a9 OpenStreetMap contributors, ODbL 1.0. http://www.openstreetmap.org/copyright",
        "display_name": "Mangaluru, Mangaluru taluk, Dakshina Kannada, Karnataka, 575001, India",
        "type": "city",
        "lon": "74.8430082",
        "boundingbox": [
            "12.7098101",
            "13.0298101",
            "74.6830082",
            "75.0030082"
        ],
        "importance": 0.45,
        "lat": "12.8698101",
        "class": "place"
    },
    "mentions": {
        "coastal karnataka": {
            "closest_to": "mangalore",
            "address": "Bharat Petroleum Mangalore Coastal Installation, Baikampady, Mangaluru taluk, Dakshina Kannada, Karnataka, 575014, India",
            "longitude": "74.8137275833157",
            "latitude": "12.96014675",
            "blogLinks": [
                "http://www.nivalink.com/destination/murudeshwar"
            ],
            "locType": "industrial"
        },
        "belgaum": {
            "closest_to": "hubli",
            "address": "Belgaum, Belgaum district, Karnataka, India",
            "longitude": "74.75",
            "latitude": "16.333333",
            "blogLinks": [
                "https://www.tripadvisor.in/ShowTopic-g293860-i511-k7430452-Weekend_getaways_between_Mumbai_and_Bangalore-India.html"
            ],
            "locType": "county"
        },
        "giriyas": {
            "closest_to": "mangalore",
            "address": "Giriyas Electronics, Karnad Sadashiva Rao Road, Dongerkeri, Attavar, Mangaluru, Mangaluru taluk, Dakshina Kannada, Karnataka, 575001, India",
            "longitude": "74.8422606",
            "latitude": "12.8694149",
            "blogLinks": [
                "http://wikitravel.org/en/Hubli"
            ],
            "locType": "supermarket"
        },
        "domestic airport": {
            "closest_to": "mangalore",
            "address": "Mangalore Airport Old Terminal - Departure Domestic; Arrival and Departure International, SH67, Gandhinagar, Kenjar, Mangaluru taluk, Dakshina Kannada, Karnataka, 575015, India",
            "longitude": "74.8901343659439",
            "latitude": "12.96316115",
            "blogLinks": [
                "http://www.travelhaathi.com/hampi-travel-guide/"
            ],
            "locType": "terminal"
        },
        "dharwad": {
            "closest_to": "hubli",
            "address": "Dharwad, Dharawada taluku, Dharwad district, Karnataka, 580001, India",
            "longitude": "75.0066516",
            "latitude": "15.4540505",
            "blogLinks": [
                "https://en.wikipedia.org/wiki/Sirsi,_Karnataka"
            ],
            "locType": "city"
        },
        "south-west": {
            "closest_to": "mangalore",
            "address": "Karnataka, India",
            "longitude": "75.7223521",
            "latitude": "14.5203896",
            "blogLinks": [
                "http://wildplanetresort.com/blog/2016/03/top-11-places-to-visit-in-karnataka/"
            ],
            "locType": "administrative"
        },
        "bijapur": {
            "closest_to": "hubli",
            "address": "Vijayapura, Vijayapura taluk, Bijapur district, Karnataka, 586101, India",
            "longitude": "75.7175387",
            "latitude": "16.8269911",
            "blogLinks": [
                "http://wikitravel.org/en/Hubli"
            ],
            "locType": "city"
        },
        "kalaseshwara temple": {
            "closest_to": "mangalore",
            "address": "Kalaseshwara Temple, SH66, Kalasa, Mudigere taluk, Chikkamagaluru district, Karnataka, 577124, India",
            "longitude": "75.363446975",
            "latitude": "13.23228505",
            "blogLinks": [
                "http://www.nivalink.com/destination/murudeshwar",
                "http://www.nivalink.com/destination/sringeri"
            ],
            "locType": "place_of_worship"
        },
        "uttara kannada": {
            "closest_to": "mangalore",
            "address": "Uttara Kannada, Karnataka, India",
            "longitude": "74.4729163045979",
            "latitude": "14.6726379",
            "blogLinks": [
                "https://en.wikipedia.org/wiki/Sirsi,_Karnataka",
                "http://www.mapsofindia.com/mangalore/travel/tourism.html"
            ],
            "locType": "administrative"
        },
        "nethravathi river": {
            "closest_to": "mangalore",
            "address": "Nethravathi Bridge, Gujjar Kere, Bolar, Mangaluru, Mangaluru taluk, Dakshina Kannada, Karnataka, 575001, India",
            "longitude": "74.8603633",
            "latitude": "12.8308056",
            "blogLinks": [
                "http://www.mapsofindia.com/mangalore/travel/tourism.html"
            ],
            "locType": "trunk"
        },
        "unkal hill": {
            "closest_to": "hubli",
            "address": "Unakal, Hubballi - \u0cb9\u0cc1\u0cac\u0ccd\u0cac\u0cb3\u0ccd\u0cb3\u0cbf, Hubballi taluku, Dharwad district, Karnataka, 580020, India",
            "longitude": "75.1152303",
            "latitude": "15.379556",
            "blogLinks": [
                "http://www.indiacitytrip.com/Karnataka-Destinations/hubli-tour.aspx"
            ],
            "locType": "suburb"
        },
        "p.b rd": {
            "closest_to": "mangalore",
            "address": "Pune Bangalore Road, Chanakya Puri, Old Hubli, Hubballi - \u0cb9\u0cc1\u0cac\u0ccd\u0cac\u0cb3\u0ccd\u0cb3\u0cbf, Hubballi taluku, Dharwad district, Karnataka, 580020, India",
            "longitude": "75.1368445",
            "latitude": "15.3416245",
            "blogLinks": [
                "http://wikitravel.org/en/Hubli"
            ],
            "locType": "primary"
        },
        "tunga": {
            "closest_to": "mangalore",
            "address": "Tunga, Tirthahalli taluk, Shimoga district, Karnataka, India",
            "longitude": "75.3221835",
            "latitude": "13.6632221",
            "blogLinks": [
                "https://www.tripadvisor.in/ShowTopic-g293860-i511-k7430452-Weekend_getaways_between_Mumbai_and_Bangalore-India.html"
            ],
            "locType": "river"
        },
        "tumkur": {
            "closest_to": "mangalore",
            "address": "Tumakuru, Tumkur district, Karnataka, India",
            "longitude": "77.0002445",
            "latitude": "13.4999406",
            "blogLinks": [
                "https://www.tripadvisor.in/ShowTopic-g293860-i511-k7430452-Weekend_getaways_between_Mumbai_and_Bangalore-India.html"
            ],
            "locType": "county"
        },
        "shankaracharya": {
            "closest_to": "hubli",
            "address": "Jagadguru Shankaracharya Math, NH48, Bhimnagar, Sankeshwara, Hukkeri taluku, Belgaum district, Karnataka, 591313, India",
            "longitude": "74.47864105",
            "latitude": "16.25114055",
            "blogLinks": [
                "https://www.tripadvisor.in/ShowTopic-g293860-i511-k7430452-Weekend_getaways_between_Mumbai_and_Bangalore-India.html"
            ],
            "locType": "place_of_worship"
        },
        "pattadakal": {
            "closest_to": "hubli",
            "address": "Pattadakal Temples, SH14, \u0cac\u0cbe\u0c9a\u0cbf\u0ca8\u0c97\u0cc1\u0ca1\u0ccd\u0ca1, Badami taluku, Bagalkote district, Karnataka, 587211, India",
            "longitude": "75.815884048161",
            "latitude": "15.9506349",
            "blogLinks": [
                "http://www.mapsofindia.com/karnataka/tourism/"
            ],
            "locType": "attraction"
        },
        "kalghatgi": {
            "closest_to": "mangalore",
            "address": "Kalghatgi Road, Hindasageri, Kalaghatagi taluku, Dharwad district, Karnataka, 581204, India",
            "longitude": "75.0064745",
            "latitude": "15.1756059",
            "blogLinks": [
                "http://wikitravel.org/en/Hubli"
            ],
            "locType": "primary"
        },
        "vijaya karnataka": {
            "closest_to": "mangalore",
            "address": "Vijaya Karnataka, 1st Cross Road, Chamarajapuram, Mysuru, Mysuru taluk, Mysuru district, Karnataka, 570001, India",
            "longitude": "76.6418941",
            "latitude": "12.2982365",
            "blogLinks": [
                "https://en.wikipedia.org/wiki/Sirsi,_Karnataka"
            ],
            "locType": "newspaper"
        },
        "hampi": {
            "closest_to": "hubli",
            "address": "Hampe, Hosapete taluk, Bellary district, Karnataka, 583239, India",
            "longitude": "76.4606199",
            "latitude": "15.3359769",
            "blogLinks": [
                "http://www.travelhaathi.com/hampi-travel-guide/",
                "http://www.mapsofindia.com/karnataka/tourism/",
                "http://wikitravel.org/en/Hubli"
            ],
            "locType": "village"
        },
        "hazara rama temple": {
            "closest_to": "hubli",
            "address": "Hazara Rama Temple, Hampi Kamalapura Road, Kamalapura, Hosapete taluk, Bellary district, Karnataka, 583221, India",
            "longitude": "76.4687794",
            "latitude": "15.3178218",
            "blogLinks": [
                "https://en.wikipedia.org/wiki/Sirsi,_Karnataka"
            ],
            "locType": "place_of_worship"
        },
        "hubli-dharwad road": {
            "closest_to": "hubli",
            "address": "Hubli Dharwad Road, Gandhinagar, Navalur, Dharawada taluku, Dharwad district, Karnataka, 580002, India",
            "longitude": "75.0366396",
            "latitude": "15.4231154",
            "blogLinks": [
                "http://wikitravel.org/en/Hubli"
            ],
            "locType": "primary"
        },
        "river tungabhadra": {
            "closest_to": "hubli",
            "address": "Tungabhadra, Gangavati taluku, Koppal district, Karnataka, India",
            "longitude": "76.4931607",
            "latitude": "15.3446123",
            "blogLinks": [
                "http://wildplanetresort.com/blog/2016/03/top-11-places-to-visit-in-karnataka/"
            ],
            "locType": "river"
        },
        "kundapura": {
            "closest_to": "mangalore",
            "address": "Kundapura, \u0c95\u0cc1\u0c82\u0ca6\u0cbe\u0caa\u0cc1\u0cb0 \u0ca4\u0cbe\u0cb2\u0cc2\u0c95\u0cc1, Udupi district, Karnataka, 576200, India",
            "longitude": "74.6915722",
            "latitude": "13.6250993",
            "blogLinks": [
                "http://www.nivalink.com/destination/murudeshwar",
                "http://www.nivalink.com/destination/sringeri"
            ],
            "locType": "town"
        },
        "mangalore railway": {
            "closest_to": "mangalore",
            "address": "Mangalore Central, Railway Station Road, Pandeshwar, Attavar, Mangaluru, Mangaluru taluk, Dakshina Kannada, Karnataka, 575001, India",
            "longitude": "74.8432387",
            "latitude": "12.8634037",
            "blogLinks": [
                "https://rameshjs.wordpress.com/2009/02/09/visit-to-kukke-dharmasthala-sringeri-temples/"
            ],
            "locType": "station"
        },
        "sahyadri": {
            "closest_to": "mangalore",
            "address": "Sahyadri Polytechnic, SH1, Seebinakere, Sankadahole, Tirthahalli taluk, Shimoga district, Karnataka, 577432, India",
            "longitude": "75.2317987800043",
            "latitude": "13.6983273",
            "blogLinks": [
                "https://en.wikipedia.org/wiki/Sirsi,_Karnataka"
            ],
            "locType": "school"
        },
        "mangalore": {
            "closest_to": "mangalore",
            "address": "Mangaluru, Mangaluru taluk, Dakshina Kannada, Karnataka, 575001, India",
            "longitude": "74.8430082",
            "latitude": "12.8698101",
            "blogLinks": [
                "https://www.quora.com/What-are-the-best-places-to-visit-in-between-Mangalore-to-Goa-on-a-road-trip",
                "http://www.holidayiq.com/How-To-Reach/From-Hubli-To-Coorg-653-339",
                "https://www.distancecalculator.net/from-hubli-to-mangalore",
                "http://wildplanetresort.com/blog/2016/03/top-11-places-to-visit-in-karnataka/",
                "https://rameshjs.wordpress.com/2009/02/09/visit-to-kukke-dharmasthala-sringeri-temples/",
                "http://wikitravel.org/en/Hubli",
                "http://www.nivalink.com/destination/murudeshwar",
                "http://www.mapsofindia.com/mangalore/travel/tourism.html",
                "https://en.wikipedia.org/wiki/Sirsi,_Karnataka",
                "https://www.tripoto.com/trip/bangalore-to-jog-falls-karnataka",
                "http://wikitravel.org/en/Kumta",
                "http://www.travelhaathi.com/hampi-travel-guide/",
                "http://www.prokerala.com/travel/distance/from-hubli/to-mangalore/",
                "http://www.mapsofindia.com/karnataka/tourism/"
            ],
            "locType": "city"
        },
        "gokak falls": {
            "closest_to": "hubli",
            "address": "Gokak Falls, Gokak taluku, Belgaum district, Karnataka, India",
            "longitude": "74.7775947",
            "latitude": "16.1918383",
            "blogLinks": [
                "http://wikitravel.org/en/Hubli"
            ],
            "locType": "waterfall"
        },
        "bandipur": {
            "closest_to": "mangalore",
            "address": "Bandipur, Gundlupet taluk, Chamarajanagar district, Karnataka, India",
            "longitude": "76.6285739",
            "latitude": "11.6662708",
            "blogLinks": [
                "http://wildplanetresort.com/blog/2016/03/top-11-places-to-visit-in-karnataka/"
            ],
            "locType": "village"
        },
        "sahasralinga": {
            "closest_to": "mangalore",
            "address": "Sahasralinga, Shirasi taluk, Uttara Kannada, Karnataka, India",
            "longitude": "74.8077293",
            "latitude": "14.7197633",
            "blogLinks": [
                "https://www.quora.com/What-are-the-best-places-to-visit-in-between-Mangalore-to-Goa-on-a-road-trip"
            ],
            "locType": "hamlet"
        },
        "vidhyanagar": {
            "closest_to": "mangalore",
            "address": "Vidhyanagar Road, Nituvalli, Davanagere, Davanagere taluku, Davanagere district, Karnataka, 577000, India",
            "longitude": "75.9176086",
            "latitude": "14.4416416",
            "blogLinks": [
                "http://wikitravel.org/en/Hubli"
            ],
            "locType": "tertiary"
        },
        "unchalli falls": {
            "closest_to": "mangalore",
            "address": "\u0c89\u0c82\u0c9a\u0cb3\u0ccd\u0cb3\u0cbf \u0c9c\u0cb2\u0caa\u0cbe\u0ca4, Siddapura taluk, Uttara Kannada, Karnataka, India",
            "longitude": "74.7477592",
            "latitude": "14.4097755",
            "blogLinks": [
                "https://www.quora.com/What-are-the-best-places-to-visit-in-between-Mangalore-to-Goa-on-a-road-trip",
                "https://en.wikipedia.org/wiki/Sirsi,_Karnataka"
            ],
            "locType": "waterfall"
        },
        "kannur": {
            "closest_to": "mangalore",
            "address": "Netravati bridge - Kannur Bypass Road (Proposed), Padil, Bajal, Mangaluru taluk, Dakshina Kannada, Karnataka, 575007, India",
            "longitude": "74.8858161",
            "latitude": "12.8487602",
            "blogLinks": [
                "http://www.nivalink.com/destination/murudeshwar",
                "http://www.nivalink.com/destination/sringeri"
            ],
            "locType": "construction"
        },
        "india goa": {
            "closest_to": "hubli",
            "address": "Karnataka bank, NH66, Aquem, Fatorda, Margao, South Goa, Goa, 403600, India",
            "longitude": "73.9583411",
            "latitude": "15.2740083",
            "blogLinks": [
                "https://www.quora.com/What-are-the-best-places-to-visit-in-between-Mangalore-to-Goa-on-a-road-trip"
            ],
            "locType": "bank"
        },
        "bajpe airport": {
            "closest_to": "mangalore",
            "address": "Mangalore International Airport, Airport Entry Road, Gandhinagar, Kenjar, Mangaluru taluk, Dakshina Kannada, Karnataka, 575015, India",
            "longitude": "74.887492668144",
            "latitude": "12.95518575",
            "blogLinks": [
                "http://wikitravel.org/en/Kumta"
            ],
            "locType": "aerodrome"
        },
        "hoysaleswara temple": {
            "closest_to": "mangalore",
            "address": "Hoysaleswara Temple, SH21, Halebidu, Beluru taluk, Hassan district, Karnataka, 573121, India",
            "longitude": "75.9941649",
            "latitude": "13.2127193",
            "blogLinks": [
                "http://www.mapsofindia.com/karnataka/tourism/"
            ],
            "locType": "place_of_worship"
        },
        "banavasi": {
            "closest_to": "mangalore",
            "address": "Banavasi, Shirasi taluk, Uttara Kannada, Karnataka, India",
            "longitude": "75.0129845",
            "latitude": "14.5389738",
            "blogLinks": [
                "https://en.wikipedia.org/wiki/Sirsi,_Karnataka",
                "http://wikitravel.org/en/Hubli"
            ],
            "locType": "town"
        },
        "daivajna": {
            "closest_to": "mangalore",
            "address": "Daivajna Bhavana, New Kantharaje Urs Road, Sarasvatipuram, Mysuru, Mysuru taluk, Mysuru district, Karnataka, 570023, India",
            "longitude": "76.6252066983597",
            "latitude": "12.2958536",
            "blogLinks": [
                "https://en.wikipedia.org/wiki/Sirsi,_Karnataka"
            ],
            "locType": "community_centre"
        },
        "bagewadi": {
            "closest_to": "hubli",
            "address": "Bagewadi, Hukkeri taluku, Belgaum district, Karnataka, 591305, India",
            "longitude": "74.721498",
            "latitude": "16.300076",
            "blogLinks": [
                "http://wikitravel.org/en/Hubli"
            ],
            "locType": "village"
        },
        "airport road": {
            "closest_to": "hubli",
            "address": "Airport Road, Ballari, Bellary taluk, Bellary district, Karnataka, 583104, India",
            "longitude": "76.8995671",
            "latitude": "15.1581615",
            "blogLinks": [
                "http://wikitravel.org/en/Hubli"
            ],
            "locType": "secondary"
        },
        "kannada": {
            "closest_to": "mangalore",
            "address": "Dakshina Kannada, Karnataka, India",
            "longitude": "75.1008028650794",
            "latitude": "12.8114089",
            "blogLinks": [
                "http://wildplanetresort.com/blog/2016/03/top-11-places-to-visit-in-karnataka/"
            ],
            "locType": "administrative"
        },
        "kittur": {
            "closest_to": "hubli",
            "address": "Kitturu, Bailahongala taluku, Belgaum district, Karnataka, 591115, India",
            "longitude": "74.7876971",
            "latitude": "15.5957166",
            "blogLinks": [
                "http://wikitravel.org/en/Hubli"
            ],
            "locType": "town"
        },
        "haveri": {
            "closest_to": "mangalore",
            "address": "Haveri, Haveri taluku, Haveri district, Karnataka, 581110, India",
            "longitude": "75.3996731",
            "latitude": "14.7874825",
            "blogLinks": [
                "https://en.wikipedia.org/wiki/Sirsi,_Karnataka"
            ],
            "locType": "town"
        },
        "castle rock": {
            "closest_to": "hubli",
            "address": "Castle Rock, Joida taluk, Uttara Kannada, Karnataka, India",
            "longitude": "74.3347387",
            "latitude": "15.3942582",
            "blogLinks": [
                "https://www.quora.com/What-are-the-best-places-to-visit-in-between-Mangalore-to-Goa-on-a-road-trip"
            ],
            "locType": "village"
        },
        "' island": {
            "closest_to": "mangalore",
            "address": "Isa, Shirasi taluk, Uttara Kannada, Karnataka, India",
            "longitude": "74.8834637",
            "latitude": "14.6799543",
            "blogLinks": [
                "http://www.nivalink.com/destination/murudeshwar"
            ],
            "locType": "village"
        },
        "coorg": {
            "closest_to": "mangalore",
            "address": "Madikeri, Madikeri taluku, Kodagu, Karnataka, India",
            "longitude": "75.740031",
            "latitude": "12.4204003",
            "blogLinks": [
                "http://www.holidayiq.com/How-To-Reach/From-Hubli-To-Coorg-653-339"
            ],
            "locType": "town"
        },
        "urdu": {
            "closest_to": "mangalore",
            "address": "Urdu Ground, Ranebennur, Ranebennuru taluk, Haveri district, Karnataka, 581115, India",
            "longitude": "75.636575371858",
            "latitude": "14.6180369",
            "blogLinks": [
                "https://en.wikipedia.org/wiki/Sirsi,_Karnataka"
            ],
            "locType": "recreation_ground"
        },
        "harsha": {
            "closest_to": "hubli",
            "address": "Harsha Ladies Corner, Hutti Main Road, Hutti Camp, Hatti, Lingasuguru taluku, Raichur district, Karnataka, 584115, India",
            "longitude": "76.661213",
            "latitude": "16.1927088",
            "blogLinks": [
                "http://wikitravel.org/en/Hubli"
            ],
            "locType": "variety_store"
        },
        "bidadi": {
            "closest_to": "mangalore",
            "address": "Bidadi, Ramanagara taluk, Ramanagara district, Karnataka, India",
            "longitude": "77.3869947",
            "latitude": "12.7988507",
            "blogLinks": [
                "http://www.holidayiq.com/How-To-Reach/From-Hubli-To-Coorg-653-339"
            ],
            "locType": "town"
        },
        "hemakuta hill": {
            "closest_to": "hubli",
            "address": "Hemakuta Hill, Hosapete taluk, Bellary district, Karnataka, India",
            "longitude": "76.4602971",
            "latitude": "15.332915",
            "blogLinks": [
                "http://www.travelhaathi.com/hampi-travel-guide/"
            ],
            "locType": "peak"
        },
        "marikamba": {
            "closest_to": "mangalore",
            "address": "Marikamba Temple, NH766C;SH26, Halkal, \u0c95\u0cc1\u0c82\u0ca6\u0cbe\u0caa\u0cc1\u0cb0 \u0ca4\u0cbe\u0cb2\u0cc2\u0c95\u0cc1, Udupi district, Karnataka, 576220, India",
            "longitude": "74.8103631279317",
            "latitude": "13.8626958",
            "blogLinks": [
                "https://en.wikipedia.org/wiki/Sirsi,_Karnataka"
            ],
            "locType": "place_of_worship"
        },
        "jog falls": {
            "closest_to": "mangalore",
            "address": "Jog Falls, Joga - Kargal, Sagara taluk, Shimoga district, Karnataka, India",
            "longitude": "74.8128715",
            "latitude": "14.2276106",
            "blogLinks": [
                "http://wikitravel.org/en/Hubli"
            ],
            "locType": "locality"
        },
        "halebid": {
            "closest_to": "mangalore",
            "address": "Halebidu, Beluru taluk, Hassan district, Karnataka, 573121, India",
            "longitude": "75.9918793",
            "latitude": "13.2167959",
            "blogLinks": [
                "http://www.mapsofindia.com/karnataka/tourism/"
            ],
            "locType": "village"
        },
        "udupi": {
            "closest_to": "mangalore",
            "address": "Udupi, Udupi taluku, Udupi district, Karnataka, 576101, India",
            "longitude": "74.7473232",
            "latitude": "13.3419169",
            "blogLinks": [
                "https://en.wikipedia.org/wiki/Sirsi,_Karnataka",
                "http://www.mapsofindia.com/karnataka/tourism/"
            ],
            "locType": "city"
        },
        "hubli airport": {
            "closest_to": "hubli",
            "address": "Hubli Airport, \u0c97\u0ccb\u0c95\u0cc1\u0cb2 \u0cb0\u0ccb\u0ca1\u0ccd, Padmaraj Nagar, Gokul, Hubballi taluku, Dharwad district, Karnataka, 580030, India",
            "longitude": "75.0860974",
            "latitude": "15.3598315",
            "blogLinks": [
                "http://www.travelhaathi.com/hampi-travel-guide/"
            ],
            "locType": "aerodrome"
        },
        "p.b road": {
            "closest_to": "mangalore",
            "address": "Pune Bangalore Road, Chanakya Puri, Old Hubli, Hubballi - \u0cb9\u0cc1\u0cac\u0ccd\u0cac\u0cb3\u0ccd\u0cb3\u0cbf, Hubballi taluku, Dharwad district, Karnataka, 580020, India",
            "longitude": "75.1368445",
            "latitude": "15.3416245",
            "blogLinks": [
                "http://wikitravel.org/en/Hubli"
            ],
            "locType": "primary"
        },
        "cochin": {
            "closest_to": "mangalore",
            "address": "Cochin Bakery, Old Kent Road, Pandeshwar, Attavar, Mangaluru, Mangaluru taluk, Dakshina Kannada, Karnataka, 575001, India",
            "longitude": "74.8390919",
            "latitude": "12.8604752",
            "blogLinks": [
                "http://wikitravel.org/en/Kumta"
            ],
            "locType": "confectionery"
        },
        "netrani island": {
            "closest_to": "mangalore",
            "address": "Netrani, Uttara Kannada, Karnataka, India",
            "longitude": "74.3272086675849",
            "latitude": "14.0174924",
            "blogLinks": [
                "http://www.nivalink.com/destination/murudeshwar"
            ],
            "locType": "island"
        },
        "hospet junction": {
            "closest_to": "hubli",
            "address": "Hospet Junction, Station Road, Basavanada, Hosapete taluk, Bellary district, Karnataka, 583201, India",
            "longitude": "76.3869935",
            "latitude": "15.2865104",
            "blogLinks": [
                "http://www.travelhaathi.com/hampi-travel-guide/"
            ],
            "locType": "station"
        },
        "mandya": {
            "closest_to": "mangalore",
            "address": "Mandya, Mandya taluk, Mandya district, Karnataka, 571401, India",
            "longitude": "76.8937392",
            "latitude": "12.5217836",
            "blogLinks": [
                "http://www.holidayiq.com/How-To-Reach/From-Hubli-To-Coorg-653-339"
            ],
            "locType": "town"
        },
        "aihole": {
            "closest_to": "hubli",
            "address": "Aihole, Hunagunda taluku, Bagalkote district, Karnataka, India",
            "longitude": "75.8819129",
            "latitude": "16.0192298",
            "blogLinks": [
                "http://wikitravel.org/en/Hubli"
            ],
            "locType": "village"
        },
        "kundapur": {
            "closest_to": "mangalore",
            "address": "United Basel mission church Higher Primary School, Kundapur, Chikkansal Road, Vaderahobali, Kundapura, \u0c95\u0cc1\u0c82\u0ca6\u0cbe\u0caa\u0cc1\u0cb0 \u0ca4\u0cbe\u0cb2\u0cc2\u0c95\u0cc1, Udupi district, Karnataka, 576200, India",
            "longitude": "74.6906749",
            "latitude": "13.6343509",
            "blogLinks": [
                "https://www.quora.com/What-are-the-best-places-to-visit-in-between-Mangalore-to-Goa-on-a-road-trip"
            ],
            "locType": "school"
        },
        "dharmasthala": {
            "closest_to": "mangalore",
            "address": "Dharmasthala, Beltangadi taluk, Dakshina Kannada, Karnataka, 574216, India",
            "longitude": "75.3813122",
            "latitude": "12.9519571",
            "blogLinks": [
                "https://rameshjs.wordpress.com/2009/02/09/visit-to-kukke-dharmasthala-sringeri-temples/"
            ],
            "locType": "village"
        },
        "lakkundi": {
            "closest_to": "hubli",
            "address": "Lakkundi, Muddebihala taluku, Bijapur district, Karnataka, India",
            "longitude": "76.4084687",
            "latitude": "16.5255464",
            "blogLinks": [
                "http://wikitravel.org/en/Hubli"
            ],
            "locType": "village"
        },
        "west of hubli": {
            "closest_to": "mangalore",
            "address": "Hubballi - \u0cb9\u0cc1\u0cac\u0ccd\u0cac\u0cb3\u0ccd\u0cb3\u0cbf, Hubballi taluku, Dharwad district, Karnataka, 580020, India",
            "longitude": "75.1379848",
            "latitude": "15.3518378",
            "blogLinks": [
                "http://www.travelhaathi.com/hampi-travel-guide/"
            ],
            "locType": "city"
        },
        "shringeri": {
            "closest_to": "mangalore",
            "address": "Shringeri, Hanagal taluk, Haveri district, Karnataka, India",
            "longitude": "75.0621168",
            "latitude": "14.7221214",
            "blogLinks": [
                "https://rameshjs.wordpress.com/2009/02/09/visit-to-kukke-dharmasthala-sringeri-temples/",
                "http://www.nivalink.com/destination/sringeri"
            ],
            "locType": "village"
        },
        "hubli road": {
            "closest_to": "hubli",
            "address": "Hubli Road, Betageri, Gadag, Gadag taluk, Gadag district, Karnataka, 582102, India",
            "longitude": "75.6212485",
            "latitude": "15.4223718",
            "blogLinks": [
                "https://en.wikipedia.org/wiki/Sirsi,_Karnataka"
            ],
            "locType": "trunk"
        },
        "malnad": {
            "closest_to": "mangalore",
            "address": "Malnad Hospital, Mudigere-Kadur Road, Chikkamagaluru, Chikkamagaluru taluku, Chikkamagaluru district, Karnataka, 577101, India",
            "longitude": "75.7715495",
            "latitude": "13.3160351",
            "blogLinks": [
                "https://www.tripadvisor.in/ShowTopic-g293860-i511-k7430452-Weekend_getaways_between_Mumbai_and_Bangalore-India.html"
            ],
            "locType": "hospital"
        },
        "om beach": {
            "closest_to": "mangalore",
            "address": "Om Beach, Om beach road, Gokarna, Kumata taluk, Uttara Kannada, Karnataka, 581326, India",
            "longitude": "74.3254331800289",
            "latitude": "14.5190376",
            "blogLinks": [
                "https://www.quora.com/What-are-the-best-places-to-visit-in-between-Mangalore-to-Goa-on-a-road-trip",
                "https://www.tripoto.com/trip/bangalore-to-jog-falls-karnataka"
            ],
            "locType": "beach"
        },
        "chennakesava temple": {
            "closest_to": "mangalore",
            "address": "Chennakesava Temple, NH73, Navilahalli, Beluru taluk, Hassan district, Karnataka, India",
            "longitude": "75.8603311",
            "latitude": "13.1629239",
            "blogLinks": [
                "http://www.mapsofindia.com/karnataka/tourism/"
            ],
            "locType": "place_of_worship"
        },
        "badami of karnataka": {
            "closest_to": "hubli",
            "address": "Badami taluku, Bagalkote district, Karnataka, India",
            "longitude": "75.6419100722642",
            "latitude": "15.98301895",
            "blogLinks": [
                "http://www.mapsofindia.com/karnataka/tourism/"
            ],
            "locType": "administrative"
        },
        "kumta": {
            "closest_to": "mangalore",
            "address": "Kumta, Kumata taluk, Uttara Kannada, Karnataka, India",
            "longitude": "74.4107617",
            "latitude": "14.4261647",
            "blogLinks": [
                "https://en.wikipedia.org/wiki/Sirsi,_Karnataka",
                "http://www.nivalink.com/destination/sringeri"
            ],
            "locType": "town"
        },
        "hubli": {
            "closest_to": "mangalore",
            "address": "Hubballi - \u0cb9\u0cc1\u0cac\u0ccd\u0cac\u0cb3\u0ccd\u0cb3\u0cbf, Hubballi taluku, Dharwad district, Karnataka, 580020, India",
            "longitude": "75.1379848",
            "latitude": "15.3518378",
            "blogLinks": [
                "http://www.holidayiq.com/How-To-Reach/From-Hubli-To-Coorg-653-339",
                "http://www.nivalink.com/destination/sringeri",
                "https://www.distancecalculator.net/from-hubli-to-mangalore",
                "http://wildplanetresort.com/blog/2016/03/top-11-places-to-visit-in-karnataka/",
                "https://rameshjs.wordpress.com/2009/02/09/visit-to-kukke-dharmasthala-sringeri-temples/",
                "http://wikitravel.org/en/Hubli",
                "http://www.nivalink.com/destination/murudeshwar",
                "https://en.wikipedia.org/wiki/Sirsi,_Karnataka",
                "https://www.tripoto.com/trip/bangalore-to-jog-falls-karnataka",
                "http://wikitravel.org/en/Kumta",
                "https://www.tripadvisor.in/ShowTopic-g293860-i511-k7430452-Weekend_getaways_between_Mumbai_and_Bangalore-India.html",
                "http://www.travelhaathi.com/hampi-travel-guide/",
                "http://www.prokerala.com/travel/distance/from-hubli/to-mangalore/",
                "http://www.indiacitytrip.com/Karnataka-Destinations/hubli-tour.aspx"
            ],
            "locType": "city"
        },
        "gokarn": {
            "closest_to": "mangalore",
            "address": "Gokarna, Kumata taluk, Uttara Kannada, Karnataka, 581326, India",
            "longitude": "74.3184418",
            "latitude": "14.5439629",
            "blogLinks": [
                "http://wikitravel.org/en/Hubli"
            ],
            "locType": "town"
        },
        "bellary": {
            "closest_to": "hubli",
            "address": "Bellary, Bellary district, Karnataka, India",
            "longitude": "76.8323648",
            "latitude": "15.2485413",
            "blogLinks": [
                "http://www.travelhaathi.com/hampi-travel-guide/"
            ],
            "locType": "county"
        },
        "belur": {
            "closest_to": "mangalore",
            "address": "Belur, Beluru taluk, Hassan district, Karnataka, 573115, India",
            "longitude": "75.8634851",
            "latitude": "13.1645671",
            "blogLinks": [
                "http://www.mapsofindia.com/karnataka/tourism/"
            ],
            "locType": "town"
        },
        "karnataka": {
            "closest_to": "mangalore",
            "address": "Karnataka, Shalivahana Road, Nazarbad, Mysuru, Mysuru taluk, Mysuru district, Karnataka, 570001, India",
            "longitude": "76.6639936",
            "latitude": "12.3084901",
            "blogLinks": [
                "https://www.quora.com/What-are-the-best-places-to-visit-in-between-Mangalore-to-Goa-on-a-road-trip",
                "http://www.nivalink.com/destination/sringeri",
                "https://rameshjs.wordpress.com/2009/02/09/visit-to-kukke-dharmasthala-sringeri-temples/",
                "http://wildplanetresort.com/blog/2016/03/top-11-places-to-visit-in-karnataka/",
                "http://www.karnatakatourism.org/",
                "http://wikitravel.org/en/Hubli",
                "http://www.mapsofindia.com/mangalore/travel/tourism.html",
                "http://www.nivalink.com/destination/murudeshwar",
                "https://en.wikipedia.org/wiki/Sirsi,_Karnataka",
                "https://www.tripoto.com/trip/bangalore-to-jog-falls-karnataka",
                "http://wikitravel.org/en/Kumta",
                "https://www.tripadvisor.in/ShowTopic-g293860-i511-k7430452-Weekend_getaways_between_Mumbai_and_Bangalore-India.html",
                "http://www.travelhaathi.com/hampi-travel-guide/",
                "http://www.prokerala.com/travel/distance/from-hubli/to-mangalore/",
                "http://www.mapsofindia.com/karnataka/tourism/",
                "http://www.indiacitytrip.com/Karnataka-Destinations/hubli-tour.aspx"
            ],
            "locType": "atm"
        },
        "karwar": {
            "closest_to": "mangalore",
            "address": "Karwar, Karavara taluk, Uttara Kannada, Karnataka, 581300, India",
            "longitude": "74.1319229",
            "latitude": "14.8120931",
            "blogLinks": [
                "https://www.quora.com/What-are-the-best-places-to-visit-in-between-Mangalore-to-Goa-on-a-road-trip",
                "https://en.wikipedia.org/wiki/Sirsi,_Karnataka",
                "http://wikitravel.org/en/Hubli"
            ],
            "locType": "town"
        },
        "chennamma circle": {
            "closest_to": "hubli",
            "address": "Rani Chennamma Circle, Cantonment, Belagavi, Belagavi taluku, Belgaum district, Karnataka, 590001, India",
            "longitude": "74.511712864861",
            "latitude": "15.86722145",
            "blogLinks": [
                "http://wikitravel.org/en/Hubli"
            ],
            "locType": "trunk"
        },
        "kodagu": {
            "closest_to": "mangalore",
            "address": "Kodagu, Karnataka, India",
            "longitude": "75.6677235950852",
            "latitude": "12.38117345",
            "blogLinks": [
                "http://wildplanetresort.com/blog/2016/03/top-11-places-to-visit-in-karnataka/",
                "http://www.mapsofindia.com/karnataka/tourism/"
            ],
            "locType": "administrative"
        },
        "kamalapur": {
            "closest_to": "hubli",
            "address": "Kamalapur Nursing Home, Station Road, Kalyana nagar, Gandhinagar, Dharwad, Dharawada taluku, Dharwad district, Karnataka, 580001, India",
            "longitude": "75.003629911571",
            "latitude": "15.4456282",
            "blogLinks": [
                "http://www.travelhaathi.com/hampi-travel-guide/"
            ],
            "locType": "yes"
        },
        "hasan": {
            "closest_to": "mangalore",
            "address": "Hassan, Hasana taluk, Hassan district, Karnataka, 573201, India",
            "longitude": "76.0992703",
            "latitude": "13.0070817",
            "blogLinks": [
                "http://www.mapsofindia.com/karnataka/tourism/"
            ],
            "locType": "town"
        },
        "mantralaya": {
            "closest_to": "hubli",
            "address": "Mantralaya Road, Raichur, Rayachuru taluku, Raichur district, Karnataka, 584100, India",
            "longitude": "77.3610338",
            "latitude": "16.1912419",
            "blogLinks": [
                "http://wikitravel.org/en/Kumta"
            ],
            "locType": "trunk"
        },
        "dandeli": {
            "closest_to": "mangalore",
            "address": "Dandeli, Haliyala taluku, Uttara Kannada, Karnataka, 581325, India",
            "longitude": "74.6236037",
            "latitude": "15.2490284",
            "blogLinks": [
                "https://www.quora.com/What-are-the-best-places-to-visit-in-between-Mangalore-to-Goa-on-a-road-trip"
            ],
            "locType": "town"
        },
        "gokul road": {
            "closest_to": "mangalore",
            "address": "Gokul, Hubballi taluku, Dharwad district, Karnataka, India",
            "longitude": "75.0813826",
            "latitude": "15.3496233",
            "blogLinks": [
                "http://www.travelhaathi.com/hampi-travel-guide/"
            ],
            "locType": "village"
        },
        "gokarna": {
            "closest_to": "mangalore",
            "address": "Gokarna, Kumata taluk, Uttara Kannada, Karnataka, 581326, India",
            "longitude": "74.3184418",
            "latitude": "14.5439629",
            "blogLinks": [
                "https://www.quora.com/What-are-the-best-places-to-visit-in-between-Mangalore-to-Goa-on-a-road-trip",
                "http://www.mapsofindia.com/karnataka/tourism/"
            ],
            "locType": "town"
        },
        "india": {
            "closest_to": "mangalore",
            "address": "Karnataka, India",
            "longitude": "75.7223521",
            "latitude": "14.5203896",
            "blogLinks": [
                "https://www.quora.com/What-are-the-best-places-to-visit-in-between-Mangalore-to-Goa-on-a-road-trip",
                "http://www.holidayiq.com/How-To-Reach/From-Hubli-To-Coorg-653-339",
                "https://www.distancecalculator.net/from-hubli-to-mangalore",
                "http://wildplanetresort.com/blog/2016/03/top-11-places-to-visit-in-karnataka/",
                "http://wikitravel.org/en/Hubli",
                "http://www.nivalink.com/destination/murudeshwar",
                "https://en.wikipedia.org/wiki/Sirsi,_Karnataka",
                "https://www.tripoto.com/trip/bangalore-to-jog-falls-karnataka",
                "http://www.travelhaathi.com/hampi-travel-guide/",
                "http://www.prokerala.com/travel/distance/from-hubli/to-mangalore/",
                "http://www.mapsofindia.com/karnataka/tourism/",
                "http://www.indiacitytrip.com/Karnataka-Destinations/hubli-tour.aspx"
            ],
            "locType": "administrative"
        }
    },
    "hubli": {
        "place_id": "6298582",
        "osm_id": "670289984",
        "icon": "https://nominatim.openstreetmap.org/images/mapicons/poi_place_city.p.20.png",
        "osm_type": "node",
        "licence": "Data \u00a9 OpenStreetMap contributors, ODbL 1.0. http://www.openstreetmap.org/copyright",
        "display_name": "Hubballi - \u0cb9\u0cc1\u0cac\u0ccd\u0cac\u0cb3\u0ccd\u0cb3\u0cbf, Hubballi taluku, Dharwad district, Karnataka, 580020, India",
        "type": "city",
        "lon": "75.1379848",
        "boundingbox": [
            "15.1918378",
            "15.5118378",
            "74.9779848",
            "75.2979848"
        ],
        "importance": 0.45,
        "lat": "15.3518378",
        "class": "place"
    }
}