{
    "mentions": {
        "badami": {
            "closest_to": "jog falls",
            "address": "Badami, Badami taluku, Bagalkote district, Karnataka, 587200, India",
            "longitude": "75.6807865",
            "latitude": "15.9203874",
            "blogLinks": [
                "https://www.tripoto.com/places-to-visit/india/karnataka",
                "https://www.quora.com/What-are-the-best-places-to-visit-on-a-3-day-trip-in-and-around-Karnataka"
            ],
            "locType": "town"
        },
        "coastal karnataka": {
            "closest_to": "madikeri",
            "address": "Bharat Petroleum Mangalore Coastal Installation, Baikampady, Mangaluru taluk, Dakshina Kannada, Karnataka, 575014, India",
            "longitude": "74.8137275833157",
            "latitude": "12.96014675",
            "blogLinks": [
                "http://www.nivalink.com/destination/jog-falls"
            ],
            "locType": "industrial"
        },
        "himavad gopalaswamy betta": {
            "closest_to": "madikeri",
            "address": "Gopalaswami Temple, Gopal Swami Betta road, Devarahalli, Gundlupet taluk, Chamarajanagar district, Karnataka, India",
            "longitude": "76.5804063",
            "latitude": "11.7206016",
            "blogLinks": [
                "https://www.tripoto.com/places-to-visit/india/karnataka"
            ],
            "locType": "place_of_worship"
        },
        "iruppu falls iruppu falls": {
            "closest_to": "madikeri",
            "address": "Iruppu Falls, SH89, Taila, Virajpet taluk, Kodagu, Karnataka, 571217, India",
            "longitude": "75.9839484",
            "latitude": "11.9667954",
            "blogLinks": [
                "http://www.indiatravelblog.com/resources/3890-Places-to-visit-Coorg.aspx"
            ],
            "locType": "attraction"
        },
        "maharashtra": {
            "closest_to": "madikeri",
            "address": "Bank of Maharashtra, 24th Main, K R Layout, Puttenahalli, Bengaluru, Bangalore Urban, Karnataka, 560001, India",
            "longitude": "77.5856013",
            "latitude": "12.9049455",
            "blogLinks": [
                "https://www.tripoto.com/places-to-visit/india/karnataka"
            ],
            "locType": "bank"
        },
        "mysore - mandya": {
            "closest_to": "madikeri",
            "address": "Mysore Road, Somanahalli, Madduru taluk, Mandya district, Karnataka, 571428, India",
            "longitude": "77.0544201",
            "latitude": "12.6121234",
            "blogLinks": [
                "https://www.tripoto.com/places-to-visit/india/karnataka"
            ],
            "locType": "trunk"
        },
        "tungabadhra river": {
            "closest_to": "jog falls",
            "address": "Tungabadhra Dam, Hosapete taluk, Bellary district, Karnataka, India",
            "longitude": "76.3337165",
            "latitude": "15.2635742",
            "blogLinks": [
                "https://www.tripoto.com/places-to-visit/india/karnataka"
            ],
            "locType": "dam"
        },
        "windsor": {
            "closest_to": "madikeri",
            "address": "Windsor, 12th Main Road, HAL 2nd Stage, Indiranagar, Bengaluru, Bangalore Urban, Karnataka, 560001, India",
            "longitude": "77.6392137",
            "latitude": "12.9698614",
            "blogLinks": [
                "https://www.tripoto.com/places-to-visit/india/karnataka"
            ],
            "locType": "pub"
        },
        "mysore lake": {
            "closest_to": "madikeri",
            "address": "Mysuru, Mysuru taluk, Mysuru district, Karnataka, 570001, India",
            "longitude": "76.6553609",
            "latitude": "12.3051828",
            "blogLinks": [
                "https://www.tripoto.com/places-to-visit/india/karnataka"
            ],
            "locType": "city"
        },
        "karantaka": {
            "closest_to": "jog falls",
            "address": "OBG & Paediatrics Block, Shamanur Road, K.T. Jambanna Nagara, Davanagere, Davanagere taluku, Davanagere district, Karnataka, 577004, India",
            "longitude": "75.9173315988071",
            "latitude": "14.45753495",
            "blogLinks": [
                "https://www.tripoto.com/places-to-visit/india/karnataka"
            ],
            "locType": "hospital"
        },
        "mahabaleshwara": {
            "closest_to": "madikeri",
            "address": "Mahabaleshwara Temple, Mission Road (Kalinga Rao Road ), Sampangirama Nagar, Shanti Nagar, Bengaluru, Bangalore Urban, Karnataka, 560001, India",
            "longitude": "77.5899749843004",
            "latitude": "12.96264945",
            "blogLinks": [
                "https://www.quora.com/What-are-the-best-places-to-visit-on-a-3-day-trip-in-and-around-Karnataka"
            ],
            "locType": "place_of_worship"
        },
        "rain-tree": {
            "closest_to": "madikeri",
            "address": "Rain Tree, 3rd Main Road, Defence Colony, Hoysala Nagar, Bengaluru, Bangalore Urban, Karnataka, 560001, India",
            "longitude": "77.6414765",
            "latitude": "12.9757365",
            "blogLinks": [
                "https://www.tripoto.com/places-to-visit/india/karnataka"
            ],
            "locType": "tree"
        },
        "river cauvery": {
            "closest_to": "madikeri",
            "address": "Cauvery, 1st Main Road, Lower Palace Orchard, Guttahalli, Bengaluru, Bangalore Urban, Karnataka, 560001, India",
            "longitude": "77.5832796015599",
            "latitude": "13.00262215",
            "blogLinks": [
                "https://www.tripoto.com/places-to-visit/india/karnataka",
                "http://www.indianholiday.com/blog/places-to-visit-near-bangalore-monsoon-season/",
                "http://traveltriangle.com/blog/places-to-visit-in-coorg/"
            ],
            "locType": "cinema"
        },
        "maravanthe": {
            "closest_to": "madikeri",
            "address": "Nethaji Subhash Chandra Bose Government High School, Maravanthe, NH66, Navunda, \u0c95\u0cc1\u0c82\u0ca6\u0cbe\u0caa\u0cc1\u0cb0 \u0ca4\u0cbe\u0cb2\u0cc2\u0c95\u0cc1, Udupi district, Karnataka, 576224, India",
            "longitude": "74.6480358",
            "latitude": "13.7316626",
            "blogLinks": [
                "https://www.tripoto.com/places-to-visit/india/karnataka"
            ],
            "locType": "school"
        },
        "karkala": {
            "closest_to": "madikeri",
            "address": "Karkala, Karkala taluk, Udupi district, Karnataka, 574104, India",
            "longitude": "74.9959586",
            "latitude": "13.2112826",
            "blogLinks": [
                "https://www.quora.com/What-are-the-best-places-to-visit-in-Karnataka-India",
                "https://www.quora.com/What-are-the-best-places-to-visit-on-a-3-day-trip-in-and-around-Karnataka"
            ],
            "locType": "town"
        },
        "gaganachukki": {
            "closest_to": "madikeri",
            "address": "Gaganachukki Falls, Malavalli taluk, Mandya district, Karnataka, India",
            "longitude": "77.1684763",
            "latitude": "12.2933696",
            "blogLinks": [
                "https://www.tripoto.com/places-to-visit/india/karnataka"
            ],
            "locType": "waterfall"
        },
        "kalaseshwara temple": {
            "closest_to": "madikeri",
            "address": "Kalaseshwara Temple, SH66, Kalasa, Mudigere taluk, Chikkamagaluru district, Karnataka, 577124, India",
            "longitude": "75.363446975",
            "latitude": "13.23228505",
            "blogLinks": [
                "http://www.holidayiq.com/Madikeri-Sightseeing-1276.html",
                "http://traveltriangle.com/blog/waterfalls-near-bangalore/"
            ],
            "locType": "place_of_worship"
        },
        "uttara kannada": {
            "closest_to": "jog falls",
            "address": "Uttara Kannada, Karnataka, India",
            "longitude": "74.4729163045979",
            "latitude": "14.6726379",
            "blogLinks": [
                "https://www.quora.com/What-are-the-best-places-to-visit-on-a-3-day-trip-in-and-around-Karnataka"
            ],
            "locType": "administrative"
        },
        "mullayanagiri": {
            "closest_to": "madikeri",
            "address": "Mullayyanagiri, Chikkamagaluru, Chikkamagaluru taluku, Chikkamagaluru district, Karnataka, 577101, India",
            "longitude": "75.7214034",
            "latitude": "13.3909217",
            "blogLinks": [
                "https://www.tripoto.com/places-to-visit/india/karnataka",
                "https://www.quora.com/What-are-the-best-places-to-visit-on-a-3-day-trip-in-and-around-Karnataka"
            ],
            "locType": "peak"
        },
        "mallalli falls": {
            "closest_to": "madikeri",
            "address": "Mallalli Falls, Somawarpet taluk, Kodagu, Karnataka, India",
            "longitude": "75.723663",
            "latitude": "12.6813778",
            "blogLinks": [
                "https://www.tripoto.com/places-to-visit/india/karnataka"
            ],
            "locType": "waterfall"
        },
        "ambika river": {
            "closest_to": "madikeri",
            "address": "ambika hotel and bar, 638, 46th A cross, Rajajinagar 4th Block, Rajaji Nagar, Bengaluru, Bangalore Urban, Karnataka, 560010, India",
            "longitude": "77.5557527",
            "latitude": "12.9878802",
            "blogLinks": [
                "http://travel.india.com/explore/waterfalls-india/"
            ],
            "locType": "restaurant"
        },
        "england": {
            "closest_to": "madikeri",
            "address": "Peter England Factory, Bommanahalli, Bengaluru, Bangalore Urban, Karnataka, 560001, India",
            "longitude": "77.6219969678622",
            "latitude": "12.90120185",
            "blogLinks": [
                "https://www.tripoto.com/places-to-visit/india/karnataka"
            ],
            "locType": "industrial"
        },
        "brahma": {
            "closest_to": "jog falls",
            "address": "Sadguru Brahma Chaitanya Mandira, Ring Road, Vinobanagara, Davanagere, Davanagere taluku, Davanagere district, Karnataka, 577004, India",
            "longitude": "75.9026723908286",
            "latitude": "14.4564816",
            "blogLinks": [
                "https://www.tripoto.com/places-to-visit/india/karnataka"
            ],
            "locType": "place_of_worship"
        },
        "brindaban gardens": {
            "closest_to": "madikeri",
            "address": "Brindaban Apartments, Hosur Road, Sadgunte Palya, Adugodi, Bengaluru, Bangalore Urban, Karnataka, 560030, India",
            "longitude": "77.6097138932437",
            "latitude": "12.9384553",
            "blogLinks": [
                "https://www.tripoto.com/places-to-visit/india/karnataka"
            ],
            "locType": "yes"
        },
        "silicon valley": {
            "closest_to": "madikeri",
            "address": "RK Estates : Silicon Valley Layout, Vidyanagar, Bengaluru, Bangalore Urban, Karnataka, 560001, India",
            "longitude": "77.6053133563105",
            "latitude": "13.1650062",
            "blogLinks": [
                "https://www.tripoto.com/places-to-visit/india/karnataka"
            ],
            "locType": "residential"
        },
        "mowgli": {
            "closest_to": "jog falls",
            "address": "Mowgli Guest House, SH130, Basapura, Koppala taluku, Koppal district, Karnataka, India",
            "longitude": "76.4532005",
            "latitude": "15.3413499",
            "blogLinks": [
                "https://www.tripoto.com/places-to-visit/india/karnataka"
            ],
            "locType": "hostel"
        },
        "malpe": {
            "closest_to": "madikeri",
            "address": "Malpe, Udupi taluku, Udupi district, Karnataka, India",
            "longitude": "74.7036914",
            "latitude": "13.3507423",
            "blogLinks": [
                "https://www.quora.com/What-are-the-best-places-to-visit-in-Karnataka-India"
            ],
            "locType": "village"
        },
        "sharavati river": {
            "closest_to": "jog falls",
            "address": "Sharavati, Sagara taluk, Shimoga district, Karnataka, India",
            "longitude": "74.7647294",
            "latitude": "14.2360979",
            "blogLinks": [
                "http://travel.india.com/jog-falls/",
                "http://www.holidayiq.com/Jog-Falls-Waterfalls-A-715-11.html"
            ],
            "locType": "river"
        },
        "panaji": {
            "closest_to": "jog falls",
            "address": "Belgaum - Panaji Highway, Londa, Khanapura taluku, Belgaum district, Karnataka, India",
            "longitude": "74.4876784",
            "latitude": "15.4422981",
            "blogLinks": [
                "https://www.quora.com/What-are-the-best-places-to-visit-in-Karnataka-India",
                "https://www.tripoto.com/places-to-visit/india/karnataka"
            ],
            "locType": "trunk"
        },
        "palace gardens": {
            "closest_to": "madikeri",
            "address": "Bangalore Palace, Jayamahal Road, Jayamahal Extension, Jayamahal, Bengaluru, Bangalore Urban, Karnataka, 560001, India",
            "longitude": "77.5920094892276",
            "latitude": "12.9985963",
            "blogLinks": [
                "https://www.tripoto.com/places-to-visit/india/karnataka"
            ],
            "locType": "attraction"
        },
        "nilgiri district": {
            "closest_to": "madikeri",
            "address": "Bangalore Nilgiri Road, Ittigegudu, Mysuru, Mysuru taluk, Mysuru district, Karnataka, 570001, India",
            "longitude": "76.658639",
            "latitude": "12.304105",
            "blogLinks": [
                "http://travel.india.com/explore/waterfalls-india/"
            ],
            "locType": "primary"
        },
        "chennakesava": {
            "closest_to": "madikeri",
            "address": "Chennakesava Temple, NH73, Navilahalli, Beluru taluk, Hassan district, Karnataka, India",
            "longitude": "75.8603311",
            "latitude": "13.1629239",
            "blogLinks": [
                "https://www.tripoto.com/places-to-visit/india/karnataka"
            ],
            "locType": "place_of_worship"
        },
        "mysore": {
            "closest_to": "madikeri",
            "address": "Mysuru, Mysuru taluk, Mysuru district, Karnataka, 570001, India",
            "longitude": "76.6553609",
            "latitude": "12.3051828",
            "blogLinks": [
                "https://www.quora.com/What-are-the-best-places-to-visit-in-Karnataka-India",
                "https://www.tripoto.com/places-to-visit/india/karnataka",
                "https://www.quora.com/What-are-the-best-places-to-visit-on-a-3-day-trip-in-and-around-Karnataka"
            ],
            "locType": "city"
        },
        "bylakuppe": {
            "closest_to": "madikeri",
            "address": "Bylakuppe, Piriyapattana taluk, Mysuru district, Karnataka, India",
            "longitude": "75.9953435",
            "latitude": "12.4292508",
            "blogLinks": [
                "https://www.tripoto.com/places-to-visit/india/karnataka"
            ],
            "locType": "village"
        },
        "banavasi": {
            "closest_to": "jog falls",
            "address": "Banavasi, Shirasi taluk, Uttara Kannada, Karnataka, India",
            "longitude": "75.0129845",
            "latitude": "14.5389738",
            "blogLinks": [
                "https://www.quora.com/What-are-the-best-places-to-visit-on-a-3-day-trip-in-and-around-Karnataka"
            ],
            "locType": "town"
        },
        "udupi krishna temple": {
            "closest_to": "madikeri",
            "address": "Sri Krishna Temple Udupi, Rathabidi, Indiranagara, Udupi, Udupi taluku, Udupi district, Karnataka, 576101, India",
            "longitude": "74.7520421",
            "latitude": "13.341185",
            "blogLinks": [
                "https://www.tripoto.com/places-to-visit/india/karnataka"
            ],
            "locType": "place_of_worship"
        },
        "mirjan fort": {
            "closest_to": "jog falls",
            "address": "Mirjana Fort, Edapally- Panvel Highway, Kimani, Kumata taluk, Uttara Kannada, Karnataka, 581344, India",
            "longitude": "74.4174838158512",
            "latitude": "14.48905715",
            "blogLinks": [
                "https://www.quora.com/What-are-the-best-places-to-visit-on-a-3-day-trip-in-and-around-Karnataka"
            ],
            "locType": "attraction"
        },
        "kudle beach": {
            "closest_to": "jog falls",
            "address": "Kudle Beach, Om beach road, Gokarna, Kumata taluk, Uttara Kannada, Karnataka, 581326, India",
            "longitude": "74.3156783937192",
            "latitude": "14.5281015",
            "blogLinks": [
                "https://www.tripoto.com/places-to-visit/india/karnataka"
            ],
            "locType": "beach"
        },
        "nandi": {
            "closest_to": "madikeri",
            "address": "Nandi, Tarikere taluku, Chikkamagaluru district, Karnataka, India",
            "longitude": "75.8556266",
            "latitude": "13.6434094",
            "blogLinks": [
                "https://www.tripoto.com/places-to-visit/india/karnataka"
            ],
            "locType": "village"
        },
        "kaveri": {
            "closest_to": "madikeri",
            "address": "Kaveri, Kollegala taluk, Chamarajanagar district, Karnataka, India",
            "longitude": "77.0635531",
            "latitude": "12.1687878",
            "blogLinks": [
                "http://www.indiatravelblog.com/resources/3890-Places-to-visit-Coorg.aspx",
                "https://www.quora.com/What-are-the-best-places-to-visit-in-Karnataka-India",
                "https://www.tripoto.com/places-to-visit/india/karnataka",
                "http://traveltriangle.com/blog/waterfalls-near-bangalore/",
                "https://www.quora.com/What-are-the-best-places-to-visit-on-a-3-day-trip-in-and-around-Karnataka"
            ],
            "locType": "river"
        },
        "kudle": {
            "closest_to": "jog falls",
            "address": "Kudle Ocean Front resort, Om beach road, Gokarna, Kumata taluk, Uttara Kannada, Karnataka, 581326, India",
            "longitude": "74.3178853",
            "latitude": "14.5290707",
            "blogLinks": [
                "https://www.tripoto.com/places-to-visit/india/karnataka"
            ],
            "locType": "hotel"
        },
        "magadi": {
            "closest_to": "madikeri",
            "address": "Magadi, Magadi taluku, Ramanagara district, Karnataka, 562120, India",
            "longitude": "77.2242281",
            "latitude": "12.9567353",
            "blogLinks": [
                "https://www.quora.com/What-are-the-best-places-to-visit-in-Karnataka-India"
            ],
            "locType": "town"
        },
        "amboli": {
            "closest_to": "jog falls",
            "address": "Amboli, Khanapura taluku, Belgaum district, Karnataka, India",
            "longitude": "74.4340839",
            "latitude": "15.6456171",
            "blogLinks": [
                "https://www.quora.com/What-are-the-best-places-to-visit-on-a-3-day-trip-in-and-around-Karnataka"
            ],
            "locType": "village"
        },
        "madhukeshwara": {
            "closest_to": "madikeri",
            "address": "Madhukeshwara Temple, Kattinakere Road, Kattinakere Bus Stand, Soraba taluk, Shimoga district, Karnataka, India",
            "longitude": "75.1480027",
            "latitude": "14.3058996",
            "blogLinks": [
                "https://www.quora.com/What-are-the-best-places-to-visit-on-a-3-day-trip-in-and-around-Karnataka"
            ],
            "locType": "place_of_worship"
        },
        "narmada river": {
            "closest_to": "madikeri",
            "address": "Narmada Road, Ravindra Nagar, PWD Colony, Hassan, Hasana taluk, Hassan district, Karnataka, 573201, India",
            "longitude": "76.1044277",
            "latitude": "13.0140848",
            "blogLinks": [
                "http://travel.india.com/explore/waterfalls-india/"
            ],
            "locType": "residential"
        },
        "agumbe": {
            "closest_to": "madikeri",
            "address": "Agumbe, Tirthahalli taluk, Shimoga district, Karnataka, 577411, India",
            "longitude": "75.0965525",
            "latitude": "13.5094998",
            "blogLinks": [
                "https://www.tripoto.com/places-to-visit/india/karnataka"
            ],
            "locType": "village"
        },
        "varanasi": {
            "closest_to": "madikeri",
            "address": "Varanasi, Bangalore Urban, Karnataka, India",
            "longitude": "77.6860657",
            "latitude": "13.0304962",
            "blogLinks": [
                "https://www.tripoto.com/places-to-visit/india/karnataka"
            ],
            "locType": "village"
        },
        "north east": {
            "closest_to": "jog falls",
            "address": "Karnataka, India",
            "longitude": "75.7223521",
            "latitude": "14.5203896",
            "blogLinks": [
                "https://www.tripoto.com/places-to-visit/india/karnataka",
                "http://travel.india.com/explore/waterfalls-india/"
            ],
            "locType": "administrative"
        },
        "nandi bull": {
            "closest_to": "jog falls",
            "address": "Monolithic Bull, Way to Vitthala Temple, Hampe, Hosapete taluk, Bellary district, Karnataka, 583239, India",
            "longitude": "76.4671825",
            "latitude": "15.3337944",
            "blogLinks": [
                "https://www.tripoto.com/places-to-visit/india/karnataka"
            ],
            "locType": "attraction"
        },
        "kukkarahalli lake": {
            "closest_to": "madikeri",
            "address": "Kukkarahalli Kere, Bogadi Road, Sarasvatipuram, Mysuru, Mysuru taluk, Mysuru district, Karnataka, 570001, India",
            "longitude": "76.6304982433348",
            "latitude": "12.3103805",
            "blogLinks": [
                "https://www.tripoto.com/places-to-visit/india/karnataka"
            ],
            "locType": "water"
        },
        "kodasalli dam": {
            "closest_to": "jog falls",
            "address": "Kodasalli Dam, Yallapura taluk, Uttara Kannada, Karnataka, India",
            "longitude": "74.5353892832085",
            "latitude": "14.91893295",
            "blogLinks": [
                "https://www.quora.com/What-are-the-best-places-to-visit-in-Karnataka-India"
            ],
            "locType": "dam"
        },
        "tumkur road": {
            "closest_to": "madikeri",
            "address": "Tumkur Road, Goragunte Palya, Peenya, Bengaluru, Bangalore Urban, Karnataka, 560001, India",
            "longitude": "77.5360458",
            "latitude": "13.0311896",
            "blogLinks": [
                "https://www.tripoto.com/places-to-visit/india/karnataka"
            ],
            "locType": "trunk"
        },
        "kaveri nisargadhama": {
            "closest_to": "madikeri",
            "address": "Kaveri Nisargadhama, NH275, 7th Hosakote, Somawarpet taluk, Kodagu, Karnataka, India",
            "longitude": "75.93356075",
            "latitude": "12.4416008",
            "blogLinks": [
                "https://www.tripoto.com/places-to-visit/india/karnataka"
            ],
            "locType": "park"
        },
        "talakaveri": {
            "closest_to": "madikeri",
            "address": "Talakaveri, Madikeri taluku, Kodagu, Karnataka, India",
            "longitude": "75.4930074",
            "latitude": "12.3858456",
            "blogLinks": [
                "https://www.tripoto.com/places-to-visit/india/karnataka"
            ],
            "locType": "hamlet"
        },
        "gokul garden": {
            "closest_to": "jog falls",
            "address": "Gokul Garden, Gokul Road / Airport Road, Renuka Nagar, Padmaraj Nagar, Gokul, Hubballi taluku, Dharwad district, Karnataka, 580030, India",
            "longitude": "75.1141861403246",
            "latitude": "15.35009745",
            "blogLinks": [
                "https://www.quora.com/What-are-the-best-places-to-visit-on-a-3-day-trip-in-and-around-Karnataka"
            ],
            "locType": "recreation_ground"
        },
        "kushalanagara": {
            "closest_to": "madikeri",
            "address": "Kushalanagara, Somawarpet taluk, Kodagu, Karnataka, 571234, India",
            "longitude": "75.961437",
            "latitude": "12.4585525",
            "blogLinks": [
                "https://www.tripoto.com/places-to-visit/india/karnataka"
            ],
            "locType": "town"
        },
        "nagarahole": {
            "closest_to": "madikeri",
            "address": "Nagarahole, Heggadadevanakote taluk, Mysuru district, Karnataka, India",
            "longitude": "76.2286805",
            "latitude": "12.0229466",
            "blogLinks": [
                "https://www.tripoto.com/places-to-visit/india/karnataka"
            ],
            "locType": "river"
        },
        "murudeshwara": {
            "closest_to": "jog falls",
            "address": "Murudeshwara, Bhatkala taluk, Uttara Kannada, Karnataka, 581350, India",
            "longitude": "74.4883354",
            "latitude": "14.0959549",
            "blogLinks": [
                "https://www.tripoto.com/places-to-visit/india/karnataka"
            ],
            "locType": "town"
        },
        "chennakeshava": {
            "closest_to": "madikeri",
            "address": "Chennakeshava Temple, NH73, Arakere, Arasikere taluku, Hassan district, Karnataka, 573112, India",
            "longitude": "76.1294164",
            "latitude": "13.3748908",
            "blogLinks": [
                "https://www.quora.com/What-are-the-best-places-to-visit-on-a-3-day-trip-in-and-around-Karnataka"
            ],
            "locType": "place_of_worship"
        },
        "mumbai": {
            "closest_to": "madikeri",
            "address": "Mumbai Spice, 18/2, 10th Cross, Malleswaram, Vyalikaval, Malleswaram, Bengaluru, Bangalore Urban, Karnataka, 560003, India",
            "longitude": "77.5718472",
            "latitude": "13.0002869",
            "blogLinks": [
                "https://www.tripoto.com/places-to-visit/india/karnataka"
            ],
            "locType": "restaurant"
        },
        "gurupura": {
            "closest_to": "madikeri",
            "address": "Gurupura, Tarikere taluku, Chikkamagaluru district, Karnataka, India",
            "longitude": "75.7161587",
            "latitude": "13.6686411",
            "blogLinks": [
                "https://www.quora.com/What-are-the-best-places-to-visit-on-a-3-day-trip-in-and-around-Karnataka"
            ],
            "locType": "village"
        },
        "ocean": {
            "closest_to": "madikeri",
            "address": "Gayatri Ocean Blue Apartments, Thubarahalli, Siddapura, Bangalore Urban, Karnataka, 560066, India",
            "longitude": "77.7178261979437",
            "latitude": "12.95490595",
            "blogLinks": [
                "https://www.quora.com/What-are-the-best-places-to-visit-on-a-3-day-trip-in-and-around-Karnataka"
            ],
            "locType": "residential"
        },
        "chennakesava temple": {
            "closest_to": "madikeri",
            "address": "Chennakesava Temple, NH73, Navilahalli, Beluru taluk, Hassan district, Karnataka, India",
            "longitude": "75.8603311",
            "latitude": "13.1629239",
            "blogLinks": [
                "https://www.tripoto.com/places-to-visit/india/karnataka"
            ],
            "locType": "place_of_worship"
        },
        "ramanagara district": {
            "closest_to": "madikeri",
            "address": "Ramanagara district, Karnataka, India",
            "longitude": "77.3194722401066",
            "latitude": "12.71338445",
            "blogLinks": [
                "https://www.tripoto.com/places-to-visit/india/karnataka"
            ],
            "locType": "administrative"
        },
        "kumarakom": {
            "closest_to": "madikeri",
            "address": "Kumarakom, 23, 15th Cross Road, Sector 4, HSR Layout, Bengaluru, Bangalore Urban, Karnataka, 560102, India",
            "longitude": "77.6382858",
            "latitude": "12.9143715",
            "blogLinks": [
                "http://travel.india.com/explore/waterfalls-india/"
            ],
            "locType": "restaurant"
        },
        "vijaynagar": {
            "closest_to": "madikeri",
            "address": "Vijaynagar, Chord Road, Marenahalli, Vijaya Nagar, Binny Layout, Bangalore Urban, Karnataka, 560040, India",
            "longitude": "77.5376657",
            "latitude": "12.9720356",
            "blogLinks": [
                "https://www.tripoto.com/places-to-visit/india/karnataka"
            ],
            "locType": "bus_stop"
        },
        "somwarpet": {
            "closest_to": "madikeri",
            "address": "Somwarpet, Somawarpet taluk, Kodagu, Karnataka, 571236, India",
            "longitude": "75.8457638",
            "latitude": "12.6004446",
            "blogLinks": [
                "https://www.tripoto.com/places-to-visit/india/karnataka"
            ],
            "locType": "town"
        },
        "ganeshgudi": {
            "closest_to": "jog falls",
            "address": "Ganeshagudi, Joida taluk, Uttara Kannada, Karnataka, India",
            "longitude": "74.5335693",
            "latitude": "15.2815822",
            "blogLinks": [
                "https://www.quora.com/What-are-the-best-places-to-visit-on-a-3-day-trip-in-and-around-Karnataka"
            ],
            "locType": "village"
        },
        "mandovi": {
            "closest_to": "madikeri",
            "address": "Mandovi Motors, Wheeler Road Flyover, MSO Colony, Cox Town, Bengaluru, Bangalore Urban, Karnataka, 560001, India",
            "longitude": "77.6190505",
            "latitude": "12.9965335",
            "blogLinks": [
                "https://www.quora.com/What-are-the-best-places-to-visit-on-a-3-day-trip-in-and-around-Karnataka"
            ],
            "locType": "car"
        },
        "new mangalore port": {
            "closest_to": "madikeri",
            "address": "New Mangalore Port, Kuloor, Mangaluru taluk, Dakshina Kannada, Karnataka, India",
            "longitude": "74.8219606",
            "latitude": "12.9318976",
            "blogLinks": [
                "https://www.tripoto.com/places-to-visit/india/karnataka"
            ],
            "locType": "locality"
        },
        "veeranarayana": {
            "closest_to": "madikeri",
            "address": "Veeranarayana Temple, Solapur-Mangalore Highway, Shakthinagar, Kulashekara, Kudupu, Mangaluru taluk, Dakshina Kannada, Karnataka, 575007, India",
            "longitude": "74.8847597015472",
            "latitude": "12.88735285",
            "blogLinks": [
                "https://www.tripoto.com/places-to-visit/india/karnataka"
            ],
            "locType": "place_of_worship"
        },
        "karavalli": {
            "closest_to": "madikeri",
            "address": "Karavalli, FM Cariappa Road (Residency Road), Tasker Town, Ashok Nagar, Bengaluru, Bangalore Urban, Karnataka, 560001, India",
            "longitude": "77.608763",
            "latitude": "12.9724724",
            "blogLinks": [
                "https://www.tripoto.com/places-to-visit/india/karnataka"
            ],
            "locType": "restaurant"
        },
        "goa": {
            "closest_to": "madikeri",
            "address": "Carnival De Goa, Bhaskaran Road, Gupta Layout, Halasuru, Bengaluru, Bangalore Urban, Karnataka, 560001, India",
            "longitude": "77.6200027",
            "latitude": "12.9750047",
            "blogLinks": [
                "https://www.tripoto.com/places-to-visit/india/karnataka",
                "http://travel.india.com/explore/waterfalls-india/"
            ],
            "locType": "restaurant"
        },
        "kalasa": {
            "closest_to": "madikeri",
            "address": "Kalasa, Mudigere taluk, Chikkamagaluru district, Karnataka, 577124, India",
            "longitude": "75.3582366",
            "latitude": "13.2322235",
            "blogLinks": [
                "https://www.quora.com/What-are-the-best-places-to-visit-in-Karnataka-India"
            ],
            "locType": "town"
        },
        "maurya": {
            "closest_to": "madikeri",
            "address": "Hotel Maurya, 22/4, Devaraj Urs Road, Balepet, High Grounds, Bengaluru, Bangalore Urban, Karnataka, 560009, India",
            "longitude": "77.576491",
            "latitude": "12.980921",
            "blogLinks": [
                "http://travel.india.com/jog-falls/"
            ],
            "locType": "hotel"
        },
        "kuppali": {
            "closest_to": "madikeri",
            "address": "Kuppali Road, Kuppalli, Tirthahalli taluk, Shimoga district, Karnataka, India",
            "longitude": "75.3158067",
            "latitude": "13.5998255",
            "blogLinks": [
                "https://www.quora.com/What-are-the-best-places-to-visit-on-a-3-day-trip-in-and-around-Karnataka"
            ],
            "locType": "tertiary"
        },
        "gundlupet": {
            "closest_to": "madikeri",
            "address": "Gundlupet, Gundlupet taluk, Chamarajanagar district, Karnataka, 571111, India",
            "longitude": "76.6916141",
            "latitude": "11.808496",
            "blogLinks": [
                "https://www.tripoto.com/places-to-visit/india/karnataka"
            ],
            "locType": "town"
        },
        "gokarna beach": {
            "closest_to": "jog falls",
            "address": "Gokarna Beach, Gokarna Road, Ganji Gadde, Kumata taluk, Uttara Kannada, Karnataka, 581326, India",
            "longitude": "74.3109489488919",
            "latitude": "14.5516537",
            "blogLinks": [
                "https://www.tripoto.com/places-to-visit/india/karnataka"
            ],
            "locType": "beach"
        },
        "gokarna": {
            "closest_to": "jog falls",
            "address": "Gokarna, Kumata taluk, Uttara Kannada, Karnataka, 581326, India",
            "longitude": "74.3184418",
            "latitude": "14.5439629",
            "blogLinks": [
                "https://www.quora.com/What-are-the-best-places-to-visit-in-Karnataka-India",
                "https://www.tripoto.com/places-to-visit/india/karnataka"
            ],
            "locType": "town"
        },
        "nitk surathkal": {
            "closest_to": "madikeri",
            "address": "NITK Central Library, Surathkal Beach Road, Mukka, Mangaluru taluk, Dakshina Kannada, Karnataka, 575025, India",
            "longitude": "74.7940473",
            "latitude": "13.009928",
            "blogLinks": [
                "https://www.quora.com/What-are-some-places-to-visit-trip-trek-while-staying-at-NITK-Surathkal-over-the-weekends"
            ],
            "locType": "library"
        },
        "india": {
            "closest_to": "jog falls",
            "address": "Karnataka, India",
            "longitude": "75.7223521",
            "latitude": "14.5203896",
            "blogLinks": [
                "https://www.quora.com/What-are-the-best-places-to-visit-in-Karnataka-India",
                "http://travel.india.com/jog-falls/",
                "http://www.nivalink.com/destination/jog-falls",
                "http://traveltriangle.com/blog/waterfalls-near-bangalore/",
                "http://www.indianholiday.com/blog/places-to-visit-near-bangalore-monsoon-season/",
                "http://traveltriangle.com/blog/places-to-visit-in-coorg/",
                "https://www.quora.com/What-are-the-best-places-to-visit-on-a-3-day-trip-in-and-around-Karnataka",
                "http://www.indiatravelblog.com/resources/3890-Places-to-visit-Coorg.aspx",
                "https://www.tripoto.com/places-to-visit/india/karnataka",
                "http://travel.india.com/explore/waterfalls-india/"
            ],
            "locType": "administrative"
        },
        "kapila river": {
            "closest_to": "madikeri",
            "address": "Kapila Road, Ravindra Nagar, PWD Colony, Hassan, Hasana taluk, Hassan district, Karnataka, 573201, India",
            "longitude": "76.1040848",
            "latitude": "13.016016",
            "blogLinks": [
                "https://www.tripoto.com/places-to-visit/india/karnataka"
            ],
            "locType": "residential"
        },
        "island": {
            "closest_to": "jog falls",
            "address": "Isa, Shirasi taluk, Uttara Kannada, Karnataka, India",
            "longitude": "74.8834637",
            "latitude": "14.6799543",
            "blogLinks": [
                "https://www.tripoto.com/places-to-visit/india/karnataka"
            ],
            "locType": "village"
        },
        "tadiandamol": {
            "closest_to": "madikeri",
            "address": "Tadiandamol, Madikeri taluku, Kodagu, Karnataka, India",
            "longitude": "75.608815",
            "latitude": "12.2175641",
            "blogLinks": [
                "https://www.tripoto.com/places-to-visit/india/karnataka"
            ],
            "locType": "peak"
        },
        "vitthala": {
            "closest_to": "jog falls",
            "address": "Way to Vitthala Temple, Hampe, Hosapete taluk, Bellary district, Karnataka, 583239, India",
            "longitude": "76.4705005",
            "latitude": "15.3376716",
            "blogLinks": [
                "https://www.tripoto.com/places-to-visit/india/karnataka"
            ],
            "locType": "footway"
        },
        "earth": {
            "closest_to": "madikeri",
            "address": "Bharat Earth Movers Limited - BEML, GM Palya, Bengaluru, Bangalore Urban, Karnataka, 560001, India",
            "longitude": "77.659986649248",
            "latitude": "12.9740596",
            "blogLinks": [
                "http://www.indiatravelblog.com/resources/3890-Places-to-visit-Coorg.aspx",
                "https://www.tripoto.com/places-to-visit/india/karnataka"
            ],
            "locType": "industrial"
        },
        "silent valley": {
            "closest_to": "madikeri",
            "address": "Silent Shores Resort, Krishnaraja Sagara Road, Kurgalli, Bastipura, Srirangapattana taluk, Mandya district, Karnataka, 570027, India",
            "longitude": "76.5819054",
            "latitude": "12.3459371",
            "blogLinks": [
                "https://www.quora.com/What-are-the-best-places-to-visit-on-a-3-day-trip-in-and-around-Karnataka"
            ],
            "locType": "hotel"
        },
        "tungabhadra river": {
            "closest_to": "jog falls",
            "address": "Tungabhadra, Gangavati taluku, Koppal district, Karnataka, India",
            "longitude": "76.4931607",
            "latitude": "15.3446123",
            "blogLinks": [
                "https://www.tripoto.com/places-to-visit/india/karnataka"
            ],
            "locType": "river"
        },
        "chamundeshwari": {
            "closest_to": "madikeri",
            "address": "Chamundeshwari, Chidananda Maharashi Ashram Road, Sampangi Rama Nagara, MacIvor Town, Bengaluru, Bangalore Urban, Karnataka, 560027, India",
            "longitude": "77.5924927",
            "latitude": "12.9658588",
            "blogLinks": [
                "https://www.tripoto.com/places-to-visit/india/karnataka"
            ],
            "locType": "clothes"
        },
        "narasipura": {
            "closest_to": "madikeri",
            "address": "Narasipura, Kaduru taluk, Chikkamagaluru district, Karnataka, India",
            "longitude": "76.0371725",
            "latitude": "13.6494023",
            "blogLinks": [
                "https://www.tripoto.com/places-to-visit/india/karnataka"
            ],
            "locType": "village"
        },
        "durga temple": {
            "closest_to": "madikeri",
            "address": "Durga Temple, 29th Main, Mahadeshwara Nagara, BTM Layout, Bengaluru, Bangalore Urban, Karnataka, 560001, India",
            "longitude": "77.6125928",
            "latitude": "12.9057731",
            "blogLinks": [
                "https://www.tripoto.com/places-to-visit/india/karnataka",
                "https://www.quora.com/What-are-the-best-places-to-visit-on-a-3-day-trip-in-and-around-Karnataka"
            ],
            "locType": "place_of_worship"
        },
        "ranganathaswamy temple": {
            "closest_to": "madikeri",
            "address": "Ranganathaswamy Temple, Steps to Ranganathaswami Temple, Halekote, Hole Narasipura taluk, Hassan district, Karnataka, 573211, India",
            "longitude": "76.1812411",
            "latitude": "12.854149",
            "blogLinks": [
                "https://www.tripoto.com/places-to-visit/india/karnataka"
            ],
            "locType": "place_of_worship"
        },
        "hoysala": {
            "closest_to": "madikeri",
            "address": "Hoysala Nagar, Bengaluru, Bangalore Urban, Karnataka, 560001, India",
            "longitude": "77.6375990817051",
            "latitude": "12.97813815",
            "blogLinks": [
                "https://www.tripoto.com/places-to-visit/india/karnataka",
                "https://www.quora.com/What-are-the-best-places-to-visit-on-a-3-day-trip-in-and-around-Karnataka",
                "http://www.nivalink.com/destination/jog-falls"
            ],
            "locType": "administrative"
        },
        "karnataka state": {
            "closest_to": "madikeri",
            "address": "Karnataka State Open University, \u0cb9\u0cc1\u0ca3\u0cb8\u0cc2\u0cb0\u0cc1 \u0cb0\u0cb8\u0ccd\u0ca4\u0cc6, Gokulam, Mysuru, Mysuru taluk, Mysuru district, Karnataka, 570001, India",
            "longitude": "76.6236231",
            "latitude": "12.315382",
            "blogLinks": [
                "https://www.tripoto.com/places-to-visit/india/karnataka"
            ],
            "locType": "university"
        },
        "lord shiva": {
            "closest_to": "madikeri",
            "address": "Lord Shiva Temple, Marenahalli Road (South End), MICO Layout, BTM Layout, Bengaluru, Bangalore Urban, Karnataka, 560001, India",
            "longitude": "77.6024995",
            "latitude": "12.916875",
            "blogLinks": [
                "https://www.quora.com/What-are-the-best-places-to-visit-on-a-3-day-trip-in-and-around-Karnataka"
            ],
            "locType": "place_of_worship"
        },
        "kabini": {
            "closest_to": "madikeri",
            "address": "Kabini, Heggadadevanakote taluk, Mysuru district, Karnataka, India",
            "longitude": "76.4152088",
            "latitude": "12.0140065",
            "blogLinks": [
                "https://www.quora.com/What-are-the-best-places-to-visit-in-Karnataka-India",
                "https://www.tripoto.com/places-to-visit/india/karnataka"
            ],
            "locType": "river"
        },
        "sangam": {
            "closest_to": "madikeri",
            "address": "Sangam, FM Cariappa Road (Residency Road), Shantala Nagar, MacIvor Town, Bengaluru, Bangalore Urban, Karnataka, 560001, India",
            "longitude": "77.6065672",
            "latitude": "12.9718928",
            "blogLinks": [
                "https://www.tripoto.com/places-to-visit/india/karnataka"
            ],
            "locType": "restaurant"
        },
        "hubli": {
            "closest_to": "jog falls",
            "address": "Hubballi - \u0cb9\u0cc1\u0cac\u0ccd\u0cac\u0cb3\u0ccd\u0cb3\u0cbf, Hubballi taluku, Dharwad district, Karnataka, 580020, India",
            "longitude": "75.1379848",
            "latitude": "15.3518378",
            "blogLinks": [
                "http://www.nivalink.com/destination/jog-falls"
            ],
            "locType": "city"
        },
        "tumkur": {
            "closest_to": "madikeri",
            "address": "Tumakuru, Tumkur district, Karnataka, India",
            "longitude": "77.0002445",
            "latitude": "13.4999406",
            "blogLinks": [
                "https://www.tripoto.com/places-to-visit/india/karnataka"
            ],
            "locType": "county"
        },
        "nagarhole national park": {
            "closest_to": "madikeri",
            "address": "Nagarahole National Park, Virajpet taluk, Kodagu, Karnataka, India",
            "longitude": "76.1537073415874",
            "latitude": "12.0600362",
            "blogLinks": [
                "https://www.quora.com/What-are-the-best-places-to-visit-on-a-3-day-trip-in-and-around-Karnataka",
                "http://travel.india.com/explore/waterfalls-india/"
            ],
            "locType": "national_park"
        },
        "cauvery river": {
            "closest_to": "madikeri",
            "address": "Temple Trees Rd, Cauvery Colony, ST Bed Layout, Koramangala, Bengaluru, Bangalore Urban, Karnataka, 560001, India",
            "longitude": "77.635647",
            "latitude": "12.9327668",
            "blogLinks": [
                "https://www.tripoto.com/places-to-visit/india/karnataka",
                "http://traveltriangle.com/blog/waterfalls-near-bangalore/"
            ],
            "locType": "unclassified"
        },
        "keladi": {
            "closest_to": "madikeri",
            "address": "Keladi, Sagara taluk, Shimoga district, Karnataka, India",
            "longitude": "75.0165753",
            "latitude": "14.2214761",
            "blogLinks": [
                "https://www.tripoto.com/places-to-visit/india/karnataka",
                "http://www.nivalink.com/destination/jog-falls"
            ],
            "locType": "village"
        },
        "pattadakal": {
            "closest_to": "jog falls",
            "address": "Pattadakal Temples, SH14, \u0cac\u0cbe\u0c9a\u0cbf\u0ca8\u0c97\u0cc1\u0ca1\u0ccd\u0ca1, Badami taluku, Bagalkote district, Karnataka, 587211, India",
            "longitude": "75.815884048161",
            "latitude": "15.9506349",
            "blogLinks": [
                "https://www.tripoto.com/places-to-visit/india/karnataka"
            ],
            "locType": "attraction"
        },
        "betageri": {
            "closest_to": "jog falls",
            "address": "Betageri, Gokak taluku, Belgaum district, Karnataka, India",
            "longitude": "74.9538058",
            "latitude": "16.1144865",
            "blogLinks": [
                "https://www.tripoto.com/places-to-visit/india/karnataka"
            ],
            "locType": "village"
        },
        "shanthinagar": {
            "closest_to": "madikeri",
            "address": "Shanthinagar, Gandhinagar, \u0caa\u0c82\u0c9c\u0cbf\u0cae\u0cca\u0c97\u0cb0\u0cc1, Mangaluru taluk, Dakshina Kannada, Karnataka, 575015, India",
            "longitude": "74.8474067",
            "latitude": "12.9218248",
            "blogLinks": [
                "https://www.tripoto.com/places-to-visit/india/karnataka"
            ],
            "locType": "neighbourhood"
        },
        "raja seat": {
            "closest_to": "madikeri",
            "address": "Raja Seat, Mahatma Gandhi Road, Madikeri, Madikeri taluku, Kodagu, Karnataka, India",
            "longitude": "75.7369653316478",
            "latitude": "12.41421975",
            "blogLinks": [
                "https://www.tripoto.com/places-to-visit/india/karnataka"
            ],
            "locType": "park"
        },
        "siddapur road": {
            "closest_to": "jog falls",
            "address": "Siddapur Road, Boppanalli, Shirasi taluk, Uttara Kannada, Karnataka, India",
            "longitude": "74.8045675",
            "latitude": "14.5657186",
            "blogLinks": [
                "http://traveltriangle.com/blog/places-to-visit-in-coorg/"
            ],
            "locType": "tertiary_link"
        },
        "chennakeshava temple": {
            "closest_to": "madikeri",
            "address": "Chennakeshava Temple, NH73, Arakere, Arasikere taluku, Hassan district, Karnataka, 573112, India",
            "longitude": "76.1294164",
            "latitude": "13.3748908",
            "blogLinks": [
                "https://www.tripoto.com/places-to-visit/india/karnataka"
            ],
            "locType": "place_of_worship"
        },
        "hosagadde": {
            "closest_to": "jog falls",
            "address": "Hosagadde, Kelaginamane, Siddapura taluk, Uttara Kannada, Karnataka, India",
            "longitude": "74.7527463",
            "latitude": "14.3274092",
            "blogLinks": [
                "http://travel.india.com/explore/waterfalls-india/"
            ],
            "locType": "locality"
        },
        "ramanagar": {
            "closest_to": "madikeri",
            "address": "Ramanagar-Kanakapura Road, Avverahalli, Ramanagara taluk, Ramanagara district, Karnataka, 562159, India",
            "longitude": "77.3418018",
            "latitude": "12.649356",
            "blogLinks": [
                "https://www.tripoto.com/places-to-visit/india/karnataka"
            ],
            "locType": "primary"
        },
        "iruppu waterfalls": {
            "closest_to": "madikeri",
            "address": "Iruppu Falls, Virajpet taluk, Kodagu, Karnataka, India",
            "longitude": "75.9839484",
            "latitude": "11.9667954",
            "blogLinks": [
                "https://www.tripoto.com/places-to-visit/india/karnataka",
                "http://traveltriangle.com/blog/waterfalls-near-bangalore/"
            ],
            "locType": "waterfall"
        },
        "brindavan gardens": {
            "closest_to": "madikeri",
            "address": "Brindavan Gardens, Krishnaraja Sagara Road, Krushnarajasagara, Srirangapattana taluk, Mandya district, Karnataka, India",
            "longitude": "76.5741029405883",
            "latitude": "12.4208084",
            "blogLinks": [
                "https://www.tripoto.com/places-to-visit/india/karnataka",
                "http://www.indianholiday.com/blog/places-to-visit-near-bangalore-monsoon-season/",
                "https://www.quora.com/What-are-the-best-places-to-visit-on-a-3-day-trip-in-and-around-Karnataka"
            ],
            "locType": "garden"
        },
        "daria daulat gardens": {
            "closest_to": "madikeri",
            "address": "Daria Daulat Bagh Museum, Bangalore-Mysore Road, Srirangapatna, Srirangapattana taluk, Mandya district, Karnataka, 571438, India",
            "longitude": "76.6969039957315",
            "latitude": "12.4200182",
            "blogLinks": [
                "https://www.quora.com/What-are-the-best-places-to-visit-on-a-3-day-trip-in-and-around-Karnataka"
            ],
            "locType": "museum"
        },
        "kumara parvatha": {
            "closest_to": "madikeri",
            "address": "Kumara Parvatha, Somawarpet taluk, Kodagu, Karnataka, India",
            "longitude": "75.6865652",
            "latitude": "12.6623315",
            "blogLinks": [
                "https://www.tripoto.com/places-to-visit/india/karnataka"
            ],
            "locType": "peak"
        },
        "dattatreya temple": {
            "closest_to": "madikeri",
            "address": "Dattatreya Temple, 7th Main Road, Seven Hills Layout, Ittamadu, Bengaluru, Bangalore Urban, Karnataka, 560001, India",
            "longitude": "77.5401435953887",
            "latitude": "12.92479825",
            "blogLinks": [
                "https://www.tripoto.com/places-to-visit/india/karnataka"
            ],
            "locType": "place_of_worship"
        },
        "golden temple": {
            "closest_to": "madikeri",
            "address": "Padmasambhava Buddhist Vihara (Golden Temple), MDR21, Koppa, Piriyapattana taluk, Mysuru district, Karnataka, India",
            "longitude": "75.9674656",
            "latitude": "12.430821",
            "blogLinks": [
                "https://www.tripoto.com/places-to-visit/india/karnataka",
                "https://www.quora.com/What-are-the-best-places-to-visit-on-a-3-day-trip-in-and-around-Karnataka",
                "http://traveltriangle.com/blog/places-to-visit-in-coorg/"
            ],
            "locType": "place_of_worship"
        },
        "nataraja": {
            "closest_to": "madikeri",
            "address": "Nataraja, Sirur Park Road, Vyalikaval, Seshadripuram, Bengaluru, Bangalore Urban, Karnataka, 560001, India",
            "longitude": "77.5730381173154",
            "latitude": "12.9900332",
            "blogLinks": [
                "https://www.tripoto.com/places-to-visit/india/karnataka",
                "https://www.quora.com/What-are-the-best-places-to-visit-on-a-3-day-trip-in-and-around-Karnataka"
            ],
            "locType": "cinema"
        },
        "kanakapura": {
            "closest_to": "madikeri",
            "address": "Kanakapura, Kanakapura taluk, Ramanagara district, Karnataka, 562117, India",
            "longitude": "77.4199095",
            "latitude": "12.5450268",
            "blogLinks": [
                "https://www.quora.com/What-are-the-best-places-to-visit-in-Karnataka-India"
            ],
            "locType": "town"
        },
        "bangalore karnataka": {
            "closest_to": "madikeri",
            "address": "Bengaluru, Bangalore Urban, Karnataka, 560001, India",
            "longitude": "77.5912997",
            "latitude": "12.9791198",
            "blogLinks": [
                "https://www.quora.com/What-are-the-best-places-to-visit-on-a-3-day-trip-in-and-around-Karnataka"
            ],
            "locType": "city"
        },
        "madhukeshwara temple": {
            "closest_to": "jog falls",
            "address": "Madhukeshwara Temple, Ratha Beedhi, Banavasi, Shirasi taluk, Uttara Kannada, Karnataka, India",
            "longitude": "75.0171155065268",
            "latitude": "14.5352632",
            "blogLinks": [
                "https://www.tripoto.com/places-to-visit/india/karnataka"
            ],
            "locType": "place_of_worship"
        },
        "bahubali": {
            "closest_to": "madikeri",
            "address": "Bahubali Statue, SH8, Shravanabelagola, Channarayapattana taluk, Hassan district, Karnataka, 573135, India",
            "longitude": "76.4846128",
            "latitude": "12.8540505",
            "blogLinks": [
                "https://www.quora.com/What-are-the-best-places-to-visit-on-a-3-day-trip-in-and-around-Karnataka"
            ],
            "locType": "place_of_worship"
        },
        "tamil nadu": {
            "closest_to": "madikeri",
            "address": "KARNATAKA BANK, Diwan Bhadur Road, Five Corner, RS Puram, Coimbatore, Coimbatore district, Tamil Nadu, 641001, India",
            "longitude": "76.9514152",
            "latitude": "11.0025894",
            "blogLinks": [
                "https://www.tripoto.com/places-to-visit/india/karnataka",
                "http://traveltriangle.com/blog/waterfalls-near-bangalore/",
                "https://www.quora.com/What-are-the-best-places-to-visit-on-a-3-day-trip-in-and-around-Karnataka",
                "http://travel.india.com/explore/waterfalls-india/"
            ],
            "locType": "bank"
        },
        "kalyan": {
            "closest_to": "madikeri",
            "address": "Kalyan Nagar, Chelekere, Bangalore Urban, Karnataka, India",
            "longitude": "77.6403368",
            "latitude": "13.0221416",
            "blogLinks": [
                "https://www.quora.com/What-are-the-best-places-to-visit-on-a-3-day-trip-in-and-around-Karnataka"
            ],
            "locType": "suburb"
        },
        "trikuteshwara": {
            "closest_to": "jog falls",
            "address": "Trikuteshwara Temple\u200e, SH6, Betageri, Gadag, Gadag taluk, Gadag district, Karnataka, 582102, India",
            "longitude": "75.6267663445114",
            "latitude": "15.42449145",
            "blogLinks": [
                "https://www.tripoto.com/places-to-visit/india/karnataka"
            ],
            "locType": "place_of_worship"
        },
        "mallikarjuna temple": {
            "closest_to": "jog falls",
            "address": "Mallikarjuna Temple, SH135, Nelavagi, Badami taluku, Bagalkote district, Karnataka, India",
            "longitude": "75.7213492",
            "latitude": "15.9321101",
            "blogLinks": [
                "https://www.tripoto.com/places-to-visit/india/karnataka"
            ],
            "locType": "place_of_worship"
        },
        "maddur": {
            "closest_to": "madikeri",
            "address": "Maddur, Madduru taluk, Mandya district, Karnataka, 571428, India",
            "longitude": "77.0456404",
            "latitude": "12.5851916",
            "blogLinks": [
                "https://www.quora.com/What-are-the-best-places-to-visit-on-a-3-day-trip-in-and-around-Karnataka"
            ],
            "locType": "town"
        },
        "brooklyn": {
            "closest_to": "madikeri",
            "address": "SJR Brooklyn Apartments, AECS Layout, Sitaramapalya, Bangalore Urban, Karnataka, 560048, India",
            "longitude": "77.7132203605819",
            "latitude": "12.97174885",
            "blogLinks": [
                "https://www.quora.com/What-are-the-best-places-to-visit-on-a-3-day-trip-in-and-around-Karnataka"
            ],
            "locType": "residential"
        },
        "yellapur": {
            "closest_to": "jog falls",
            "address": "Yellapura, Yallapura taluk, Uttara Kannada, Karnataka, 581359, India",
            "longitude": "74.7061458",
            "latitude": "14.9622518",
            "blogLinks": [
                "https://www.quora.com/What-are-the-best-places-to-visit-on-a-3-day-trip-in-and-around-Karnataka"
            ],
            "locType": "town"
        },
        "kodachadri": {
            "closest_to": "madikeri",
            "address": "Kodachadri, \u0c95\u0cc1\u0c82\u0ca6\u0cbe\u0caa\u0cc1\u0cb0 \u0ca4\u0cbe\u0cb2\u0cc2\u0c95\u0cc1, Udupi district, Karnataka, India",
            "longitude": "74.8705395",
            "latitude": "13.8565758",
            "blogLinks": [
                "https://www.quora.com/What-are-the-best-places-to-visit-on-a-3-day-trip-in-and-around-Karnataka"
            ],
            "locType": "peak"
        },
        "sangameshwara": {
            "closest_to": "jog falls",
            "address": "Sangameshwara, Kalaghatagi taluku, Dharwad district, Karnataka, India",
            "longitude": "74.87651",
            "latitude": "15.184341",
            "blogLinks": [
                "https://www.quora.com/What-are-the-best-places-to-visit-on-a-3-day-trip-in-and-around-Karnataka"
            ],
            "locType": "village"
        },
        "anekal": {
            "closest_to": "madikeri",
            "address": "Anekal, Bangalore Urban, Karnataka, 562106, India",
            "longitude": "77.6993972",
            "latitude": "12.7086373",
            "blogLinks": [
                "http://traveltriangle.com/blog/waterfalls-near-bangalore/"
            ],
            "locType": "town"
        },
        "siddapur": {
            "closest_to": "madikeri",
            "address": "Siddapur, \u0c95\u0cc1\u0c82\u0ca6\u0cbe\u0caa\u0cc1\u0cb0 \u0ca4\u0cbe\u0cb2\u0cc2\u0c95\u0cc1, Udupi district, Karnataka, 576229, India",
            "longitude": "74.911019",
            "latitude": "13.6626885",
            "blogLinks": [
                "https://www.tripoto.com/places-to-visit/india/karnataka"
            ],
            "locType": "village"
        },
        "river tungabhadra": {
            "closest_to": "jog falls",
            "address": "Tungabhadra, Gangavati taluku, Koppal district, Karnataka, India",
            "longitude": "76.4931607",
            "latitude": "15.3446123",
            "blogLinks": [
                "https://www.tripoto.com/places-to-visit/india/karnataka"
            ],
            "locType": "river"
        },
        "hemakuta hill": {
            "closest_to": "jog falls",
            "address": "Hemakuta Hill, Hosapete taluk, Bellary district, Karnataka, India",
            "longitude": "76.4602971",
            "latitude": "15.332915",
            "blogLinks": [
                "https://www.tripoto.com/places-to-visit/india/karnataka"
            ],
            "locType": "peak"
        },
        "south east": {
            "closest_to": "jog falls",
            "address": "Karnataka, India",
            "longitude": "75.7223521",
            "latitude": "14.5203896",
            "blogLinks": [
                "https://www.tripoto.com/places-to-visit/india/karnataka"
            ],
            "locType": "administrative"
        },
        "venkateshwara temple": {
            "closest_to": "madikeri",
            "address": "Venkateshwara Temple, C J Venkatesa Das Road, Seven Hills Layout, Padmanabha Nagar, Bengaluru, Bangalore Urban, Karnataka, 560001, India",
            "longitude": "77.5588384",
            "latitude": "12.9167091",
            "blogLinks": [
                "https://www.tripoto.com/places-to-visit/india/karnataka"
            ],
            "locType": "place_of_worship"
        },
        "virupaksha temple": {
            "closest_to": "jog falls",
            "address": "Virupaksha Temple, Hampi Bazaar, Hampe, Hosapete taluk, Bellary district, Karnataka, 583239, India",
            "longitude": "76.4587777156223",
            "latitude": "15.3351754",
            "blogLinks": [
                "https://www.tripoto.com/places-to-visit/india/karnataka"
            ],
            "locType": "place_of_worship"
        },
        "halebid": {
            "closest_to": "madikeri",
            "address": "Halebidu, Beluru taluk, Hassan district, Karnataka, 573121, India",
            "longitude": "75.9918793",
            "latitude": "13.2167959",
            "blogLinks": [
                "https://www.tripoto.com/places-to-visit/india/karnataka"
            ],
            "locType": "village"
        },
        "jog falls": {
            "closest_to": "madikeri",
            "address": "Jog Falls, Joga - Kargal, Sagara taluk, Shimoga district, Karnataka, India",
            "longitude": "74.8128715",
            "latitude": "14.2276106",
            "blogLinks": [
                "http://travel.india.com/jog-falls/"
            ],
            "locType": "locality"
        },
        "moodabidri": {
            "closest_to": "madikeri",
            "address": "Moodabidri, Mangaluru taluk, Dakshina Kannada, Karnataka, 574227, India",
            "longitude": "74.9977469",
            "latitude": "13.0699218",
            "blogLinks": [
                "https://www.quora.com/What-are-some-places-to-visit-trip-trek-while-staying-at-NITK-Surathkal-over-the-weekends"
            ],
            "locType": "town"
        },
        "botanical gardens": {
            "closest_to": "madikeri",
            "address": "Botanical Garden, Cart road, Judicial Layout, Jakkur, Bangalore Urban, Karnataka, 560065, India",
            "longitude": "77.5744817798899",
            "latitude": "13.08099125",
            "blogLinks": [
                "https://www.tripoto.com/places-to-visit/india/karnataka"
            ],
            "locType": "protected_area"
        },
        "kudremukh": {
            "closest_to": "madikeri",
            "address": "Kudremukha, Mudigere taluk, Chikkamagaluru district, Karnataka, India",
            "longitude": "75.2523304",
            "latitude": "13.2144007",
            "blogLinks": [
                "https://www.tripoto.com/places-to-visit/india/karnataka"
            ],
            "locType": "village"
        },
        "vidyashankara temple": {
            "closest_to": "madikeri",
            "address": "Sri Vidyashankara Swamy Temple, Sri Vidyateertha Setu, Sringeri, Sringeri taluku, Chikkamagaluru district, Karnataka, 577592, India",
            "longitude": "75.2514472909836",
            "latitude": "13.41567005",
            "blogLinks": [
                "https://www.tripoto.com/places-to-visit/india/karnataka"
            ],
            "locType": "place_of_worship"
        },
        "ritz carlton": {
            "closest_to": "madikeri",
            "address": "Ritz Carlton, FM Cariappa Road (Residency Road), Shantala Nagar, MacIvor Town, Bengaluru, Bangalore Urban, Karnataka, 560001, India",
            "longitude": "77.6015963682898",
            "latitude": "12.9677378",
            "blogLinks": [
                "https://www.tripoto.com/places-to-visit/india/karnataka"
            ],
            "locType": "hotel"
        },
        "lal bagh": {
            "closest_to": "madikeri",
            "address": "Lal Bagh Bus Stop, Mahatma Gandhi Road, Lalbagh, Ladyhill, Mangaluru, Mangaluru taluk, Dakshina Kannada, Karnataka, 575001, India",
            "longitude": "74.8386152",
            "latitude": "12.8859223",
            "blogLinks": [
                "https://www.tripoto.com/places-to-visit/india/karnataka"
            ],
            "locType": "bus_stop"
        },
        "tibet": {
            "closest_to": "madikeri",
            "address": "Tibet Bazaar, Brigade Road, Tasker Town, Ashok Nagar, Bengaluru, Bangalore Urban, Karnataka, 560001, India",
            "longitude": "77.6068828",
            "latitude": "12.9722398",
            "blogLinks": [
                "https://www.tripoto.com/places-to-visit/india/karnataka"
            ],
            "locType": "supermarket"
        },
        "hampi bazaar": {
            "closest_to": "jog falls",
            "address": "Hampi Bazaar, Hampe, Hosapete taluk, Bellary district, Karnataka, 583239, India",
            "longitude": "76.4621571",
            "latitude": "15.3347585",
            "blogLinks": [
                "https://www.tripoto.com/places-to-visit/india/karnataka"
            ],
            "locType": "unclassified"
        },
        "hemavati": {
            "closest_to": "madikeri",
            "address": "Hemavati, Hasana taluk, Hassan district, Karnataka, India",
            "longitude": "76.0723187",
            "latitude": "12.8179996",
            "blogLinks": [
                "https://www.tripoto.com/places-to-visit/india/karnataka"
            ],
            "locType": "river"
        },
        "linganamakki dam": {
            "closest_to": "madikeri",
            "address": "Linganamakki Dam, Sagara taluk, Shimoga district, Karnataka, India",
            "longitude": "74.8464623767123",
            "latitude": "14.1758978",
            "blogLinks": [
                "https://www.tripoto.com/places-to-visit/india/karnataka",
                "http://travel.india.com/jog-falls/"
            ],
            "locType": "dam"
        },
        "dubare": {
            "closest_to": "madikeri",
            "address": "Dubare Elephant Camp, SH91, Dodda Bettageri, Somawarpet taluk, Kodagu, Karnataka, India",
            "longitude": "75.9066719",
            "latitude": "12.3716865",
            "blogLinks": [
                "https://www.quora.com/What-are-the-best-places-to-visit-in-Karnataka-India"
            ],
            "locType": "attraction"
        },
        "iruppu falls": {
            "closest_to": "madikeri",
            "address": "Iruppu Falls, SH89, Taila, Virajpet taluk, Kodagu, Karnataka, 571217, India",
            "longitude": "75.9839484",
            "latitude": "11.9667954",
            "blogLinks": [
                "http://www.indiatravelblog.com/resources/3890-Places-to-visit-Coorg.aspx",
                "https://www.tripoto.com/places-to-visit/india/karnataka",
                "https://www.quora.com/What-are-the-best-places-to-visit-on-a-3-day-trip-in-and-around-Karnataka"
            ],
            "locType": "attraction"
        },
        "outer ring road": {
            "closest_to": "madikeri",
            "address": "Outer Ring Road, Green Glen Layout, Iblur, Bengaluru, Bangalore Urban, Karnataka, 560001, India",
            "longitude": "77.6632088",
            "latitude": "12.9210769",
            "blogLinks": [
                "https://www.tripoto.com/places-to-visit/india/karnataka"
            ],
            "locType": "trunk"
        },
        "sakleshpur": {
            "closest_to": "madikeri",
            "address": "Sakaleshpura, Sakaleshapura taluk, Hassan district, Karnataka, 573134, India",
            "longitude": "75.7862318",
            "latitude": "12.9434349",
            "blogLinks": [
                "https://www.tripoto.com/places-to-visit/india/karnataka",
                "https://www.quora.com/What-are-the-best-places-to-visit-on-a-3-day-trip-in-and-around-Karnataka"
            ],
            "locType": "town"
        },
        "tadiyandamol": {
            "closest_to": "madikeri",
            "address": "Tadiandamol, Madikeri taluku, Kodagu, Karnataka, India",
            "longitude": "75.608815",
            "latitude": "12.2175641",
            "blogLinks": [
                "https://www.tripoto.com/places-to-visit/india/karnataka"
            ],
            "locType": "peak"
        },
        "varada": {
            "closest_to": "jog falls",
            "address": "Varada, Savanura taluk, Haveri district, Karnataka, India",
            "longitude": "75.47206",
            "latitude": "14.8717792",
            "blogLinks": [
                "http://www.nivalink.com/destination/jog-falls"
            ],
            "locType": "river"
        },
        "old madras road": {
            "closest_to": "madikeri",
            "address": "Old Madras Road, Devasandra, ITI Colony, Garudacharpalya, Bangalore Urban, Karnataka, 560048, India",
            "longitude": "77.689988",
            "latitude": "13.0076952",
            "blogLinks": [
                "https://www.tripoto.com/places-to-visit/india/karnataka"
            ],
            "locType": "trunk"
        },
        "food park": {
            "closest_to": "madikeri",
            "address": "Defence Food Research Laboratory, Bannur Road, Alanahalli, Gayathripuram, Mysuru, Mysuru taluk, Mysuru district, Karnataka, 570001, India",
            "longitude": "76.6791809",
            "latitude": "12.3093358",
            "blogLinks": [
                "https://www.tripoto.com/places-to-visit/india/karnataka"
            ],
            "locType": "research"
        },
        "tagore beach": {
            "closest_to": "jog falls",
            "address": "Rabindranath Tagore Beach, NH66, Kodibag, Karwar, Karavara taluk, Uttara Kannada, Karnataka, 581300, India",
            "longitude": "74.126114099183",
            "latitude": "14.81741155",
            "blogLinks": [
                "https://www.quora.com/What-are-the-best-places-to-visit-on-a-3-day-trip-in-and-around-Karnataka"
            ],
            "locType": "beach"
        },
        "tunga river": {
            "closest_to": "madikeri",
            "address": "Tunga, Tirthahalli taluk, Shimoga district, Karnataka, India",
            "longitude": "75.3221835",
            "latitude": "13.6632221",
            "blogLinks": [
                "https://www.tripoto.com/places-to-visit/india/karnataka"
            ],
            "locType": "river"
        },
        "chamundi hill": {
            "closest_to": "madikeri",
            "address": "Chamundi Hill, Mysuru, Mysuru taluk, Mysuru district, Karnataka, 570001, India",
            "longitude": "76.6703937",
            "latitude": "12.2724017",
            "blogLinks": [
                "https://www.tripoto.com/places-to-visit/india/karnataka",
                "https://www.quora.com/What-are-the-best-places-to-visit-on-a-3-day-trip-in-and-around-Karnataka"
            ],
            "locType": "peak"
        },
        "m.g": {
            "closest_to": "jog falls",
            "address": "Karnataka, India",
            "longitude": "75.7223521",
            "latitude": "14.5203896",
            "blogLinks": [
                "https://www.tripoto.com/places-to-visit/india/karnataka"
            ],
            "locType": "administrative"
        },
        "mullodi": {
            "closest_to": "madikeri",
            "address": "Mullodi, Balgallu, Mudigere taluk, Chikkamagaluru district, Karnataka, India",
            "longitude": "75.3068537",
            "latitude": "13.1622376",
            "blogLinks": [
                "https://www.tripoto.com/places-to-visit/india/karnataka"
            ],
            "locType": "locality"
        },
        "ujire": {
            "closest_to": "madikeri",
            "address": "Ujire, Beltangadi taluk, Dakshina Kannada, Karnataka, India",
            "longitude": "75.3301061",
            "latitude": "12.9954619",
            "blogLinks": [
                "https://www.quora.com/What-are-the-best-places-to-visit-in-Karnataka-India"
            ],
            "locType": "village"
        },
        "belur": {
            "closest_to": "madikeri",
            "address": "Belur, Beluru taluk, Hassan district, Karnataka, 573115, India",
            "longitude": "75.8634851",
            "latitude": "13.1645671",
            "blogLinks": [
                "https://www.tripoto.com/places-to-visit/india/karnataka"
            ],
            "locType": "town"
        },
        "varada river": {
            "closest_to": "jog falls",
            "address": "Varada, Savanura taluk, Haveri district, Karnataka, India",
            "longitude": "75.47206",
            "latitude": "14.8717792",
            "blogLinks": [
                "https://www.tripoto.com/places-to-visit/india/karnataka"
            ],
            "locType": "river"
        },
        "karwar": {
            "closest_to": "jog falls",
            "address": "Karwar, Karavara taluk, Uttara Kannada, Karnataka, 581300, India",
            "longitude": "74.1319229",
            "latitude": "14.8120931",
            "blogLinks": [
                "https://www.tripoto.com/places-to-visit/india/karnataka"
            ],
            "locType": "town"
        },
        "kodagu": {
            "closest_to": "madikeri",
            "address": "Kodagu, Karnataka, India",
            "longitude": "75.6677235950852",
            "latitude": "12.38117345",
            "blogLinks": [
                "https://www.quora.com/What-are-the-best-places-to-visit-in-Karnataka-India",
                "https://www.tripoto.com/places-to-visit/india/karnataka",
                "https://www.quora.com/What-are-the-best-places-to-visit-on-a-3-day-trip-in-and-around-Karnataka"
            ],
            "locType": "administrative"
        },
        "river kali": {
            "closest_to": "jog falls",
            "address": "Kali, Joida taluk, Uttara Kannada, Karnataka, India",
            "longitude": "74.5802901",
            "latitude": "15.0145378",
            "blogLinks": [
                "https://www.tripoto.com/places-to-visit/india/karnataka"
            ],
            "locType": "river"
        },
        "murudeshwara temple": {
            "closest_to": "jog falls",
            "address": "Murudeshwara Temple, NH66, Manki, Honnavara taluku, Uttara Kannada, Karnataka, 581348, India",
            "longitude": "74.484753966647",
            "latitude": "14.0934908",
            "blogLinks": [
                "https://www.tripoto.com/places-to-visit/india/karnataka"
            ],
            "locType": "place_of_worship"
        },
        "hill station": {
            "closest_to": "jog falls",
            "address": "Karnataka, India",
            "longitude": "75.7223521",
            "latitude": "14.5203896",
            "blogLinks": [
                "https://www.tripoto.com/places-to-visit/india/karnataka"
            ],
            "locType": "administrative"
        },
        "suntikoppa": {
            "closest_to": "jog falls",
            "address": "Suntikoppa, Sagara taluk, Shimoga district, Karnataka, India",
            "longitude": "74.9911155",
            "latitude": "14.3166038",
            "blogLinks": [
                "http://traveltriangle.com/blog/places-to-visit-in-coorg/"
            ],
            "locType": "village"
        },
        "dakshina kannada": {
            "closest_to": "madikeri",
            "address": "Dakshina Kannada, Karnataka, India",
            "longitude": "75.1008028650794",
            "latitude": "12.8114089",
            "blogLinks": [
                "https://www.quora.com/What-are-the-best-places-to-visit-in-Karnataka-India",
                "https://www.quora.com/What-are-the-best-places-to-visit-on-a-3-day-trip-in-and-around-Karnataka"
            ],
            "locType": "administrative"
        },
        "kutta": {
            "closest_to": "madikeri",
            "address": "Kutta, Virajpet taluk, Kodagu, Karnataka, India",
            "longitude": "76.0491296",
            "latitude": "11.9696155",
            "blogLinks": [
                "https://www.tripoto.com/places-to-visit/india/karnataka"
            ],
            "locType": "village"
        },
        "rashtrakavi kuvempu": {
            "closest_to": "madikeri",
            "address": "Rashtrakavi Kuvempu Road, Mico Arekere Layout 1st Stage, Hulimavu, Beguru, Bangalore Urban, Karnataka, 560076, India",
            "longitude": "77.6068684",
            "latitude": "12.8866766",
            "blogLinks": [
                "https://www.quora.com/What-are-the-best-places-to-visit-on-a-3-day-trip-in-and-around-Karnataka"
            ],
            "locType": "residential"
        },
        "sharavati": {
            "closest_to": "jog falls",
            "address": "Sharavati, Sagara taluk, Shimoga district, Karnataka, India",
            "longitude": "74.7647294",
            "latitude": "14.2360979",
            "blogLinks": [
                "https://www.quora.com/What-are-the-best-places-to-visit-on-a-3-day-trip-in-and-around-Karnataka"
            ],
            "locType": "river"
        },
        "coimbatore": {
            "closest_to": "madikeri",
            "address": "Gundlupet - Coimbatore Highway, Bandipur, Gundlupet taluk, Chamarajanagar district, Karnataka, India",
            "longitude": "76.6318246",
            "latitude": "11.6793976",
            "blogLinks": [
                "https://www.tripoto.com/places-to-visit/india/karnataka"
            ],
            "locType": "trunk"
        },
        "malpe beach": {
            "closest_to": "madikeri",
            "address": "Malpe Beach, Malpe Road, Adi Udupi, Malpe, Udupi taluku, Udupi district, Karnataka, 576101, India",
            "longitude": "74.6977767",
            "latitude": "13.3610748",
            "blogLinks": [
                "https://www.tripoto.com/places-to-visit/india/karnataka"
            ],
            "locType": "marina"
        },
        "nugu": {
            "closest_to": "madikeri",
            "address": "Nugu, Heggadadevanakote taluk, Mysuru district, Karnataka, India",
            "longitude": "76.4213276",
            "latitude": "11.8823658",
            "blogLinks": [
                "https://www.tripoto.com/places-to-visit/india/karnataka"
            ],
            "locType": "river"
        },
        "madikeri fort": {
            "closest_to": "madikeri",
            "address": "Madikeri Museum, Fort Internal Road, Madikeri, Madikeri taluku, Kodagu, Karnataka, India",
            "longitude": "75.7392494",
            "latitude": "12.4203606",
            "blogLinks": [
                "http://www.indiatravelblog.com/resources/3890-Places-to-visit-Coorg.aspx",
                "https://www.tripoto.com/places-to-visit/india/karnataka"
            ],
            "locType": "museum"
        },
        "chikmagalur": {
            "closest_to": "madikeri",
            "address": "Chikmagalur, Chikkamagaluru district, Karnataka, India",
            "longitude": "75.5",
            "latitude": "13.5",
            "blogLinks": [
                "https://www.tripoto.com/places-to-visit/india/karnataka"
            ],
            "locType": "county"
        },
        "thirthahalli": {
            "closest_to": "madikeri",
            "address": "Thirthahalli - Udupi Highway, Shivapura, Karkala taluk, Udupi district, Karnataka, India",
            "longitude": "74.9626368",
            "latitude": "13.4265327",
            "blogLinks": [
                "https://www.quora.com/What-are-some-places-to-visit-trip-trek-while-staying-at-NITK-Surathkal-over-the-weekends"
            ],
            "locType": "trunk"
        },
        "north west mysore": {
            "closest_to": "madikeri",
            "address": "Mysuru, Mysuru taluk, Mysuru district, Karnataka, 570001, India",
            "longitude": "76.6553609",
            "latitude": "12.3051828",
            "blogLinks": [
                "https://www.tripoto.com/places-to-visit/india/karnataka"
            ],
            "locType": "city"
        },
        "panambur - panambur beach": {
            "closest_to": "madikeri",
            "address": "Panambur Beach, Panambur Beach Road, Gandhinagar, Panambur, Mangaluru taluk, Dakshina Kannada, Karnataka, 575013, India",
            "longitude": "74.8034667207214",
            "latitude": "12.93907195",
            "blogLinks": [
                "https://www.quora.com/What-are-the-best-places-to-visit-on-a-3-day-trip-in-and-around-Karnataka"
            ],
            "locType": "beach"
        },
        "goa karnataka": {
            "closest_to": "madikeri",
            "address": "Carnival De Goa, Bhaskaran Road, Gupta Layout, Halasuru, Bengaluru, Bangalore Urban, Karnataka, 560001, India",
            "longitude": "77.6200027",
            "latitude": "12.9750047",
            "blogLinks": [
                "https://www.tripoto.com/places-to-visit/india/karnataka"
            ],
            "locType": "restaurant"
        },
        "mysore palace": {
            "closest_to": "madikeri",
            "address": "Mysore Palace, Sayyaji Rao Road, Vani Vilas, Mysuru, Mysuru taluk, Mysuru district, Karnataka, 570001, India",
            "longitude": "76.6539249338108",
            "latitude": "12.3052915",
            "blogLinks": [
                "https://www.tripoto.com/places-to-visit/india/karnataka"
            ],
            "locType": "yes"
        },
        "uttarahalli": {
            "closest_to": "madikeri",
            "address": "Uttarahalli, Bengaluru, Bangalore Urban, Karnataka, 560001, India",
            "longitude": "77.5455438",
            "latitude": "12.9055682",
            "blogLinks": [
                "https://www.tripoto.com/places-to-visit/india/karnataka"
            ],
            "locType": "suburb"
        },
        "sharadamba temple": {
            "closest_to": "madikeri",
            "address": "Sharadamba Temple, 7th Main Road, Yediyur, Thyagaraja Nagar, Bengaluru, Bangalore Urban, Karnataka, 560001, India",
            "longitude": "77.5656194",
            "latitude": "12.9321898",
            "blogLinks": [
                "https://www.tripoto.com/places-to-visit/india/karnataka"
            ],
            "locType": "place_of_worship"
        },
        "london": {
            "closest_to": "jog falls",
            "address": "Karnataka, India",
            "longitude": "75.7223521",
            "latitude": "14.5203896",
            "blogLinks": [
                "https://www.tripoto.com/places-to-visit/india/karnataka"
            ],
            "locType": "administrative"
        },
        "mullayanagiri range": {
            "closest_to": "madikeri",
            "address": "Mullayyanagiri, Chikkamagaluru, Chikkamagaluru taluku, Chikkamagaluru district, Karnataka, 577101, India",
            "longitude": "75.7214034",
            "latitude": "13.3909217",
            "blogLinks": [
                "https://www.quora.com/What-are-the-best-places-to-visit-on-a-3-day-trip-in-and-around-Karnataka"
            ],
            "locType": "peak"
        },
        "marikamba temple": {
            "closest_to": "madikeri",
            "address": "Marikamba Temple, NH766C;SH26, Halkal, \u0c95\u0cc1\u0c82\u0ca6\u0cbe\u0caa\u0cc1\u0cb0 \u0ca4\u0cbe\u0cb2\u0cc2\u0c95\u0cc1, Udupi district, Karnataka, 576220, India",
            "longitude": "74.8103631279317",
            "latitude": "13.8626958",
            "blogLinks": [
                "https://www.quora.com/What-are-the-best-places-to-visit-on-a-3-day-trip-in-and-around-Karnataka"
            ],
            "locType": "place_of_worship"
        },
        "kabini river": {
            "closest_to": "madikeri",
            "address": "Kabini right bank canal, Nanjanagudu taluk, Mysuru district, Karnataka, India",
            "longitude": "76.6477184",
            "latitude": "12.0780998",
            "blogLinks": [
                "https://www.tripoto.com/places-to-visit/india/karnataka"
            ],
            "locType": "canal"
        },
        "mandya district": {
            "closest_to": "madikeri",
            "address": "Mandya district, Karnataka, India",
            "longitude": "76.7302318329607",
            "latitude": "12.6336348",
            "blogLinks": [
                "https://www.tripoto.com/places-to-visit/india/karnataka"
            ],
            "locType": "administrative"
        },
        "kanakapura taluk": {
            "closest_to": "madikeri",
            "address": "Kanakapura taluk, Ramanagara district, Karnataka, India",
            "longitude": "77.4224204245398",
            "latitude": "12.5199223",
            "blogLinks": [
                "https://www.quora.com/What-are-the-best-places-to-visit-in-Karnataka-India",
                "https://www.tripoto.com/places-to-visit/india/karnataka"
            ],
            "locType": "administrative"
        },
        "rose garden": {
            "closest_to": "madikeri",
            "address": "Rose Garden, Dr B R Ambedkar Veedhi, Shantala Nagar, Gandhinagar, Bengaluru, Bangalore Urban, Karnataka, 560001, India",
            "longitude": "77.590382853852",
            "latitude": "12.97371325",
            "blogLinks": [
                "https://www.tripoto.com/places-to-visit/india/karnataka",
                "https://www.quora.com/What-are-the-best-places-to-visit-on-a-3-day-trip-in-and-around-Karnataka"
            ],
            "locType": "garden"
        },
        "rock garden": {
            "closest_to": "madikeri",
            "address": "Waterfalls by the Rock site, Madikeri taluku, Kodagu, Karnataka, India",
            "longitude": "75.6142269",
            "latitude": "12.2248591",
            "blogLinks": [
                "https://www.tripoto.com/places-to-visit/india/karnataka"
            ],
            "locType": "waterfall"
        },
        "orissa": {
            "closest_to": "madikeri",
            "address": "Little Orissa, 18th Main Road, Babasaheb Colony, Kodihalli, Bengaluru, Bangalore Urban, Karnataka, 560001, India",
            "longitude": "77.6448007",
            "latitude": "12.9622425",
            "blogLinks": [
                "https://www.tripoto.com/places-to-visit/india/karnataka"
            ],
            "locType": "restaurant"
        },
        "shalimar gardens": {
            "closest_to": "madikeri",
            "address": "Shalimar, Chinmaya Mission Hospital Road, Indiranagar 1st Stage, Hoysala Nagar, Bengaluru, Bangalore Urban, Karnataka, 560001, India",
            "longitude": "77.6373978",
            "latitude": "12.9783904",
            "blogLinks": [
                "http://www.indianholiday.com/blog/places-to-visit-near-bangalore-monsoon-season/"
            ],
            "locType": "hotel"
        },
        "annapoorneshwari temple": {
            "closest_to": "madikeri",
            "address": "Sri Ambika Annapoorneshwari Temple, SH101, Sunkadakatte, Mangaluru taluk, Dakshina Kannada, Karnataka, India",
            "longitude": "74.9006001",
            "latitude": "12.97910715",
            "blogLinks": [
                "https://www.tripoto.com/places-to-visit/india/karnataka"
            ],
            "locType": "place_of_worship"
        },
        "hampi": {
            "closest_to": "jog falls",
            "address": "Hampe, Hosapete taluk, Bellary district, Karnataka, 583239, India",
            "longitude": "76.4606199",
            "latitude": "15.3359769",
            "blogLinks": [
                "https://www.quora.com/What-are-the-best-places-to-visit-in-Karnataka-India",
                "https://www.tripoto.com/places-to-visit/india/karnataka",
                "https://www.quora.com/What-are-the-best-places-to-visit-on-a-3-day-trip-in-and-around-Karnataka"
            ],
            "locType": "village"
        },
        "manchanabele": {
            "closest_to": "madikeri",
            "address": "Manchanabele, Magadi taluku, Ramanagara district, Karnataka, India",
            "longitude": "77.3344212",
            "latitude": "12.8668921",
            "blogLinks": [
                "https://www.quora.com/What-are-the-best-places-to-visit-in-Karnataka-India"
            ],
            "locType": "village"
        },
        "sunset point": {
            "closest_to": "jog falls",
            "address": "Sunset Point, Hampi Kamalapura Road, Hampe, Hosapete taluk, Bellary district, Karnataka, 583239, India",
            "longitude": "76.4594093",
            "latitude": "15.3326761",
            "blogLinks": [
                "https://www.tripoto.com/places-to-visit/india/karnataka"
            ],
            "locType": "viewpoint"
        },
        "maravante": {
            "closest_to": "madikeri",
            "address": "Maravante, \u0c95\u0cc1\u0c82\u0ca6\u0cbe\u0caa\u0cc1\u0cb0 \u0ca4\u0cbe\u0cb2\u0cc2\u0c95\u0cc1, Udupi district, Karnataka, India",
            "longitude": "74.6428565",
            "latitude": "13.7248514",
            "blogLinks": [
                "https://www.quora.com/What-are-the-best-places-to-visit-in-Karnataka-India"
            ],
            "locType": "village"
        },
        "chunchi falls": {
            "closest_to": "madikeri",
            "address": "Chunchi Falls, Kanakapura taluk, Ramanagara district, Karnataka, India",
            "longitude": "77.4459464",
            "latitude": "12.3515083",
            "blogLinks": [
                "https://www.tripoto.com/places-to-visit/india/karnataka",
                "http://traveltriangle.com/blog/waterfalls-near-bangalore/"
            ],
            "locType": "waterfall"
        },
        "sanapur lake": {
            "closest_to": "jog falls",
            "address": "Sanapura Kere, Sanapura, Gangavati taluku, Koppal district, Karnataka, India",
            "longitude": "76.4294274988777",
            "latitude": "15.35823095",
            "blogLinks": [
                "https://www.tripoto.com/places-to-visit/india/karnataka"
            ],
            "locType": "reservoir"
        },
        "ramanagar district": {
            "closest_to": "madikeri",
            "address": "Ramanagar-Kanakapura Road, Avverahalli, Ramanagara taluk, Ramanagara district, Karnataka, 562159, India",
            "longitude": "77.3418018",
            "latitude": "12.649356",
            "blogLinks": [
                "https://www.tripoto.com/places-to-visit/india/karnataka"
            ],
            "locType": "primary"
        },
        "kukke": {
            "closest_to": "madikeri",
            "address": "Kukke, Tirthahalli taluk, Shimoga district, Karnataka, India",
            "longitude": "75.3076538",
            "latitude": "13.7523964",
            "blogLinks": [
                "https://www.tripoto.com/places-to-visit/india/karnataka"
            ],
            "locType": "village"
        },
        "ooty lake": {
            "closest_to": "madikeri",
            "address": "Ooty Road, Vidyaranyapuram, Mysuru, Mysuru taluk, Mysuru district, Karnataka, 570001, India",
            "longitude": "76.6586807",
            "latitude": "12.2774807",
            "blogLinks": [
                "https://www.quora.com/What-are-the-best-places-to-visit-on-a-3-day-trip-in-and-around-Karnataka"
            ],
            "locType": "primary"
        },
        "new delhi": {
            "closest_to": "madikeri",
            "address": "Regional Institute of Education, Chaduranga Road, Jayalakshmipuram, Mysuru, Mysuru taluk, Mysuru district, Karnataka, 570001, India",
            "longitude": "76.6142178649055",
            "latitude": "12.30911465",
            "blogLinks": [
                "http://www.indianholiday.com/blog/places-to-visit-near-bangalore-monsoon-season/"
            ],
            "locType": "college"
        },
        "bababudan range": {
            "closest_to": "madikeri",
            "address": "Baba Budangiri, Chikkamagaluru, Chikkamagaluru taluku, Chikkamagaluru district, Karnataka, 577101, India",
            "longitude": "75.7606996",
            "latitude": "13.4210884",
            "blogLinks": [
                "https://www.tripoto.com/places-to-visit/india/karnataka"
            ],
            "locType": "peak"
        },
        "bandipur": {
            "closest_to": "madikeri",
            "address": "Bandipur, Gundlupet taluk, Chamarajanagar district, Karnataka, India",
            "longitude": "76.6285739",
            "latitude": "11.6662708",
            "blogLinks": [
                "https://www.tripoto.com/places-to-visit/india/karnataka"
            ],
            "locType": "village"
        },
        "kalyani": {
            "closest_to": "madikeri",
            "address": "Kalyani, Neeladri Road, Electronics City Phase 1, Bettadasana Pura, Bangalore Urban, Karnataka, 560100, India",
            "longitude": "77.6286090192686",
            "latitude": "12.8406466",
            "blogLinks": [
                "https://www.tripoto.com/places-to-visit/india/karnataka"
            ],
            "locType": "water"
        },
        "bandipur national park": {
            "closest_to": "madikeri",
            "address": "Bandipur National Park, Kozhikode - Kollegal Highway, Gundlupet taluk, Chamarajanagar district, Karnataka, India",
            "longitude": "76.4314968740264",
            "latitude": "11.76682425",
            "blogLinks": [
                "https://www.quora.com/What-are-the-best-places-to-visit-in-Karnataka-India",
                "https://www.tripoto.com/places-to-visit/india/karnataka",
                "https://www.quora.com/What-are-the-best-places-to-visit-on-a-3-day-trip-in-and-around-Karnataka"
            ],
            "locType": "national_park"
        },
        "shiva temple": {
            "closest_to": "madikeri",
            "address": "Shiva Temple, Mangammanapalaya Main Road, Sector 2, HSR Layout, Bengaluru, Bangalore Urban, Karnataka, 560001, India",
            "longitude": "77.6406296",
            "latitude": "12.9046749",
            "blogLinks": [
                "https://www.tripoto.com/places-to-visit/india/karnataka"
            ],
            "locType": "place_of_worship"
        },
        "kodagu district of karnataka": {
            "closest_to": "madikeri",
            "address": "Kodagu Kaloni, Hunasuru taluk, Mysuru district, Karnataka, India",
            "longitude": "76.2818865",
            "latitude": "12.2335192",
            "blogLinks": [
                "https://www.tripoto.com/places-to-visit/india/karnataka"
            ],
            "locType": "village"
        },
        "summer palace": {
            "closest_to": "madikeri",
            "address": "Tippu's Summer Palace, A V Road, Ranasingpet, Kalasipalya, Bengaluru, Bangalore Urban, Karnataka, 560 002, India",
            "longitude": "77.5736841970666",
            "latitude": "12.95964655",
            "blogLinks": [
                "https://www.tripoto.com/places-to-visit/india/karnataka"
            ],
            "locType": "attraction"
        },
        "hindupur": {
            "closest_to": "madikeri",
            "address": "Hindupur ByPass Road, Bachchahalli, Doddaballapura taluk, Bangalore Rural, Karnataka, India",
            "longitude": "77.5237128",
            "latitude": "13.3580171",
            "blogLinks": [
                "https://www.quora.com/What-are-the-best-places-to-visit-in-Karnataka-India"
            ],
            "locType": "primary"
        },
        "chelavara falls": {
            "closest_to": "madikeri",
            "address": "Chelavara Falls, Madikeri taluku, Kodagu, Karnataka, India",
            "longitude": "75.6734811730693",
            "latitude": "12.20601005",
            "blogLinks": [
                "http://www.holidayiq.com/Madikeri-Sightseeing-1276.html"
            ],
            "locType": "waterfall"
        },
        "kigga": {
            "closest_to": "madikeri",
            "address": "Kigga, Sringeri taluku, Chikkamagaluru district, Karnataka, 577139, India",
            "longitude": "75.1903656777356",
            "latitude": "13.41691525",
            "blogLinks": [
                "https://www.tripoto.com/places-to-visit/india/karnataka"
            ],
            "locType": "village"
        },
        "vittala": {
            "closest_to": "madikeri",
            "address": "Vijaya Vittala PU College, Sahukar Chennaiah Road, Sarasvatipuram, Mysuru, Mysuru taluk, Mysuru district, Karnataka, 570001, India",
            "longitude": "76.6237847175927",
            "latitude": "12.30129655",
            "blogLinks": [
                "https://www.tripoto.com/places-to-visit/india/karnataka"
            ],
            "locType": "yes"
        },
        "silk town of karnataka": {
            "closest_to": "madikeri",
            "address": "Sara: The Silk Store, Museum Road, Shantala Nagar, Ashok Nagar, Bengaluru, Bangalore Urban, Karnataka, 560001, India",
            "longitude": "77.6026229",
            "latitude": "12.975886",
            "blogLinks": [
                "https://www.tripoto.com/places-to-visit/india/karnataka"
            ],
            "locType": "fabric"
        },
        "sharavathi river": {
            "closest_to": "madikeri",
            "address": "Sharavathi Block, National Games Village Road, Ambedkar Nagar, Ejipura, Bengaluru, Bangalore Urban, Karnataka, 560001, India",
            "longitude": "77.6216184337102",
            "latitude": "12.9464709",
            "blogLinks": [
                "http://travel.india.com/jog-falls/",
                "http://www.nivalink.com/destination/jog-falls",
                "http://www.indianholiday.com/blog/places-to-visit-near-bangalore-monsoon-season/",
                "http://www.indiatravelblog.com/resources/3890-Places-to-visit-Coorg.aspx",
                "https://www.tripoto.com/places-to-visit/india/karnataka",
                "http://travel.india.com/explore/waterfalls-india/"
            ],
            "locType": "yes"
        },