{
    "nandi hills": {
        "place_id": "146373589",
        "osm_id": "369233221",
        "icon": "https://nominatim.openstreetmap.org/images/mapicons/accommodation_hotel2.p.20.png",
        "osm_type": "way",
        "licence": "Data \u00a9 OpenStreetMap contributors, ODbL 1.0. http://www.openstreetmap.org/copyright",
        "display_name": "Nandi Upahara, Nandhi Hills Road, Kottige Thimmanahalli, Devanahalli taluk, Bangalore Rural, Karnataka, India",
        "type": "hotel",
        "lon": "77.7194741670394",
        "boundingbox": [
            "13.2675644",
            "13.2688204",
            "77.7191326",
            "77.7199363"
        ],
        "importance": 0.301,
        "lat": "13.268142",
        "class": "tourism"
    },
    "mentions": {
        "badami": {
            "closest_to": "jog falls",
            "address": "Badami, Badami taluku, Bagalkote district, Karnataka, 587200, India",
            "longitude": "75.6807865",
            "latitude": "15.9203874",
            "blogLinks": [
                "https://www.quora.com/What-are-the-best-places-to-visit-on-a-3-day-trip-in-and-around-Karnataka",
                "https://www.tripoto.com/places-to-visit/india/karnataka"
            ],
            "locType": "town"
        },
        "himavad gopalaswamy betta": {
            "closest_to": "nandi hills",
            "address": "Gopalaswami Temple, Gopal Swami Betta road, Devarahalli, Gundlupet taluk, Chamarajanagar district, Karnataka, India",
            "longitude": "76.5804063",
            "latitude": "11.7206016",
            "blogLinks": [
                "https://www.tripoto.com/places-to-visit/india/karnataka"
            ],
            "locType": "place_of_worship"
        },
        "ramanagar": {
            "closest_to": "nandi hills",
            "address": "Ramanagar-Kanakapura Road, Avverahalli, Ramanagara taluk, Ramanagara district, Karnataka, 562159, India",
            "longitude": "77.3418018",
            "latitude": "12.649356",
            "blogLinks": [
                "https://www.tripoto.com/places-to-visit/india/karnataka"
            ],
            "locType": "primary"
        },
        "belgaum": {
            "closest_to": "jog falls",
            "address": "Belgaum, Belgaum district, Karnataka, India",
            "longitude": "74.75",
            "latitude": "16.333333",
            "blogLinks": [
                "https://www.quora.com/What-are-the-best-places-to-visit-on-a-3-day-trip-in-and-around-Karnataka"
            ],
            "locType": "county"
        },
        "chamarajanagar": {
            "closest_to": "nandi hills",
            "address": "Chamarajanagar, Nanjangudu-Chamarajanagar Road, Kadahalli, Chamarajanagara taluk, Chamarajanagar district, Karnataka, 571313, India",
            "longitude": "76.9331345",
            "latitude": "11.9346624",
            "blogLinks": [
                "https://www.quora.com/What-are-the-best-places-to-visit-on-a-3-day-trip-in-and-around-Karnataka"
            ],
            "locType": "station"
        },
        "mysore - mandya": {
            "closest_to": "nandi hills",
            "address": "Mysore Road, Somanahalli, Madduru taluk, Mandya district, Karnataka, 571428, India",
            "longitude": "77.0544201",
            "latitude": "12.6121234",
            "blogLinks": [
                "https://www.tripoto.com/places-to-visit/india/karnataka"
            ],
            "locType": "trunk"
        },
        "tungabadhra river": {
            "closest_to": "nandi hills",
            "address": "Tungabadhra Dam, Hosapete taluk, Bellary district, Karnataka, India",
            "longitude": "76.3337165",
            "latitude": "15.2635742",
            "blogLinks": [
                "https://www.tripoto.com/places-to-visit/india/karnataka"
            ],
            "locType": "dam"
        },
        "south": {
            "closest_to": "nandi hills",
            "address": "s, Vijayapura, Devanahalli taluk, Bangalore Rural, Karnataka, 562135, India",
            "longitude": "77.8040874",
            "latitude": "13.2942848",
            "blogLinks": [
                "http://www.myhappyjourney.com/Karnataka",
                "https://www.quora.com/What-are-the-best-places-to-visit-on-a-3-day-trip-in-and-around-Karnataka",
                "https://www.tripoto.com/places-to-visit/india/karnataka"
            ],
            "locType": "residential"
        },
        "amboli": {
            "closest_to": "jog falls",
            "address": "Amboli, Khanapura taluku, Belgaum district, Karnataka, India",
            "longitude": "74.4340839",
            "latitude": "15.6456171",
            "blogLinks": [
                "https://www.quora.com/What-are-the-best-places-to-visit-on-a-3-day-trip-in-and-around-Karnataka"
            ],
            "locType": "village"
        },
        "karantaka": {
            "closest_to": "nandi hills",
            "address": "OBG & Paediatrics Block, Shamanur Road, K.T. Jambanna Nagara, Davanagere, Davanagere taluku, Davanagere district, Karnataka, 577004, India",
            "longitude": "75.9173315988071",
            "latitude": "14.45753495",
            "blogLinks": [
                "https://www.tripoto.com/places-to-visit/india/karnataka"
            ],
            "locType": "hospital"
        },
        "mahabaleshwara": {
            "closest_to": "nandi hills",
            "address": "Mahabaleshwara Temple, Mission Road (Kalinga Rao Road ), Sampangirama Nagar, Shanti Nagar, Bengaluru, Bangalore Urban, Karnataka, 560001, India",
            "longitude": "77.5899749843004",
            "latitude": "12.96264945",
            "blogLinks": [
                "https://www.quora.com/What-are-the-best-places-to-visit-on-a-3-day-trip-in-and-around-Karnataka"
            ],
            "locType": "place_of_worship"
        },
        "devanhalli": {
            "closest_to": "nandi hills",
            "address": "Devanahalli, Devanahalli taluk, Bangalore Rural, Karnataka, India",
            "longitude": "77.7134377",
            "latitude": "13.2483502",
            "blogLinks": [
                "http://wikitravel.org/en/Nandi_Hills"
            ],
            "locType": "town"
        },
        "rain-tree": {
            "closest_to": "nandi hills",
            "address": "Rain Tree, 3rd Main Road, Defence Colony, Hoysala Nagar, Bengaluru, Bangalore Urban, Karnataka, 560001, India",
            "longitude": "77.6414765",
            "latitude": "12.9757365",
            "blogLinks": [
                "https://www.tripoto.com/places-to-visit/india/karnataka"
            ],
            "locType": "tree"
        },
        "bagalkot district": {
            "closest_to": "jog falls",
            "address": "Bagalakote, Bagalakote taluk, Bagalkote district, Karnataka, India",
            "longitude": "75.6967919",
            "latitude": "16.1853166",
            "blogLinks": [
                "https://www.tripoto.com/places-to-visit/india/karnataka"
            ],
            "locType": "city"
        },
        "karkala": {
            "closest_to": "nandi hills",
            "address": "Karkala, Karkala taluk, Udupi district, Karnataka, 574104, India",
            "longitude": "74.9959586",
            "latitude": "13.2112826",
            "blogLinks": [
                "https://www.quora.com/What-are-the-best-places-to-visit-on-a-3-day-trip-in-and-around-Karnataka"
            ],
            "locType": "town"
        },
        "bijapur": {
            "closest_to": "jog falls",
            "address": "Vijayapura, Vijayapura taluk, Bijapur district, Karnataka, 586101, India",
            "longitude": "75.7175387",
            "latitude": "16.8269911",
            "blogLinks": [
                "http://www.myhappyjourney.com/Karnataka",
                "https://www.quora.com/What-are-the-best-places-to-visit-on-a-3-day-trip-in-and-around-Karnataka",
                "https://www.tripoto.com/places-to-visit/india/karnataka"
            ],
            "locType": "city"
        },
        "uttara kannada": {
            "closest_to": "jog falls",
            "address": "Uttara Kannada, Karnataka, India",
            "longitude": "74.4729163045979",
            "latitude": "14.6726379",
            "blogLinks": [
                "https://www.quora.com/What-are-the-best-places-to-visit-on-a-3-day-trip-in-and-around-Karnataka"
            ],
            "locType": "administrative"
        },
        "talakadu": {
            "closest_to": "nandi hills",
            "address": "Talakadu, Tirumakudalu Narasipura taluk, Mysuru district, Karnataka, India",
            "longitude": "77.0293979",
            "latitude": "12.1919942",
            "blogLinks": [
                "https://www.quora.com/What-are-the-best-places-to-visit-on-a-3-day-trip-in-and-around-Karnataka"
            ],
            "locType": "village"
        },
        "tyavarekoppa": {
            "closest_to": "nandi hills",
            "address": "Tyavarekoppa, Shivamogga taluku, Shimoga district, Karnataka, India",
            "longitude": "75.504593",
            "latitude": "13.9749019",
            "blogLinks": [
                "https://besttimetovisitjogfalls.wordpress.com/"
            ],
            "locType": "hamlet"
        },
        "england": {
            "closest_to": "nandi hills",
            "address": "Peter England Factory, Bommanahalli, Bengaluru, Bangalore Urban, Karnataka, 560001, India",
            "longitude": "77.6219969678622",
            "latitude": "12.90120185",
            "blogLinks": [
                "https://www.tripoto.com/places-to-visit/india/karnataka"
            ],
            "locType": "industrial"
        },
        "brahma": {
            "closest_to": "nandi hills",
            "address": "Sadguru Brahma Chaitanya Mandira, Ring Road, Vinobanagara, Davanagere, Davanagere taluku, Davanagere district, Karnataka, 577004, India",
            "longitude": "75.9026723908286",
            "latitude": "14.4564816",
            "blogLinks": [
                "https://www.tripoto.com/places-to-visit/india/karnataka"
            ],
            "locType": "place_of_worship"
        },
        "brindaban gardens": {
            "closest_to": "nandi hills",
            "address": "Brindaban Apartments, Hosur Road, Sadgunte Palya, Adugodi, Bengaluru, Bangalore Urban, Karnataka, 560030, India",
            "longitude": "77.6097138932437",
            "latitude": "12.9384553",
            "blogLinks": [
                "https://www.tripoto.com/places-to-visit/india/karnataka"
            ],
            "locType": "yes"
        },
        "maharashtra": {
            "closest_to": "nandi hills",
            "address": "Bank of Maharashtra, 24th Main, K R Layout, Puttenahalli, Bengaluru, Bangalore Urban, Karnataka, 560001, India",
            "longitude": "77.5856013",
            "latitude": "12.9049455",
            "blogLinks": [
                "https://www.tripoto.com/places-to-visit/india/karnataka"
            ],
            "locType": "bank"
        },
        "mowgli": {
            "closest_to": "nandi hills",
            "address": "Mowgli Guest House, SH130, Basapura, Koppala taluku, Koppal district, Karnataka, India",
            "longitude": "76.4532005",
            "latitude": "15.3413499",
            "blogLinks": [
                "https://www.tripoto.com/places-to-visit/india/karnataka"
            ],
            "locType": "hostel"
        },
        "malpe": {
            "closest_to": "nandi hills",
            "address": "Malpe, Udupi taluku, Udupi district, Karnataka, India",
            "longitude": "74.7036914",
            "latitude": "13.3507423",
            "blogLinks": [
                "https://www.quora.com/What-are-the-best-places-to-visit-on-a-3-day-trip-in-and-around-Karnataka",
                "https://www.tripoto.com/places-to-visit/india/karnataka"
            ],
            "locType": "village"
        },
        "sharavati river": {
            "closest_to": "jog falls",
            "address": "Sharavati, Sagara taluk, Shimoga district, Karnataka, India",
            "longitude": "74.7647294",
            "latitude": "14.2360979",
            "blogLinks": [
                "https://besttimetovisitjogfalls.wordpress.com/"
            ],
            "locType": "river"
        },
        "panaji": {
            "closest_to": "jog falls",
            "address": "Belgaum - Panaji Highway, Londa, Khanapura taluku, Belgaum district, Karnataka, India",
            "longitude": "74.4876784",
            "latitude": "15.4422981",
            "blogLinks": [
                "https://www.tripoto.com/places-to-visit/india/karnataka"
            ],
            "locType": "trunk"
        },
        "palace gardens": {
            "closest_to": "nandi hills",
            "address": "Bangalore Palace, Jayamahal Road, Jayamahal Extension, Jayamahal, Bengaluru, Bangalore Urban, Karnataka, 560001, India",
            "longitude": "77.5920094892276",
            "latitude": "12.9985963",
            "blogLinks": [
                "https://www.tripoto.com/places-to-visit/india/karnataka"
            ],
            "locType": "attraction"
        },
        "skandagiri": {
            "closest_to": "nandi hills",
            "address": "Kalwarbetta, Chikkaballapura taluk, Chikkaballapura district, Karnataka, India",
            "longitude": "77.6826686",
            "latitude": "13.4172558",
            "blogLinks": [
                "http://www.indianholiday.com/blog/places-to-visit-near-bangalore-monsoon-season/"
            ],
            "locType": "peak"
        },
        "mysore": {
            "closest_to": "nandi hills",
            "address": "Mysuru, Mysuru taluk, Mysuru district, Karnataka, 570001, India",
            "longitude": "76.6553609",
            "latitude": "12.3051828",
            "blogLinks": [
                "https://www.quora.com/What-are-the-best-places-to-visit-on-a-3-day-trip-in-and-around-Karnataka",
                "https://www.tripoto.com/places-to-visit/india/karnataka"
            ],
            "locType": "city"
        },
        "bylakuppe": {
            "closest_to": "nandi hills",
            "address": "Bylakuppe, Piriyapattana taluk, Mysuru district, Karnataka, India",
            "longitude": "75.9953435",
            "latitude": "12.4292508",
            "blogLinks": [
                "https://www.tripoto.com/places-to-visit/india/karnataka"
            ],
            "locType": "village"
        },
        "omkareshwara temple": {
            "closest_to": "nandi hills",
            "address": "Omkareshwara Temple, Main Road, Madikeri, Madikeri taluku, Kodagu, Karnataka, India",
            "longitude": "75.741304",
            "latitude": "12.420546",
            "blogLinks": [
                "https://www.tripoto.com/places-to-visit/india/karnataka"
            ],
            "locType": "place_of_worship"
        },
        "banavasi": {
            "closest_to": "nandi hills",
            "address": "Banavasi, Shirasi taluk, Uttara Kannada, Karnataka, India",
            "longitude": "75.0129845",
            "latitude": "14.5389738",
            "blogLinks": [
                "https://www.quora.com/What-are-the-best-places-to-visit-on-a-3-day-trip-in-and-around-Karnataka"
            ],
            "locType": "town"
        },
        "nilgiris": {
            "closest_to": "nandi hills",
            "address": "Nilgiris, Brigade Road, Tasker Town, Ashok Nagar, Bengaluru, Bangalore Urban, Karnataka, 560001, India",
            "longitude": "77.6069792",
            "latitude": "12.9725052",
            "blogLinks": [
                "https://www.quora.com/What-are-the-best-places-to-visit-on-a-3-day-trip-in-and-around-Karnataka",
                "https://www.quora.com/What-are-10-places-that-a-teenager-MUST-visit-in-South-India"
            ],
            "locType": "supermarket"
        },
        "mirjan fort": {
            "closest_to": "jog falls",
            "address": "Mirjana Fort, Edapally- Panvel Highway, Kimani, Kumata taluk, Uttara Kannada, Karnataka, 581344, India",
            "longitude": "74.4174838158512",
            "latitude": "14.48905715",
            "blogLinks": [
                "https://www.quora.com/What-are-the-best-places-to-visit-on-a-3-day-trip-in-and-around-Karnataka"
            ],
            "locType": "attraction"
        },
        "brahmagiri range": {
            "closest_to": "nandi hills",
            "address": "Brahmagiri Betta, Molakalmuru taluku, Chitradurga district, Karnataka, India",
            "longitude": "76.8122474",
            "latitude": "14.8001586",
            "blogLinks": [
                "https://www.quora.com/What-are-the-best-places-to-visit-on-a-3-day-trip-in-and-around-Karnataka",
                "https://www.tripoto.com/places-to-visit/india/karnataka"
            ],
            "locType": "peak"
        },
        "kudle beach": {
            "closest_to": "jog falls",
            "address": "Kudle Beach, Om beach road, Gokarna, Kumata taluk, Uttara Kannada, Karnataka, 581326, India",
            "longitude": "74.3156783937192",
            "latitude": "14.5281015",
            "blogLinks": [
                "https://www.tripoto.com/places-to-visit/india/karnataka"
            ],
            "locType": "beach"
        },
        "nandi": {
            "closest_to": "nandi hills",
            "address": "Nandi, Tarikere taluku, Chikkamagaluru district, Karnataka, India",
            "longitude": "75.8556266",
            "latitude": "13.6434094",
            "blogLinks": [
                "https://en.wikipedia.org/wiki/Nandi_Hills,_India",
                "http://www.fourwheeldriveindia.com/hillstations/places-to-visit-in-nandi-hills/",
                "http://wikitravel.org/en/Nandi_Hills",
                "https://www.tripoto.com/places-to-visit/india/karnataka"
            ],
            "locType": "village"
        },
        "amruth sarovar lake": {
            "closest_to": "nandi hills",
            "address": "Amruth Sarovar, Sultanapete, Chikkaballapura taluk, Chikkaballapura district, Karnataka, India",
            "longitude": "77.6809602980907",
            "latitude": "13.3711828",
            "blogLinks": [
                "https://www.tripoto.com/places-to-visit/india/karnataka"
            ],
            "locType": "reservoir"
        },
        "bhoga nandeeshwara temple": {
            "closest_to": "nandi hills",
            "address": "Bhoga Nandeeshwara Temple, SH74, Sultanapete, Chikkaballapura taluk, Chikkaballapura district, Karnataka, India",
            "longitude": "77.6981219363524",
            "latitude": "13.3867543",
            "blogLinks": [
                "https://en.wikipedia.org/wiki/Nandi_Hills,_India"
            ],
            "locType": "place_of_worship"
        },
        "windsor": {
            "closest_to": "nandi hills",
            "address": "Windsor, 12th Main Road, HAL 2nd Stage, Indiranagar, Bengaluru, Bangalore Urban, Karnataka, 560001, India",
            "longitude": "77.6392137",
            "latitude": "12.9698614",
            "blogLinks": [
                "https://www.tripoto.com/places-to-visit/india/karnataka"
            ],
            "locType": "pub"
        },
        "kaveri": {
            "closest_to": "nandi hills",
            "address": "Kaveri, Kollegala taluk, Chamarajanagar district, Karnataka, India",
            "longitude": "77.0635531",
            "latitude": "12.1687878",
            "blogLinks": [
                "https://www.quora.com/What-are-the-best-places-to-visit-on-a-3-day-trip-in-and-around-Karnataka",
                "https://www.tripoto.com/places-to-visit/india/karnataka"
            ],
            "locType": "river"
        },
        "hindostan": {
            "closest_to": "nandi hills",
            "address": "Karnataka, India",
            "longitude": "75.7223521",
            "latitude": "14.5203896",
            "blogLinks": [
                "https://en.wikipedia.org/wiki/Nandi_Hills,_India"
            ],
            "locType": "administrative"
        },
        "kudle": {
            "closest_to": "jog falls",
            "address": "Kudle Ocean Front resort, Om beach road, Gokarna, Kumata taluk, Uttara Kannada, Karnataka, 581326, India",
            "longitude": "74.3178853",
            "latitude": "14.5290707",
            "blogLinks": [
                "https://www.tripoto.com/places-to-visit/india/karnataka"
            ],
            "locType": "hotel"
        },
        "river tunga": {
            "closest_to": "nandi hills",
            "address": "Tunga, Tirthahalli taluk, Shimoga district, Karnataka, India",
            "longitude": "75.3221835",
            "latitude": "13.6632221",
            "blogLinks": [
                "https://besttimetovisitjogfalls.wordpress.com/"
            ],
            "locType": "river"
        },
        "mysore lake": {
            "closest_to": "nandi hills",
            "address": "Mysuru, Mysuru taluk, Mysuru district, Karnataka, 570001, India",
            "longitude": "76.6553609",
            "latitude": "12.3051828",
            "blogLinks": [
                "https://www.tripoto.com/places-to-visit/india/karnataka"
            ],
            "locType": "city"
        },
        "varanasi": {
            "closest_to": "nandi hills",
            "address": "Varanasi, Bangalore Urban, Karnataka, India",
            "longitude": "77.6860657",
            "latitude": "13.0304962",
            "blogLinks": [
                "http://www.fourwheeldriveindia.com/hillstations/places-to-visit-in-nandi-hills/",
                "https://www.tripoto.com/places-to-visit/india/karnataka"
            ],
            "locType": "village"
        },
        "madhukeshwara": {
            "closest_to": "nandi hills",
            "address": "Madhukeshwara Temple, Kattinakere Road, Kattinakere Bus Stand, Soraba taluk, Shimoga district, Karnataka, India",
            "longitude": "75.1480027",
            "latitude": "14.3058996",
            "blogLinks": [
                "https://www.quora.com/What-are-the-best-places-to-visit-on-a-3-day-trip-in-and-around-Karnataka"
            ],
            "locType": "place_of_worship"
        },
        "bangalore-tumkur road": {
            "closest_to": "nandi hills",
            "address": "Tumkur Road, Goragunte Palya, Peenya, Bengaluru, Bangalore Urban, Karnataka, 560001, India",
            "longitude": "77.5360458",
            "latitude": "13.0311896",
            "blogLinks": [
                "http://wikitravel.org/en/Nandi_Hills"
            ],
            "locType": "trunk"
        },
        "garden": {
            "closest_to": "nandi hills",
            "address": "garden, N Hosahalli, Hosakote taluk, Bangalore Rural, Karnataka, India",
            "longitude": "77.9285817637065",
            "latitude": "13.19253335",
            "blogLinks": [
                "http://www.myhappyjourney.com/Karnataka"
            ],
            "locType": "orchard"
        },
        "bangalore": {
            "closest_to": "nandi hills",
            "address": "Bengaluru, Bangalore Urban, Karnataka, 560001, India",
            "longitude": "77.5912997",
            "latitude": "12.9791198",
            "blogLinks": [
                "https://www.triphobo.com/blog/places-to-visit-near-bangalore-in-monsoon",
                "https://besttimetovisitjogfalls.wordpress.com/",
                "https://www.quora.com/What-are-10-places-that-a-teenager-MUST-visit-in-South-India",
                "http://wikitravel.org/en/Nandi_Hills",
                "https://besttimetovisitjogfalls.wordpress.com/tag/karnataka-tourism/",
                "https://www.tripoto.com/places-to-visit/india/karnataka",
                "http://www.indianholiday.com/blog/places-to-visit-near-bangalore-monsoon-season/",
                "https://www.quora.com/What-are-the-best-places-to-visit-on-a-3-day-trip-in-and-around-Karnataka",
                "https://en.wikipedia.org/wiki/Nandi_Hills,_India"
            ],
            "locType": "city"
        },
        "nandi bull": {
            "closest_to": "nandi hills",
            "address": "Monolithic Bull, Way to Vitthala Temple, Hampe, Hosapete taluk, Bellary district, Karnataka, 583239, India",
            "longitude": "76.4671825",
            "latitude": "15.3337944",
            "blogLinks": [
                "http://www.fourwheeldriveindia.com/hillstations/places-to-visit-in-nandi-hills/",
                "https://www.tripoto.com/places-to-visit/india/karnataka"
            ],
            "locType": "attraction"
        },
        "kukkarahalli lake": {
            "closest_to": "nandi hills",
            "address": "Kukkarahalli Kere, Bogadi Road, Sarasvatipuram, Mysuru, Mysuru taluk, Mysuru district, Karnataka, 570001, India",
            "longitude": "76.6304982433348",
            "latitude": "12.3103805",
            "blogLinks": [
                "https://www.tripoto.com/places-to-visit/india/karnataka"
            ],
            "locType": "water"
        },
        "tumkur road": {
            "closest_to": "nandi hills",
            "address": "Tumkur Road, Goragunte Palya, Peenya, Bengaluru, Bangalore Urban, Karnataka, 560001, India",
            "longitude": "77.5360458",
            "latitude": "13.0311896",
            "blogLinks": [
                "https://www.tripoto.com/places-to-visit/india/karnataka"
            ],
            "locType": "trunk"
        },
        "kaveri nisargadhama": {
            "closest_to": "nandi hills",
            "address": "Kaveri Nisargadhama, NH275, 7th Hosakote, Somawarpet taluk, Kodagu, Karnataka, India",
            "longitude": "75.93356075",
            "latitude": "12.4416008",
            "blogLinks": [
                "https://www.tripoto.com/places-to-visit/india/karnataka"
            ],
            "locType": "park"
        },
        "cauvery river": {
            "closest_to": "nandi hills",
            "address": "Temple Trees Rd, Cauvery Colony, ST Bed Layout, Koramangala, Bengaluru, Bangalore Urban, Karnataka, 560001, India",
            "longitude": "77.635647",
            "latitude": "12.9327668",
            "blogLinks": [
                "https://www.tripoto.com/places-to-visit/india/karnataka"
            ],
            "locType": "unclassified"
        },
        "north karnataka": {
            "closest_to": "nandi hills",
            "address": "N, Chaithanya Samarpan, Kadugodi, Kannamangala, Bangalore Urban, Karnataka, 560066, India",
            "longitude": "77.7660547",
            "latitude": "13.0217151",
            "blogLinks": [
                "https://www.quora.com/What-are-the-best-places-to-visit-on-a-3-day-trip-in-and-around-Karnataka",
                "https://www.tripoto.com/places-to-visit/india/karnataka"
            ],
            "locType": "service"
        },
        "talakaveri": {
            "closest_to": "nandi hills",
            "address": "Talakaveri, Madikeri taluku, Kodagu, Karnataka, India",
            "longitude": "75.4930074",
            "latitude": "12.3858456",
            "blogLinks": [
                "https://www.tripoto.com/places-to-visit/india/karnataka"
            ],
            "locType": "hamlet"
        },
        "gokul garden": {
            "closest_to": "jog falls",
            "address": "Gokul Garden, Gokul Road / Airport Road, Renuka Nagar, Padmaraj Nagar, Gokul, Hubballi taluku, Dharwad district, Karnataka, 580030, India",
            "longitude": "75.1141861403246",
            "latitude": "15.35009745",
            "blogLinks": [
                "https://www.quora.com/What-are-the-best-places-to-visit-on-a-3-day-trip-in-and-around-Karnataka"
            ],
            "locType": "recreation_ground"
        },
        "kushalanagara": {
            "closest_to": "nandi hills",
            "address": "Kushalanagara, Somawarpet taluk, Kodagu, Karnataka, 571234, India",
            "longitude": "75.961437",
            "latitude": "12.4585525",
            "blogLinks": [
                "https://www.tripoto.com/places-to-visit/india/karnataka"
            ],
            "locType": "town"
        },
        "nagarahole": {
            "closest_to": "nandi hills",
            "address": "Nagarahole, Heggadadevanakote taluk, Mysuru district, Karnataka, India",
            "longitude": "76.2286805",
            "latitude": "12.0229466",
            "blogLinks": [
                "https://www.tripoto.com/places-to-visit/india/karnataka"
            ],
            "locType": "river"
        },
        "murudeshwara": {
            "closest_to": "jog falls",
            "address": "Murudeshwara, Bhatkala taluk, Uttara Kannada, Karnataka, 581350, India",
            "longitude": "74.4883354",
            "latitude": "14.0959549",
            "blogLinks": [
                "https://www.tripoto.com/places-to-visit/india/karnataka"
            ],
            "locType": "town"
        },
        "aihole": {
            "closest_to": "jog falls",
            "address": "Aihole, Hunagunda taluku, Bagalkote district, Karnataka, India",
            "longitude": "75.8819129",
            "latitude": "16.0192298",
            "blogLinks": [
                "https://www.tripoto.com/places-to-visit/india/karnataka"
            ],
            "locType": "village"
        },
        "chennakeshava": {
            "closest_to": "nandi hills",
            "address": "Chennakeshava Temple, NH73, Arakere, Arasikere taluku, Hassan district, Karnataka, 573112, India",
            "longitude": "76.1294164",
            "latitude": "13.3748908",
            "blogLinks": [
                "https://www.quora.com/What-are-the-best-places-to-visit-on-a-3-day-trip-in-and-around-Karnataka"
            ],
            "locType": "place_of_worship"
        },
        "mahadeshwara hills": {
            "closest_to": "nandi hills",
            "address": "Sri Mahadeshwara Filling Station, Outer Ring Road, Seven Hills Layout, Kathriguppe, Bengaluru, Bangalore Urban, Karnataka, 560001, India",
            "longitude": "77.5414216",
            "latitude": "12.932367",
            "blogLinks": [
                "https://www.quora.com/What-are-the-best-places-to-visit-on-a-3-day-trip-in-and-around-Karnataka"
            ],
            "locType": "fuel"
        },
        "mumbai": {
            "closest_to": "nandi hills",
            "address": "Mumbai Spice, 18/2, 10th Cross, Malleswaram, Vyalikaval, Malleswaram, Bengaluru, Bangalore Urban, Karnataka, 560003, India",
            "longitude": "77.5718472",
            "latitude": "13.0002869",
            "blogLinks": [
                "https://www.tripoto.com/places-to-visit/india/karnataka"
            ],
            "locType": "restaurant"
        },
        "gurupura": {
            "closest_to": "nandi hills",
            "address": "Gurupura, Tarikere taluku, Chikkamagaluru district, Karnataka, India",
            "longitude": "75.7161587",
            "latitude": "13.6686411",
            "blogLinks": [
                "https://www.quora.com/What-are-the-best-places-to-visit-on-a-3-day-trip-in-and-around-Karnataka"
            ],
            "locType": "village"
        },
        "hills": {
            "closest_to": "nandi hills",
            "address": "Kadri Hills, Mangaluru, Mangaluru taluk, Dakshina Kannada, Karnataka, 575001, India",
            "longitude": "74.860152",
            "latitude": "12.8935998",
            "blogLinks": [
                "http://wikitravel.org/en/Nandi_Hills"
            ],
            "locType": "suburb"
        },
        "cochin view": {
            "closest_to": "nandi hills",
            "address": "Cochin Bakery, Old Kent Road, Pandeshwar, Attavar, Mangaluru, Mangaluru taluk, Dakshina Kannada, Karnataka, 575001, India",
            "longitude": "74.8390919",
            "latitude": "12.8604752",
            "blogLinks": [
                "https://www.makemytrip.com/holidays-india/places-to-visit-nandi_hills.html"
            ],
            "locType": "confectionery"
        },
        "purple river": {
            "closest_to": "nandi hills",
            "address": "Purple Garden Apartment, Arkavathy Layout, Sampigehalli, Bangalore Urban, Karnataka, 560045, India",
            "longitude": "77.6190735349329",
            "latitude": "13.07778295",
            "blogLinks": [
                "https://www.makemytrip.com/holidays-india/places-to-visit-nandi_hills.html"
            ],
            "locType": "residential"
        },
        "ocean": {
            "closest_to": "nandi hills",
            "address": "Gayatri Ocean Blue Apartments, Thubarahalli, Siddapura, Bangalore Urban, Karnataka, 560066, India",
            "longitude": "77.7178261979437",
            "latitude": "12.95490595",
            "blogLinks": [
                "https://www.quora.com/What-are-the-best-places-to-visit-on-a-3-day-trip-in-and-around-Karnataka"
            ],
            "locType": "residential"
        },
        "hogenakkal falls": {
            "closest_to": "nandi hills",
            "address": "Hogenakkal Falls, Kollegala taluk, Chamarajanagar district, Karnataka, India",
            "longitude": "77.7758632",
            "latitude": "12.1184195",
            "blogLinks": [
                "https://www.quora.com/What-are-the-best-places-to-visit-on-a-3-day-trip-in-and-around-Karnataka"
            ],
            "locType": "waterfall"
        },
        "chennakesava temple": {
            "closest_to": "nandi hills",
            "address": "Chennakesava Temple, NH73, Navilahalli, Beluru taluk, Hassan district, Karnataka, India",
            "longitude": "75.8603311",
            "latitude": "13.1629239",
            "blogLinks": [
                "https://www.tripoto.com/places-to-visit/india/karnataka"
            ],
            "locType": "place_of_worship"
        },
        "dattatreya temple": {
            "closest_to": "nandi hills",
            "address": "Dattatreya Temple, 7th Main Road, Seven Hills Layout, Ittamadu, Bengaluru, Bangalore Urban, Karnataka, 560001, India",
            "longitude": "77.5401435953887",
            "latitude": "12.92479825",
            "blogLinks": [
                "https://www.tripoto.com/places-to-visit/india/karnataka"
            ],
            "locType": "place_of_worship"
        },
        "maravanthe": {
            "closest_to": "jog falls",
            "address": "Nethaji Subhash Chandra Bose Government High School, Maravanthe, NH66, Navunda, \u0c95\u0cc1\u0c82\u0ca6\u0cbe\u0caa\u0cc1\u0cb0 \u0ca4\u0cbe\u0cb2\u0cc2\u0c95\u0cc1, Udupi district, Karnataka, 576224, India",
            "longitude": "74.6480358",
            "latitude": "13.7316626",
            "blogLinks": [
                "https://www.tripoto.com/places-to-visit/india/karnataka"
            ],
            "locType": "school"
        },
        "kumarakom": {
            "closest_to": "nandi hills",
            "address": "Kumarakom, 23, 15th Cross Road, Sector 4, HSR Layout, Bengaluru, Bangalore Urban, Karnataka, 560102, India",
            "longitude": "77.6382858",
            "latitude": "12.9143715",
            "blogLinks": [
                "https://www.quora.com/What-are-10-places-that-a-teenager-MUST-visit-in-South-India"
            ],
            "locType": "restaurant"
        },
        "vijaynagar": {
            "closest_to": "nandi hills",
            "address": "Vijaynagar, Chord Road, Marenahalli, Vijaya Nagar, Binny Layout, Bangalore Urban, Karnataka, 560040, India",
            "longitude": "77.5376657",
            "latitude": "12.9720356",
            "blogLinks": [
                "https://www.tripoto.com/places-to-visit/india/karnataka"
            ],
            "locType": "bus_stop"
        },
        "somwarpet": {
            "closest_to": "nandi hills",
            "address": "Somwarpet, Somawarpet taluk, Kodagu, Karnataka, 571236, India",
            "longitude": "75.8457638",
            "latitude": "12.6004446",
            "blogLinks": [
                "https://www.tripoto.com/places-to-visit/india/karnataka"
            ],
            "locType": "town"
        },
        "ganeshgudi": {
            "closest_to": "jog falls",
            "address": "Ganeshagudi, Joida taluk, Uttara Kannada, Karnataka, India",
            "longitude": "74.5335693",
            "latitude": "15.2815822",
            "blogLinks": [
                "https://www.quora.com/What-are-the-best-places-to-visit-on-a-3-day-trip-in-and-around-Karnataka"
            ],
            "locType": "village"
        },
        "mandovi": {
            "closest_to": "nandi hills",
            "address": "Mandovi Motors, Wheeler Road Flyover, MSO Colony, Cox Town, Bengaluru, Bangalore Urban, Karnataka, 560001, India",
            "longitude": "77.6190505",
            "latitude": "12.9965335",
            "blogLinks": [
                "https://www.quora.com/What-are-the-best-places-to-visit-on-a-3-day-trip-in-and-around-Karnataka"
            ],
            "locType": "car"
        },
        "new mangalore port": {
            "closest_to": "nandi hills",
            "address": "New Mangalore Port, Kuloor, Mangaluru taluk, Dakshina Kannada, Karnataka, India",
            "longitude": "74.8219606",
            "latitude": "12.9318976",
            "blogLinks": [
                "https://www.tripoto.com/places-to-visit/india/karnataka"
            ],
            "locType": "locality"
        },
        "shimoga town": {
            "closest_to": "nandi hills",
            "address": "Shimoga Town, 100 ft Ring Road, Basavana Gudi, Shivamogga, Shivamogga taluku, Shimoga district, Karnataka, 577200, India",
            "longitude": "75.5832804",
            "latitude": "13.9434953",
            "blogLinks": [
                "http://wikitravel.org/en/Nandi_Hills"
            ],
            "locType": "station"
        },
        "hanuman temple": {
            "closest_to": "nandi hills",
            "address": "Hanuman Temple, 1st Cross Road, MEI Colony, Peenya, Bengaluru, Bangalore Urban, Karnataka, 560001, India",
            "longitude": "77.5273276",
            "latitude": "13.0343487",
            "blogLinks": [
                "https://www.tripoto.com/places-to-visit/india/karnataka"
            ],
            "locType": "place_of_worship"
        },
        "karavalli": {
            "closest_to": "nandi hills",
            "address": "Karavalli, FM Cariappa Road (Residency Road), Tasker Town, Ashok Nagar, Bengaluru, Bangalore Urban, Karnataka, 560001, India",
            "longitude": "77.608763",
            "latitude": "12.9724724",
            "blogLinks": [
                "https://www.tripoto.com/places-to-visit/india/karnataka"
            ],
            "locType": "restaurant"
        },
        "goa": {
            "closest_to": "nandi hills",
            "address": "Carnival De Goa, Bhaskaran Road, Gupta Layout, Halasuru, Bengaluru, Bangalore Urban, Karnataka, 560001, India",
            "longitude": "77.6200027",
            "latitude": "12.9750047",
            "blogLinks": [
                "https://www.tripoto.com/places-to-visit/india/karnataka"
            ],
            "locType": "restaurant"
        },
        "cochin": {
            "closest_to": "nandi hills",
            "address": "Cochin Bakery, Old Kent Road, Pandeshwar, Attavar, Mangaluru, Mangaluru taluk, Dakshina Kannada, Karnataka, 575001, India",
            "longitude": "74.8390919",
            "latitude": "12.8604752",
            "blogLinks": [
                "https://www.makemytrip.com/holidays-india/places-to-visit-nandi_hills.html"
            ],
            "locType": "confectionery"
        },
        "kuppali": {
            "closest_to": "nandi hills",
            "address": "Kuppali Road, Kuppalli, Tirthahalli taluk, Shimoga district, Karnataka, India",
            "longitude": "75.3158067",
            "latitude": "13.5998255",
            "blogLinks": [
                "https://www.quora.com/What-are-the-best-places-to-visit-on-a-3-day-trip-in-and-around-Karnataka"
            ],
            "locType": "tertiary"
        },
        "gundlupet": {
            "closest_to": "nandi hills",
            "address": "Gundlupet, Gundlupet taluk, Chamarajanagar district, Karnataka, 571111, India",
            "longitude": "76.6916141",
            "latitude": "11.808496",
            "blogLinks": [
                "https://www.tripoto.com/places-to-visit/india/karnataka"
            ],
            "locType": "town"
        },
        "gokarna beach": {
            "closest_to": "jog falls",
            "address": "Gokarna Beach, Gokarna Road, Ganji Gadde, Kumata taluk, Uttara Kannada, Karnataka, 581326, India",
            "longitude": "74.3109489488919",
            "latitude": "14.5516537",
            "blogLinks": [
                "https://www.tripoto.com/places-to-visit/india/karnataka"
            ],
            "locType": "beach"
        },
        "gokarna": {
            "closest_to": "jog falls",
            "address": "Gokarna, Kumata taluk, Uttara Kannada, Karnataka, 581326, India",
            "longitude": "74.3184418",
            "latitude": "14.5439629",
            "blogLinks": [
                "https://www.tripoto.com/places-to-visit/india/karnataka"
            ],
            "locType": "town"
        },
        "india": {
            "closest_to": "nandi hills",
            "address": "Karnataka, India",
            "longitude": "75.7223521",
            "latitude": "14.5203896",
            "blogLinks": [
                "http://www.myhappyjourney.com/Karnataka",
                "https://besttimetovisitjogfalls.wordpress.com/tag/highest-hill-station-in-karnataka/",
                "http://timesofindia.indiatimes.com/city/bengaluru/You-cant-take-selfies-at-Jog-Falls-Nandi-Hills/articleshow/53407678.cms",
                "https://www.triphobo.com/blog/places-to-visit-near-bangalore-in-monsoon",
                "https://besttimetovisitjogfalls.wordpress.com/",
                "https://www.quora.com/What-are-10-places-that-a-teenager-MUST-visit-in-South-India",
                "http://wikitravel.org/en/Nandi_Hills",
                "https://besttimetovisitjogfalls.wordpress.com/tag/karnataka-tourism/",
                "https://www.tripoto.com/places-to-visit/india/karnataka",
                "http://www.indianholiday.com/blog/places-to-visit-near-bangalore-monsoon-season/",
                "https://www.quora.com/What-are-the-best-places-to-visit-on-a-3-day-trip-in-and-around-Karnataka",
                "https://en.wikipedia.org/wiki/Nandi_Hills,_India",
                "https://www.makemytrip.com/holidays-india/places-to-visit-nandi_hills.html"
            ],
            "locType": "administrative"
        },
        "kapila river": {
            "closest_to": "nandi hills",
            "address": "Kapila Road, Ravindra Nagar, PWD Colony, Hassan, Hasana taluk, Hassan district, Karnataka, 573201, India",
            "longitude": "76.1040848",
            "latitude": "13.016016",
            "blogLinks": [
                "https://www.tripoto.com/places-to-visit/india/karnataka"
            ],
            "locType": "residential"
        },
        "island": {
            "closest_to": "jog falls",
            "address": "Isa, Shirasi taluk, Uttara Kannada, Karnataka, India",
            "longitude": "74.8834637",
            "latitude": "14.6799543",
            "blogLinks": [
                "https://www.tripoto.com/places-to-visit/india/karnataka"
            ],
            "locType": "village"
        },
        "tadiandamol": {
            "closest_to": "nandi hills",
            "address": "Tadiandamol, Madikeri taluku, Kodagu, Karnataka, India",
            "longitude": "75.608815",
            "latitude": "12.2175641",
            "blogLinks": [
                "https://www.tripoto.com/places-to-visit/india/karnataka"
            ],
            "locType": "peak"
        },
        "vitthala": {
            "closest_to": "nandi hills",
            "address": "Way to Vitthala Temple, Hampe, Hosapete taluk, Bellary district, Karnataka, 583239, India",
            "longitude": "76.4705005",
            "latitude": "15.3376716",
            "blogLinks": [
                "https://www.tripoto.com/places-to-visit/india/karnataka"
            ],
            "locType": "footway"
        },
        "earth": {
            "closest_to": "nandi hills",
            "address": "Bharat Earth Movers Limited - BEML, GM Palya, Bengaluru, Bangalore Urban, Karnataka, 560001, India",
            "longitude": "77.659986649248",
            "latitude": "12.9740596",
            "blogLinks": [
                "https://www.tripoto.com/places-to-visit/india/karnataka"
            ],
            "locType": "industrial"
        },
        "silent valley": {
            "closest_to": "nandi hills",
            "address": "Silent Shores Resort, Krishnaraja Sagara Road, Kurgalli, Bastipura, Srirangapattana taluk, Mandya district, Karnataka, 570027, India",
            "longitude": "76.5819054",
            "latitude": "12.3459371",
            "blogLinks": [
                "https://www.quora.com/What-are-the-best-places-to-visit-on-a-3-day-trip-in-and-around-Karnataka"
            ],
            "locType": "hotel"
        },
        "tungabhadra river": {
            "closest_to": "nandi hills",
            "address": "Tungabhadra, Gangavati taluku, Koppal district, Karnataka, India",
            "longitude": "76.4931607",
            "latitude": "15.3446123",
            "blogLinks": [
                "https://www.tripoto.com/places-to-visit/india/karnataka"
            ],
            "locType": "river"
        },
        "chamundeshwari": {
            "closest_to": "nandi hills",
            "address": "Chamundeshwari, Chidananda Maharashi Ashram Road, Sampangi Rama Nagara, MacIvor Town, Bengaluru, Bangalore Urban, Karnataka, 560027, India",
            "longitude": "77.5924927",
            "latitude": "12.9658588",
            "blogLinks": [
                "https://www.tripoto.com/places-to-visit/india/karnataka"
            ],
            "locType": "clothes"
        },
        "ramanagara district": {
            "closest_to": "nandi hills",
            "address": "Ramanagara district, Karnataka, India",
            "longitude": "77.3194722401066",
            "latitude": "12.71338445",
            "blogLinks": [
                "https://www.tripoto.com/places-to-visit/india/karnataka"
            ],
            "locType": "administrative"
        },
        "gaganachukki": {
            "closest_to": "nandi hills",
            "address": "Gaganachukki Falls, Malavalli taluk, Mandya district, Karnataka, India",
            "longitude": "77.1684763",
            "latitude": "12.2933696",
            "blogLinks": [
                "https://www.tripoto.com/places-to-visit/india/karnataka"
            ],
            "locType": "waterfall"
        },
        "narasipura": {
            "closest_to": "nandi hills",
            "address": "Narasipura, Kaduru taluk, Chikkamagaluru district, Karnataka, India",
            "longitude": "76.0371725",
            "latitude": "13.6494023",
            "blogLinks": [
                "https://www.tripoto.com/places-to-visit/india/karnataka"
            ],
            "locType": "village"
        },
        "bangalore international airport": {
            "closest_to": "nandi hills",
            "address": "Bangalore International Airport Road, Yartiganahalli, Devanahalli taluk, Bangalore Rural, Karnataka, 560300, India",
            "longitude": "77.6770396",
            "latitude": "13.1980694",
            "blogLinks": [
                "https://en.wikipedia.org/wiki/Nandi_Hills,_India"
            ],
            "locType": "secondary"
        },
        "durga temple": {
            "closest_to": "nandi hills",
            "address": "Durga Temple, 29th Main, Mahadeshwara Nagara, BTM Layout, Bengaluru, Bangalore Urban, Karnataka, 560001, India",
            "longitude": "77.6125928",
            "latitude": "12.9057731",
            "blogLinks": [
                "https://www.tripoto.com/places-to-visit/india/karnataka"
            ],
            "locType": "place_of_worship"
        },
        "ranganathaswamy temple": {
            "closest_to": "nandi hills",
            "address": "Ranganathaswamy Temple, Steps to Ranganathaswami Temple, Halekote, Hole Narasipura taluk, Hassan district, Karnataka, 573211, India",
            "longitude": "76.1812411",
            "latitude": "12.854149",
            "blogLinks": [
                "https://www.tripoto.com/places-to-visit/india/karnataka"
            ],
            "locType": "place_of_worship"
        },
        "taluk": {
            "closest_to": "nandi hills",
            "address": "Karnataka, Shalivahana Road, Nazarbad, Mysuru, Mysuru taluk, Mysuru district, Karnataka, 570001, India",
            "longitude": "76.6639936",
            "latitude": "12.3084901",
            "blogLinks": [
                "https://www.tripoto.com/places-to-visit/india/karnataka"
            ],
            "locType": "atm"
        },
        "karnataka state": {
            "closest_to": "nandi hills",
            "address": "Karnataka State Open University, \u0cb9\u0cc1\u0ca3\u0cb8\u0cc2\u0cb0\u0cc1 \u0cb0\u0cb8\u0ccd\u0ca4\u0cc6, Gokulam, Mysuru, Mysuru taluk, Mysuru district, Karnataka, 570001, India",
            "longitude": "76.6236231",
            "latitude": "12.315382",
            "blogLinks": [
                "https://www.tripoto.com/places-to-visit/india/karnataka"
            ],
            "locType": "university"
        },
        "lord shiva": {
            "closest_to": "nandi hills",
            "address": "Lord Shiva Temple, Marenahalli Road (South End), MICO Layout, BTM Layout, Bengaluru, Bangalore Urban, Karnataka, 560001, India",
            "longitude": "77.6024995",
            "latitude": "12.916875",
            "blogLinks": [
                "https://www.quora.com/What-are-the-best-places-to-visit-on-a-3-day-trip-in-and-around-Karnataka"
            ],
            "locType": "place_of_worship"
        },
        "kabini": {
            "closest_to": "nandi hills",
            "address": "Kabini, Heggadadevanakote taluk, Mysuru district, Karnataka, India",
            "longitude": "76.4152088",
            "latitude": "12.0140065",
            "blogLinks": [
                "https://www.quora.com/What-are-the-best-places-to-visit-on-a-3-day-trip-in-and-around-Karnataka",
                "https://www.tripoto.com/places-to-visit/india/karnataka"
            ],
            "locType": "river"
        },
        "sangam": {
            "closest_to": "nandi hills",
            "address": "Sangam, FM Cariappa Road (Residency Road), Shantala Nagar, MacIvor Town, Bengaluru, Bangalore Urban, Karnataka, 560001, India",
            "longitude": "77.6065672",
            "latitude": "12.9718928",
            "blogLinks": [
                "https://www.tripoto.com/places-to-visit/india/karnataka"
            ],
            "locType": "restaurant"
        },
        "dakshina kannada district": {
            "closest_to": "nandi hills",
            "address": "Dakshina Kannada, Karnataka, India",
            "longitude": "74.9813132",
            "latitude": "12.9324457",
            "blogLinks": [
                "https://besttimetovisitjogfalls.wordpress.com/",
                "https://besttimetovisitjogfalls.wordpress.com/tag/karnataka-tourism/"
            ],
            "locType": "county"
        },
        "modern india": {
            "closest_to": "nandi hills",
            "address": "National Gallery of Modern Arts (NGMA), Palace Road, Chakravarty Layout, Vasantnagar, Bengaluru, Bangalore Urban, Karnataka, 560001, India",
            "longitude": "77.5881178995539",
            "latitude": "12.9893108",
            "blogLinks": [
                "https://www.tripoto.com/places-to-visit/india/karnataka"
            ],
            "locType": "museum"
        },
        "tumkur": {
            "closest_to": "nandi hills",
            "address": "Tumakuru, Tumkur district, Karnataka, India",
            "longitude": "77.0002445",
            "latitude": "13.4999406",
            "blogLinks": [
                "https://www.tripoto.com/places-to-visit/india/karnataka"
            ],
            "locType": "county"
        },
        "nagarhole national park": {
            "closest_to": "nandi hills",
            "address": "Nagarahole National Park, Virajpet taluk, Kodagu, Karnataka, India",
            "longitude": "76.1537073415874",
            "latitude": "12.0600362",
            "blogLinks": [
                "https://www.quora.com/What-are-10-places-that-a-teenager-MUST-visit-in-South-India"
            ],
            "locType": "national_park"
        },
        "southern india": {
            "closest_to": "nandi hills",
            "address": "Survey Of India - Southern Zone, Madivala, Bengaluru, Bangalore Urban, Karnataka, 560001, India",
            "longitude": "77.6227757667762",
            "latitude": "12.92588785",
            "blogLinks": [
                "https://en.wikipedia.org/wiki/Nandi_Hills,_India"
            ],
            "locType": "commercial"
        },
        "keladi": {
            "closest_to": "nandi hills",
            "address": "Keladi, Sagara taluk, Shimoga district, Karnataka, India",
            "longitude": "75.0165753",
            "latitude": "14.2214761",
            "blogLinks": [
                "https://besttimetovisitjogfalls.wordpress.com/",
                "https://www.thrillophilia.com/tourist-places-to-visit-in-shimoga",
                "https://www.tripoto.com/places-to-visit/india/karnataka"
            ],
            "locType": "village"
        },
        "pondicherry": {
            "closest_to": "nandi hills",
            "address": "Karnataka Bank, Mission Street, Grand Bazaar, Puducherry, Puducherry district, Puducherry, 605001, India",
            "longitude": "79.831569",
            "latitude": "11.9365727",
            "blogLinks": [
                "https://www.quora.com/What-are-10-places-that-a-teenager-MUST-visit-in-South-India"
            ],
            "locType": "bank"
        },
        "pattadakal": {
            "closest_to": "jog falls",
            "address": "Pattadakal Temples, SH14, \u0cac\u0cbe\u0c9a\u0cbf\u0ca8\u0c97\u0cc1\u0ca1\u0ccd\u0ca1, Badami taluku, Bagalkote district, Karnataka, 587211, India",
            "longitude": "75.815884048161",
            "latitude": "15.9506349",
            "blogLinks": [
                "http://www.myhappyjourney.com/Karnataka",
                "https://www.tripoto.com/places-to-visit/india/karnataka"
            ],
            "locType": "attraction"
        },
        "betageri": {
            "closest_to": "jog falls",
            "address": "Betageri, Gokak taluku, Belgaum district, Karnataka, India",
            "longitude": "74.9538058",
            "latitude": "16.1144865",
            "blogLinks": [
                "https://www.tripoto.com/places-to-visit/india/karnataka"
            ],
            "locType": "village"
        },
        "shanthinagar": {
            "closest_to": "nandi hills",
            "address": "Shanthinagar, Gandhinagar, \u0caa\u0c82\u0c9c\u0cbf\u0cae\u0cca\u0c97\u0cb0\u0cc1, Mangaluru taluk, Dakshina Kannada, Karnataka, 575015, India",
            "longitude": "74.8474067",
            "latitude": "12.9218248",
            "blogLinks": [
                "https://www.tripoto.com/places-to-visit/india/karnataka"
            ],
            "locType": "neighbourhood"
        },
        "raja seat": {
            "closest_to": "nandi hills",
            "address": "Raja Seat, Mahatma Gandhi Road, Madikeri, Madikeri taluku, Kodagu, Karnataka, India",
            "longitude": "75.7369653316478",
            "latitude": "12.41421975",
            "blogLinks": [
                "https://www.tripoto.com/places-to-visit/india/karnataka"
            ],
            "locType": "park"
        },
        "pushpagiri": {
            "closest_to": "nandi hills",
            "address": "Pushpagiri Nagar, Bengaluru, Bangalore Urban, Karnataka, 560001, India",
            "longitude": "77.5333268",
            "latitude": "12.9297622",
            "blogLinks": [
                "https://www.tripoto.com/places-to-visit/india/karnataka"
            ],
            "locType": "locality"
        },
        "devanahalli town": {
            "closest_to": "nandi hills",
            "address": "Devanahalli, Devanahalli taluk, Bangalore Rural, Karnataka, India",
            "longitude": "77.7134377",
            "latitude": "13.2483502",
            "blogLinks": [
                "https://en.wikipedia.org/wiki/Nandi_Hills,_India"
            ],
            "locType": "town"
        },
        "bangalore district of karnataka": {
            "closest_to": "nandi hills",
            "address": "Bangalore Road, Ballari, Bellary taluk, Bellary district, Karnataka, 583101, India",
            "longitude": "76.9275402",
            "latitude": "15.1419665",
            "blogLinks": [
                "https://www.tripoto.com/places-to-visit/india/karnataka"
            ],
            "locType": "secondary"
        },
        "sharavathi": {
            "closest_to": "nandi hills",
            "address": "Sharavathi Block, National Games Village Road, Ambedkar Nagar, Ejipura, Bengaluru, Bangalore Urban, Karnataka, 560001, India",
            "longitude": "77.6216184337102",
            "latitude": "12.9464709",
            "blogLinks": [
                "https://besttimetovisitjogfalls.wordpress.com/tag/karnataka-tourism/"
            ],
            "locType": "yes"
        },
        "iruppu waterfalls": {
            "closest_to": "nandi hills",
            "address": "Iruppu Falls, Virajpet taluk, Kodagu, Karnataka, India",
            "longitude": "75.9839484",
            "latitude": "11.9667954",
            "blogLinks": [
                "https://www.tripoto.com/places-to-visit/india/karnataka"
            ],
            "locType": "waterfall"
        },
        "brindavan gardens": {
            "closest_to": "nandi hills",
            "address": "Brindavan Gardens, Krishnaraja Sagara Road, Krushnarajasagara, Srirangapattana taluk, Mandya district, Karnataka, India",
            "longitude": "76.5741029405883",
            "latitude": "12.4208084",
            "blogLinks": [
                "http://www.indianholiday.com/blog/places-to-visit-near-bangalore-monsoon-season/",
                "https://www.quora.com/What-are-the-best-places-to-visit-on-a-3-day-trip-in-and-around-Karnataka",
                "https://www.tripoto.com/places-to-visit/india/karnataka"
            ],
            "locType": "garden"
        },
        "daria daulat gardens": {
            "closest_to": "nandi hills",
            "address": "Daria Daulat Bagh Museum, Bangalore-Mysore Road, Srirangapatna, Srirangapattana taluk, Mandya district, Karnataka, 571438, India",
            "longitude": "76.6969039957315",
            "latitude": "12.4200182",
            "blogLinks": [
                "https://www.quora.com/What-are-the-best-places-to-visit-on-a-3-day-trip-in-and-around-Karnataka"
            ],
            "locType": "museum"
        },
        "kumara parvatha": {
            "closest_to": "nandi hills",
            "address": "Kumara Parvatha, Somawarpet taluk, Kodagu, Karnataka, India",
            "longitude": "75.6865652",
            "latitude": "12.6623315",
            "blogLinks": [
                "https://www.tripoto.com/places-to-visit/india/karnataka"
            ],
            "locType": "peak"
        },
        "sharadamba": {
            "closest_to": "nandi hills",
            "address": "Sharadamba Temple, 7th Main Road, Yediyur, Thyagaraja Nagar, Bengaluru, Bangalore Urban, Karnataka, 560001, India",
            "longitude": "77.5656194",
            "latitude": "12.9321898",
            "blogLinks": [
                "https://www.quora.com/What-are-the-best-places-to-visit-on-a-3-day-trip-in-and-around-Karnataka"
            ],
            "locType": "place_of_worship"
        },
        "golden temple": {
            "closest_to": "nandi hills",
            "address": "Padmasambhava Buddhist Vihara (Golden Temple), MDR21, Koppa, Piriyapattana taluk, Mysuru district, Karnataka, India",
            "longitude": "75.9674656",
            "latitude": "12.430821",
            "blogLinks": [
                "https://www.quora.com/What-are-the-best-places-to-visit-on-a-3-day-trip-in-and-around-Karnataka",
                "https://www.tripoto.com/places-to-visit/india/karnataka"
            ],
            "locType": "place_of_worship"
        },
        "devaraja market": {
            "closest_to": "nandi hills",
            "address": "Devaraja Market, Mandi Mohalla, Mysuru, Mysuru taluk, Mysuru district, Karnataka, 570001, India",
            "longitude": "76.6520220943056",
            "latitude": "12.31101905",
            "blogLinks": [
                "https://www.tripoto.com/places-to-visit/india/karnataka"
            ],
            "locType": "retail"
        },
        "nataraja": {
            "closest_to": "nandi hills",
            "address": "Nataraja, Sirur Park Road, Vyalikaval, Seshadripuram, Bengaluru, Bangalore Urban, Karnataka, 560001, India",
            "longitude": "77.5730381173154",
            "latitude": "12.9900332",
            "blogLinks": [
                "https://www.quora.com/What-are-the-best-places-to-visit-on-a-3-day-trip-in-and-around-Karnataka",
                "https://www.tripoto.com/places-to-visit/india/karnataka"
            ],
            "locType": "cinema"
        },
        "kunti betta": {
            "closest_to": "nandi hills",
            "address": "Kunti Betta, Pandavapura taluk, Mandya district, Karnataka, India",
            "longitude": "76.6982646",
            "latitude": "12.5082433",
            "blogLinks": [
                "http://www.indianholiday.com/blog/places-to-visit-near-bangalore-monsoon-season/",
                "https://www.tripoto.com/places-to-visit/india/karnataka"
            ],
            "locType": "peak"
        },
        "kudajadri": {
            "closest_to": "nandi hills",
            "address": "Kodachadri, \u0c95\u0cc1\u0c82\u0ca6\u0cbe\u0caa\u0cc1\u0cb0 \u0ca4\u0cbe\u0cb2\u0cc2\u0c95\u0cc1, Udupi district, Karnataka, India",
            "longitude": "74.8705395",
            "latitude": "13.8565758",
            "blogLinks": [
                "https://besttimetovisitjogfalls.wordpress.com/"
            ],
            "locType": "peak"
        },
        "basavanagudi road": {
            "closest_to": "nandi hills",
            "address": "Basavanagudi, Bhadravati taluk, Shimoga district, Karnataka, India",
            "longitude": "75.7339359",
            "latitude": "13.8345913",
            "blogLinks": [
                "https://en.wikipedia.org/wiki/Nandi_Hills,_India"
            ],
            "locType": "village"
        },
        "bandipur valley": {
            "closest_to": "nandi hills",
            "address": "Bandipur, Gundlupet taluk, Chamarajanagar district, Karnataka, India",
            "longitude": "76.6285739",
            "latitude": "11.6662708",
            "blogLinks": [
                "https://www.tripoto.com/places-to-visit/india/karnataka"
            ],
            "locType": "village"
        },
        "madhukeshwara temple": {
            "closest_to": "nandi hills",
            "address": "Madhukeshwara Temple, Ratha Beedhi, Banavasi, Shirasi taluk, Uttara Kannada, Karnataka, India",
            "longitude": "75.0171155065268",
            "latitude": "14.5352632",
            "blogLinks": [
                "https://www.tripoto.com/places-to-visit/india/karnataka"
            ],
            "locType": "place_of_worship"
        },
        "bahubali": {
            "closest_to": "nandi hills",
            "address": "Bahubali Statue, SH8, Shravanabelagola, Channarayapattana taluk, Hassan district, Karnataka, 573135, India",
            "longitude": "76.4846128",
            "latitude": "12.8540505",
            "blogLinks": [
                "https://www.quora.com/What-are-the-best-places-to-visit-on-a-3-day-trip-in-and-around-Karnataka"
            ],
            "locType": "place_of_worship"
        },
        "tamil nadu": {
            "closest_to": "nandi hills",
            "address": "KARNATAKA BANK, Diwan Bhadur Road, Five Corner, RS Puram, Coimbatore, Coimbatore district, Tamil Nadu, 641001, India",
            "longitude": "76.9514152",
            "latitude": "11.0025894",
            "blogLinks": [
                "https://www.triphobo.com/blog/places-to-visit-near-bangalore-in-monsoon",
                "https://www.quora.com/What-are-the-best-places-to-visit-on-a-3-day-trip-in-and-around-Karnataka",
                "https://www.quora.com/What-are-10-places-that-a-teenager-MUST-visit-in-South-India",
                "https://www.tripoto.com/places-to-visit/india/karnataka"
            ],
            "locType": "bank"
        },
        "kalyan": {
            "closest_to": "nandi hills",
            "address": "Kalyan Nagar, Chelekere, Bangalore Urban, Karnataka, India",
            "longitude": "77.6403368",
            "latitude": "13.0221416",
            "blogLinks": [
                "https://www.quora.com/What-are-the-best-places-to-visit-on-a-3-day-trip-in-and-around-Karnataka"
            ],
            "locType": "suburb"
        },
        "trikuteshwara": {
            "closest_to": "nandi hills",
            "address": "Trikuteshwara Temple\u200e, SH6, Betageri, Gadag, Gadag taluk, Gadag district, Karnataka, 582102, India",
            "longitude": "75.6267663445114",
            "latitude": "15.42449145",
            "blogLinks": [
                "https://www.tripoto.com/places-to-visit/india/karnataka"
            ],
            "locType": "place_of_worship"
        },
        "mallikarjuna temple": {
            "closest_to": "jog falls",
            "address": "Mallikarjuna Temple, SH135, Nelavagi, Badami taluku, Bagalkote district, Karnataka, India",
            "longitude": "75.7213492",
            "latitude": "15.9321101",
            "blogLinks": [
                "https://www.tripoto.com/places-to-visit/india/karnataka"
            ],
            "locType": "place_of_worship"
        },
        "maddur": {
            "closest_to": "nandi hills",
            "address": "Maddur, Madduru taluk, Mandya district, Karnataka, 571428, India",
            "longitude": "77.0456404",
            "latitude": "12.5851916",
            "blogLinks": [
                "https://www.quora.com/What-are-the-best-places-to-visit-on-a-3-day-trip-in-and-around-Karnataka"
            ],
            "locType": "town"
        },
        "veeranarayana": {
            "closest_to": "nandi hills",
            "address": "Veeranarayana Temple, Solapur-Mangalore Highway, Shakthinagar, Kulashekara, Kudupu, Mangaluru taluk, Dakshina Kannada, Karnataka, 575007, India",
            "longitude": "74.8847597015472",
            "latitude": "12.88735285",
            "blogLinks": [
                "https://www.tripoto.com/places-to-visit/india/karnataka"
            ],
            "locType": "place_of_worship"
        },
        "yellapur": {
            "closest_to": "jog falls",
            "address": "Yellapura, Yallapura taluk, Uttara Kannada, Karnataka, 581359, India",
            "longitude": "74.7061458",
            "latitude": "14.9622518",
            "blogLinks": [
                "https://www.quora.com/What-are-the-best-places-to-visit-on-a-3-day-trip-in-and-around-Karnataka"
            ],
            "locType": "town"
        },
        "kodachadri": {
            "closest_to": "nandi hills",
            "address": "Kodachadri, \u0c95\u0cc1\u0c82\u0ca6\u0cbe\u0caa\u0cc1\u0cb0 \u0ca4\u0cbe\u0cb2\u0cc2\u0c95\u0cc1, Udupi district, Karnataka, India",
            "longitude": "74.8705395",
            "latitude": "13.8565758",
            "blogLinks": [
                "https://besttimetovisitjogfalls.wordpress.com/",
                "https://www.quora.com/What-are-the-best-places-to-visit-on-a-3-day-trip-in-and-around-Karnataka"
            ],
            "locType": "peak"
        },
        "sangameshwara": {
            "closest_to": "jog falls",
            "address": "Sangameshwara, Kalaghatagi taluku, Dharwad district, Karnataka, India",
            "longitude": "74.87651",
            "latitude": "15.184341",
            "blogLinks": [
                "https://www.quora.com/What-are-the-best-places-to-visit-on-a-3-day-trip-in-and-around-Karnataka"
            ],
            "locType": "village"
        },
        "leela": {
            "closest_to": "nandi hills",
            "address": "6th Cross Road (Leela Palace Road), Babasaheb Colony, Kodihalli, Bengaluru, Bangalore Urban, Karnataka, 560001, India",
            "longitude": "77.6493984",
            "latitude": "12.9642122",
            "blogLinks": [
                "https://www.makemytrip.com/holidays-india/places-to-visit-nandi_hills.html"
            ],
            "locType": "tertiary"
        },
        "siddapur": {
            "closest_to": "nandi hills",
            "address": "Siddapur, \u0c95\u0cc1\u0c82\u0ca6\u0cbe\u0caa\u0cc1\u0cb0 \u0ca4\u0cbe\u0cb2\u0cc2\u0c95\u0cc1, Udupi district, Karnataka, 576229, India",
            "longitude": "74.911019",
            "latitude": "13.6626885",
            "blogLinks": [
                "https://www.tripoto.com/places-to-visit/india/karnataka"
            ],
            "locType": "village"
        },
        "river tungabhadra": {
            "closest_to": "nandi hills",
            "address": "Tungabhadra, Gangavati taluku, Koppal district, Karnataka, India",
            "longitude": "76.4931607",
            "latitude": "15.3446123",
            "blogLinks": [
                "https://www.tripoto.com/places-to-visit/india/karnataka"
            ],
            "locType": "river"
        },
        "hemakuta hill": {
            "closest_to": "nandi hills",
            "address": "Hemakuta Hill, Hosapete taluk, Bellary district, Karnataka, India",
            "longitude": "76.4602971",
            "latitude": "15.332915",
            "blogLinks": [
                "https://www.tripoto.com/places-to-visit/india/karnataka"
            ],
            "locType": "peak"
        },
        "south east": {
            "closest_to": "nandi hills",
            "address": "Karnataka, India",
            "longitude": "75.7223521",
            "latitude": "14.5203896",
            "blogLinks": [
                "https://www.tripoto.com/places-to-visit/india/karnataka"
            ],
            "locType": "administrative"
        },
        "venkateshwara temple": {
            "closest_to": "nandi hills",
            "address": "Venkateshwara Temple, C J Venkatesa Das Road, Seven Hills Layout, Padmanabha Nagar, Bengaluru, Bangalore Urban, Karnataka, 560001, India",
            "longitude": "77.5588384",
            "latitude": "12.9167091",
            "blogLinks": [
                "https://www.tripoto.com/places-to-visit/india/karnataka"
            ],
            "locType": "place_of_worship"
        },
        "chikkamagaluru": {
            "closest_to": "nandi hills",
            "address": "Chikkamagaluru, Chikkamagaluru taluku, Chikkamagaluru district, Karnataka, 577101, India",
            "longitude": "75.7738743",
            "latitude": "13.318014",
            "blogLinks": [
                "https://www.quora.com/What-are-the-best-places-to-visit-on-a-3-day-trip-in-and-around-Karnataka"
            ],
            "locType": "city"
        },
        "state highway": {
            "closest_to": "nandi hills",
            "address": "Karnataka Bank, Mount Poonamallee Highway, Sri Laxmi Nagar, Ramapuram, Chennai City Corporation Limits, Kanchipuram, Thiruvallur district, Tamil Nadu, 600125, India",
            "longitude": "80.161486",
            "latitude": "13.0330479",
            "blogLinks": [
                "https://www.tripoto.com/places-to-visit/india/karnataka"
            ],
            "locType": "atm"
        },
        "jog falls": {
            "closest_to": "nandi hills",
            "address": "Jog Falls, Joga - Kargal, Sagara taluk, Shimoga district, Karnataka, India",
            "longitude": "74.8128715",
            "latitude": "14.2276106",
            "blogLinks": [
                "http://www.myhappyjourney.com/Karnataka",
                "https://besttimetovisitjogfalls.wordpress.com/"
            ],
            "locType": "locality"
        },
        "botanical gardens": {
            "closest_to": "nandi hills",
            "address": "Botanical Garden, Cart road, Judicial Layout, Jakkur, Bangalore Urban, Karnataka, 560065, India",
            "longitude": "77.5744817798899",
            "latitude": "13.08099125",
            "blogLinks": [
                "https://www.tripoto.com/places-to-visit/india/karnataka"
            ],
            "locType": "protected_area"
        },
        "kudremukh": {
            "closest_to": "nandi hills",
            "address": "Kudremukha, Mudigere taluk, Chikkamagaluru district, Karnataka, India",
            "longitude": "75.2523304",
            "latitude": "13.2144007",
            "blogLinks": [
                "https://www.tripoto.com/places-to-visit/india/karnataka"
            ],
            "locType": "village"
        },
        "coffea": {
            "closest_to": "nandi hills",
            "address": "Matteo Coffee, Chinmaya Mission Hospital Road, Indiranagar 1st Stage, Hoysala Nagar, Bengaluru, Bangalore Urban, Karnataka, 560038, India",
            "longitude": "77.6369128",
            "latitude": "12.978423",
            "blogLinks": [
                "https://en.wikipedia.org/wiki/Nandi_Hills,_India"
            ],
            "locType": "cafe"
        },
        "halebid": {
            "closest_to": "nandi hills",
            "address": "Halebidu, Beluru taluk, Hassan district, Karnataka, 573121, India",
            "longitude": "75.9918793",
            "latitude": "13.2167959",
            "blogLinks": [
                "http://www.myhappyjourney.com/Karnataka",
                "https://www.tripoto.com/places-to-visit/india/karnataka"
            ],
            "locType": "village"
        },
        "vidyashankara temple": {
            "closest_to": "nandi hills",
            "address": "Sri Vidyashankara Swamy Temple, Sri Vidyateertha Setu, Sringeri, Sringeri taluku, Chikkamagaluru district, Karnataka, 577592, India",
            "longitude": "75.2514472909836",
            "latitude": "13.41567005",
            "blogLinks": [
                "https://www.tripoto.com/places-to-visit/india/karnataka"
            ],
            "locType": "place_of_worship"
        },
        "kodava": {
            "closest_to": "nandi hills",
            "address": "Kodava Samaja, M V Jayaram Road, Jayamahal Extension, Vasantnagar, Bengaluru, Bangalore Urban, Karnataka, 560001, India",
            "longitude": "77.5947466457941",
            "latitude": "12.9946227",
            "blogLinks": [
                "https://www.quora.com/What-are-the-best-places-to-visit-on-a-3-day-trip-in-and-around-Karnataka"
            ],
            "locType": "community_centre"
        },
        "ritz carlton": {
            "closest_to": "nandi hills",
            "address": "Ritz Carlton, FM Cariappa Road (Residency Road), Shantala Nagar, MacIvor Town, Bengaluru, Bangalore Urban, Karnataka, 560001, India",
            "longitude": "77.6015963682898",
            "latitude": "12.9677378",
            "blogLinks": [
                "https://www.tripoto.com/places-to-visit/india/karnataka"
            ],
            "locType": "hotel"
        },
        "lal bagh": {
            "closest_to": "nandi hills",
            "address": "Lal Bagh Bus Stop, Mahatma Gandhi Road, Lalbagh, Ladyhill, Mangaluru, Mangaluru taluk, Dakshina Kannada, Karnataka, 575001, India",
            "longitude": "74.8386152",
            "latitude": "12.8859223",
            "blogLinks": [
                "https://www.tripoto.com/places-to-visit/india/karnataka"
            ],
            "locType": "bus_stop"
        },
        "tibet": {
            "closest_to": "nandi hills",
            "address": "Tibet Bazaar, Brigade Road, Tasker Town, Ashok Nagar, Bengaluru, Bangalore Urban, Karnataka, 560001, India",
            "longitude": "77.6068828",
            "latitude": "12.9722398",
            "blogLinks": [
                "https://www.tripoto.com/places-to-visit/india/karnataka"
            ],
            "locType": "supermarket"
        },
        "hampi bazaar": {
            "closest_to": "nandi hills",
            "address": "Hampi Bazaar, Hampe, Hosapete taluk, Bellary district, Karnataka, 583239, India",
            "longitude": "76.4621571",
            "latitude": "15.3347585",
            "blogLinks": [
                "https://www.tripoto.com/places-to-visit/india/karnataka"
            ],
            "locType": "unclassified"
        },
        "chamundi hill": {
            "closest_to": "nandi hills",
            "address": "Chamundi Hill, Mysuru, Mysuru taluk, Mysuru district, Karnataka, 570001, India",
            "longitude": "76.6703937",
            "latitude": "12.2724017",
            "blogLinks": [
                "https://en.wikipedia.org/wiki/Nandi_Hills,_India",
                "https://www.quora.com/What-are-the-best-places-to-visit-on-a-3-day-trip-in-and-around-Karnataka",
                "https://www.tripoto.com/places-to-visit/india/karnataka"
            ],
            "locType": "peak"
        },
        "linganamakki dam": {
            "closest_to": "nandi hills",
            "address": "Linganamakki Dam, Sagara taluk, Shimoga district, Karnataka, India",
            "longitude": "74.8464623767123",
            "latitude": "14.1758978",
            "blogLinks": [
                "https://www.tripoto.com/places-to-visit/india/karnataka"
            ],
            "locType": "dam"
        },
        "kodagu taluk": {
            "closest_to": "nandi hills",
            "address": "Kodagu Kaloni, Hunasuru taluk, Mysuru district, Karnataka, India",
            "longitude": "76.2818865",
            "latitude": "12.2335192",
            "blogLinks": [
                "https://www.tripoto.com/places-to-visit/india/karnataka"
            ],
            "locType": "village"
        },
        "outer ring road": {
            "closest_to": "nandi hills",
            "address": "Outer Ring Road, Green Glen Layout, Iblur, Bengaluru, Bangalore Urban, Karnataka, 560001, India",
            "longitude": "77.6632088",
            "latitude": "12.9210769",
            "blogLinks": [
                "https://www.tripoto.com/places-to-visit/india/karnataka"
            ],
            "locType": "trunk"
        },
        "sakleshpur": {
            "closest_to": "nandi hills",
            "address": "Sakaleshpura, Sakaleshapura taluk, Hassan district, Karnataka, 573134, India",
            "longitude": "75.7862318",
            "latitude": "12.9434349",
            "blogLinks": [
                "https://www.quora.com/What-are-the-best-places-to-visit-on-a-3-day-trip-in-and-around-Karnataka"
            ],
            "locType": "town"
        },
        "tadiyandamol": {
            "closest_to": "nandi hills",
            "address": "Tadiandamol, Madikeri taluku, Kodagu, Karnataka, India",
            "longitude": "75.608815",
            "latitude": "12.2175641",
            "blogLinks": [
                "https://www.tripoto.com/places-to-visit/india/karnataka"
            ],
            "locType": "peak"
        },
        "old madras road": {
            "closest_to": "nandi hills",
            "address": "Old Madras Road, Devasandra, ITI Colony, Garudacharpalya, Bangalore Urban, Karnataka, 560048, India",
            "longitude": "77.689988",
            "latitude": "13.0076952",
            "blogLinks": [
                "https://www.tripoto.com/places-to-visit/india/karnataka"
            ],
            "locType": "trunk"
        },
        "food park": {
            "closest_to": "nandi hills",
            "address": "Defence Food Research Laboratory, Bannur Road, Alanahalli, Gayathripuram, Mysuru, Mysuru taluk, Mysuru district, Karnataka, 570001, India",
            "longitude": "76.6791809",
            "latitude": "12.3093358",
            "blogLinks": [
                "https://www.tripoto.com/places-to-visit/india/karnataka"
            ],
            "locType": "research"
        },
        "falls karnataka": {
            "closest_to": "nandi hills",
            "address": "Hogenakkal Falls, Kollegala taluk, Chamarajanagar district, Karnataka, India",
            "longitude": "77.7758632",
            "latitude": "12.1184195",
            "blogLinks": [
                "https://besttimetovisitjogfalls.wordpress.com/"
            ],
            "locType": "waterfall"
        },
        "tagore beach": {
            "closest_to": "jog falls",
            "address": "Rabindranath Tagore Beach, NH66, Kodibag, Karwar, Karavara taluk, Uttara Kannada, Karnataka, 581300, India",
            "longitude": "74.126114099183",
            "latitude": "14.81741155",
            "blogLinks": [
                "https://www.quora.com/What-are-the-best-places-to-visit-on-a-3-day-trip-in-and-around-Karnataka"
            ],
            "locType": "beach"
        },
        "silicon valley": {
            "closest_to": "nandi hills",
            "address": "RK Estates : Silicon Valley Layout, Vidyanagar, Bengaluru, Bangalore Urban, Karnataka, 560001, India",
            "longitude": "77.6053133563105",
            "latitude": "13.1650062",
            "blogLinks": [
                "http://www.myhappyjourney.com/Karnataka",
                "https://www.tripoto.com/places-to-visit/india/karnataka"
            ],
            "locType": "residential"
        },
        "mallalli falls": {
            "closest_to": "nandi hills",
            "address": "Mallalli Falls, Somawarpet taluk, Kodagu, Karnataka, India",
            "longitude": "75.723663",
            "latitude": "12.6813778",
            "blogLinks": [
                "https://www.tripoto.com/places-to-visit/india/karnataka"
            ],
            "locType": "waterfall"
        },
        "parvati": {
            "closest_to": "jog falls",
            "address": "Parvati, Badami taluku, Bagalkote district, Karnataka, India",
            "longitude": "75.7898501",
            "latitude": "16.0395701",
            "blogLinks": [
                "https://en.wikipedia.org/wiki/Nandi_Hills,_India",
                "https://www.quora.com/What-are-the-best-places-to-visit-on-a-3-day-trip-in-and-around-Karnataka"
            ],
            "locType": "village"
        },
        "bannerghatta national park": {
            "closest_to": "nandi hills",
            "address": "Bannerghatta National Park, Anekal Road, Begihalli, Bangalore Urban, Karnataka, 560076, India",
            "longitude": "77.5722783830694",
            "latitude": "12.77900335",
            "blogLinks": [
                "https://www.tripoto.com/places-to-visit/india/karnataka"
            ],
            "locType": "national_park"
        },
        "m.g": {
            "closest_to": "nandi hills",
            "address": "Karnataka, India",
            "longitude": "75.7223521",
            "latitude": "14.5203896",
            "blogLinks": [
                "https://www.tripoto.com/places-to-visit/india/karnataka"
            ],
            "locType": "administrative"
        },
        "mullodi": {
            "closest_to": "nandi hills",
            "address": "Mullodi, Balgallu, Mudigere taluk, Chikkamagaluru district, Karnataka, India",
            "longitude": "75.3068537",
            "latitude": "13.1622376",
            "blogLinks": [
                "https://www.tripoto.com/places-to-visit/india/karnataka"
            ],
            "locType": "locality"
        },
        "charmadi": {
            "closest_to": "nandi hills",
            "address": "Charmadi, Beltangadi taluk, Dakshina Kannada, Karnataka, 574290, India",
            "longitude": "75.3967377",
            "latitude": "13.0365436",
            "blogLinks": [
                "https://besttimetovisitjogfalls.wordpress.com/",
                "https://besttimetovisitjogfalls.wordpress.com/tag/karnataka-tourism/"
            ],
            "locType": "village"
        },
        "savandurga": {
            "closest_to": "nandi hills",
            "address": "Savandurga, Magadi taluku, Ramanagara district, Karnataka, India",
            "longitude": "77.2977719",
            "latitude": "12.9159605",
            "blogLinks": [
                "http://www.indianholiday.com/blog/places-to-visit-near-bangalore-monsoon-season/"
            ],
            "locType": "village"
        },
        "belur": {
            "closest_to": "nandi hills",
            "address": "Belur, Beluru taluk, Hassan district, Karnataka, 573115, India",
            "longitude": "75.8634851",
            "latitude": "13.1645671",
            "blogLinks": [
                "https://www.tripoto.com/places-to-visit/india/karnataka"
            ],
            "locType": "town"
        },
        "varada river": {
            "closest_to": "nandi hills",
            "address": "Varada, Savanura taluk, Haveri district, Karnataka, India",
            "longitude": "75.47206",
            "latitude": "14.8717792",
            "blogLinks": [
                "https://www.tripoto.com/places-to-visit/india/karnataka"
            ],
            "locType": "river"
        },
        "karwar": {
            "closest_to": "jog falls",
            "address": "Karwar, Karavara taluk, Uttara Kannada, Karnataka, 581300, India",
            "longitude": "74.1319229",
            "latitude": "14.8120931",
            "blogLinks": [
                "https://www.tripoto.com/places-to-visit/india/karnataka"
            ],
            "locType": "town"
        },
        "kodagu": {
            "closest_to": "nandi hills",
            "address": "Kodagu, Karnataka, India",
            "longitude": "75.6677235950852",
            "latitude": "12.38117345",
            "blogLinks": [
                "https://www.quora.com/What-are-the-best-places-to-visit-on-a-3-day-trip-in-and-around-Karnataka",
                "https://www.tripoto.com/places-to-visit/india/karnataka"
            ],
            "locType": "administrative"
        },
        "river kali": {
            "closest_to": "jog falls",
            "address": "Kali, Joida taluk, Uttara Kannada, Karnataka, India",
            "longitude": "74.5802901",
            "latitude": "15.0145378",
            "blogLinks": [
                "https://www.tripoto.com/places-to-visit/india/karnataka"
            ],
            "locType": "river"
        },
        "murudeshwara temple": {
            "closest_to": "jog falls",
            "address": "Murudeshwara Temple, NH66, Manki, Honnavara taluku, Uttara Kannada, Karnataka, 581348, India",
            "longitude": "74.484753966647",
            "latitude": "14.0934908",
            "blogLinks": [
                "https://www.tripoto.com/places-to-visit/india/karnataka"
            ],
            "locType": "place_of_worship"
        },
        "half moon": {
            "closest_to": "jog falls",
            "address": "Half Moon Garden Caf\u00e9, Om beach road, Gokarna, Kumata taluk, Uttara Kannada, Karnataka, 581326, India",
            "longitude": "74.3317205",
            "latitude": "14.5181286",
            "blogLinks": [
                "https://www.tripoto.com/places-to-visit/india/karnataka"
            ],
            "locType": "restaurant"
        },
        "dakshina kannada": {
            "closest_to": "nandi hills",
            "address": "Dakshina Kannada, Karnataka, India",
            "longitude": "75.1008028650794",
            "latitude": "12.8114089",
            "blogLinks": [
                "https://www.quora.com/What-are-the-best-places-to-visit-on-a-3-day-trip-in-and-around-Karnataka"
            ],
            "locType": "administrative"
        },
        "kutta": {
            "closest_to": "nandi hills",
            "address": "Kutta, Virajpet taluk, Kodagu, Karnataka, India",
            "longitude": "76.0491296",
            "latitude": "11.9696155",
            "blogLinks": [
                "https://www.tripoto.com/places-to-visit/india/karnataka"
            ],
            "locType": "village"
        },
        "rashtrakavi kuvempu": {
            "closest_to": "nandi hills",
            "address": "Rashtrakavi Kuvempu Road, Mico Arekere Layout 1st Stage, Hulimavu, Beguru, Bangalore Urban, Karnataka, 560076, India",
            "longitude": "77.6068684",
            "latitude": "12.8866766",
            "blogLinks": [
                "https://www.quora.com/What-are-the-best-places-to-visit-on-a-3-day-trip-in-and-around-Karnataka"
            ],
            "locType": "residential"
        },
        "sharavati": {
            "closest_to": "jog falls",
            "address": "Sharavati, Sagara taluk, Shimoga district, Karnataka, India",
            "longitude": "74.7647294",
            "latitude": "14.2360979",
            "blogLinks": [
                "https://www.quora.com/What-are-the-best-places-to-visit-on-a-3-day-trip-in-and-around-Karnataka"
            ],
            "locType": "river"
        },
        "coimbatore": {
            "closest_to": "nandi hills",
            "address": "Gundlupet - Coimbatore Highway, Bandipur, Gundlupet taluk, Chamarajanagar district, Karnataka, India",
            "longitude": "76.6318246",
            "latitude": "11.6793976",
            "blogLinks": [
                "https://www.tripoto.com/places-to-visit/india/karnataka"
            ],
            "locType": "trunk"
        },
        "malpe beach": {
            "closest_to": "nandi hills",
            "address": "Malpe Beach, Malpe Road, Adi Udupi, Malpe, Udupi taluku, Udupi district, Karnataka, 576101, India",
            "longitude": "74.6977767",
            "latitude": "13.3610748",
            "blogLinks": [
                "https://www.tripoto.com/places-to-visit/india/karnataka"
            ],
            "locType": "marina"
        },
        "nugu": {
            "closest_to": "nandi hills",
            "address": "Nugu, Heggadadevanakote taluk, Mysuru district, Karnataka, India",
            "longitude": "76.4213276",
            "latitude": "11.8823658",
            "blogLinks": [
                "https://www.tripoto.com/places-to-visit/india/karnataka"
            ],
            "locType": "river"
        },
        "madikeri fort": {
            "closest_to": "nandi hills",
            "address": "Madikeri Museum, Fort Internal Road, Madikeri, Madikeri taluku, Kodagu, Karnataka, India",
            "longitude": "75.7392494",
            "latitude": "12.4203606",
            "blogLinks": [
                "https://www.tripoto.com/places-to-visit/india/karnataka"
            ],
            "locType": "museum"
        },
        "chikmagalur": {
            "closest_to": "nandi hills",
            "address": "Chikmagalur, Chikkamagaluru district, Karnataka, India",
            "longitude": "75.5",
            "latitude": "13.5",
            "blogLinks": [
                "https://www.tripoto.com/places-to-visit/india/karnataka"
            ],
            "locType": "county"
        },
        "chennakesava": {
            "closest_to": "nandi hills",
            "address": "Chennakesava Temple, NH73, Navilahalli, Beluru taluk, Hassan district, Karnataka, India",
            "longitude": "75.8603311",
            "latitude": "13.1629239",
            "blogLinks": [
                "https://www.tripoto.com/places-to-visit/india/karnataka"
            ],
            "locType": "place_of_worship"
        },
        "north west mysore": {
            "closest_to": "nandi hills",
            "address": "Mysuru, Mysuru taluk, Mysuru district, Karnataka, 570001, India",
            "longitude": "76.6553609",
            "latitude": "12.3051828",
            "blogLinks": [
                "https://www.tripoto.com/places-to-visit/india/karnataka"
            ],
            "locType": "city"
        },
        "panambur - panambur beach": {
            "closest_to": "nandi hills",
            "address": "Panambur Beach, Panambur Beach Road, Gandhinagar, Panambur, Mangaluru taluk, Dakshina Kannada, Karnataka, 575013, India",
            "longitude": "74.8034667207214",
            "latitude": "12.93907195",
            "blogLinks": [
                "https://www.quora.com/What-are-the-best-places-to-visit-on-a-3-day-trip-in-and-around-Karnataka"
            ],
            "locType": "beach"
        },
        "goa karnataka": {
            "closest_to": "nandi hills",
            "address": "Carnival De Goa, Bhaskaran Road, Gupta Layout, Halasuru, Bengaluru, Bangalore Urban, Karnataka, 560001, India",
            "longitude": "77.6200027",
            "latitude": "12.9750047",
            "blogLinks": [
                "https://www.tripoto.com/places-to-visit/india/karnataka"
            ],
            "locType": "restaurant"
        },
        "mysore palace": {
            "closest_to": "nandi hills",
            "address": "Mysore Palace, Sayyaji Rao Road, Vani Vilas, Mysuru, Mysuru taluk, Mysuru district, Karnataka, 570001, India",
            "longitude": "76.6539249338108",
            "latitude": "12.3052915",
            "blogLinks": [
                "https://www.tripoto.com/places-to-visit/india/karnataka"
            ],
            "locType": "yes"
        },
        "uttarahalli": {
            "closest_to": "nandi hills",
            "address": "Uttarahalli, Bengaluru, Bangalore Urban, Karnataka, 560001, India",
            "longitude": "77.5455438",
            "latitude": "12.9055682",
            "blogLinks": [
                "https://www.tripoto.com/places-to-visit/india/karnataka"
            ],
            "locType": "suburb"
        },
        "sharadamba temple": {
            "closest_to": "nandi hills",
            "address": "Sharadamba Temple, 7th Main Road, Yediyur, Thyagaraja Nagar, Bengaluru, Bangalore Urban, Karnataka, 560001, India",
            "longitude": "77.5656194",
            "latitude": "12.9321898",
            "blogLinks": [
                "https://www.tripoto.com/places-to-visit/india/karnataka"
            ],
            "locType": "place_of_worship"
        },
        "mysore road": {
            "closest_to": "nandi hills",
            "address": "Mysore Road, Avalahalli, Bengaluru, Bangalore Urban, Karnataka, 560001, India",
            "longitude": "77.5337558",
            "latitude": "12.9477396",
            "blogLinks": [
                "https://www.tripoto.com/places-to-visit/india/karnataka"
            ],
            "locType": "trunk"
        },
        "mullayanagiri range": {
            "closest_to": "nandi hills",
            "address": "Mullayyanagiri, Chikkamagaluru, Chikkamagaluru taluku, Chikkamagaluru district, Karnataka, 577101, India",
            "longitude": "75.7214034",
            "latitude": "13.3909217",
            "blogLinks": [
                "https://www.quora.com/What-are-the-best-places-to-visit-on-a-3-day-trip-in-and-around-Karnataka"
            ],
            "locType": "peak"
        },
        "marikamba temple": {
            "closest_to": "nandi hills",
            "address": "Marikamba Temple, NH766C;SH26, Halkal, \u0c95\u0cc1\u0c82\u0ca6\u0cbe\u0caa\u0cc1\u0cb0 \u0ca4\u0cbe\u0cb2\u0cc2\u0c95\u0cc1, Udupi district, Karnataka, 576220, India",
            "longitude": "74.8103631279317",
            "latitude": "13.8626958",
            "blogLinks": [
                "https://www.quora.com/What-are-the-best-places-to-visit-on-a-3-day-trip-in-and-around-Karnataka"
            ],
            "locType": "place_of_worship"
        },
        "kalyana mantap": {
            "closest_to": "nandi hills",
            "address": "Prasanna Kalyana Mantap, 10C Main, Mavalli, Someshwaranagar, Bengaluru, Bangalore Urban, Karnataka, 560001, India",
            "longitude": "77.5878226698058",
            "latitude": "12.9410323",
            "blogLinks": [
                "http://wikitravel.org/en/Nandi_Hills"
            ],
            "locType": "community_centre"
        },
        "nandi hill": {
            "closest_to": "nandi hills",
            "address": "Nandi Hill, Chikkaballapura taluk, Chikkaballapura district, Karnataka, India",
            "longitude": "77.6847849",
            "latitude": "13.3700061",
            "blogLinks": [
                "http://www.myhappyjourney.com/Karnataka",
                "https://en.wikipedia.org/wiki/Nandi_Hills,_India"
            ],
            "locType": "peak"
        },
        "kabini river": {
            "closest_to": "nandi hills",
            "address": "Kabini right bank canal, Nanjanagudu taluk, Mysuru district, Karnataka, India",
            "longitude": "76.6477184",
            "latitude": "12.0780998",
            "blogLinks": [
                "https://www.tripoto.com/places-to-visit/india/karnataka"
            ],
            "locType": "canal"
        },
        "us": {
            "closest_to": "nandi hills",
            "address": "Karnataka, India",
            "longitude": "75.7223521",
            "latitude": "14.5203896",
            "blogLinks": [
                "https://www.tripoto.com/places-to-visit/india/karnataka"
            ],
            "locType": "administrative"
        },
        "mandya district": {
            "closest_to": "nandi hills",
            "address": "Mandya district, Karnataka, India",
            "longitude": "76.7302318329607",
            "latitude": "12.6336348",
            "blogLinks": [
                "https://www.tripoto.com/places-to-visit/india/karnataka"
            ],
            "locType": "administrative"
        },
        "kanakapura taluk": {
            "closest_to": "nandi hills",
            "address": "Kanakapura taluk, Ramanagara district, Karnataka, India",
            "longitude": "77.4224204245398",
            "latitude": "12.5199223",
            "blogLinks": [
                "https://www.tripoto.com/places-to-visit/india/karnataka"
            ],
            "locType": "administrative"
        },
        "rose garden": {
            "closest_to": "nandi hills",
            "address": "Rose Garden, Dr B R Ambedkar Veedhi, Shantala Nagar, Gandhinagar, Bengaluru, Bangalore Urban, Karnataka, 560001, India",
            "longitude": "77.590382853852",
            "latitude": "12.97371325",
            "blogLinks": [
                "https://www.tripoto.com/places-to-visit/india/karnataka"
            ],
            "locType": "garden"
        },
        "rock garden": {
            "closest_to": "nandi hills",
            "address": "Waterfalls by the Rock site, Madikeri taluku, Kodagu, Karnataka, India",
            "longitude": "75.6142269",
            "latitude": "12.2248591",
            "blogLinks": [
                "https://www.tripoto.com/places-to-visit/india/karnataka"
            ],
            "locType": "waterfall"
        },