{
    "mangalore": {
        "place_id": "637002",
        "osm_id": "245612641",
        "icon": "https://nominatim.openstreetmap.org/images/mapicons/poi_place_city.p.20.png",
        "osm_type": "node",
        "licence": "Data \u00a9 OpenStreetMap contributors, ODbL 1.0. http://www.openstreetmap.org/copyright",
        "display_name": "Mangaluru, Mangaluru taluk, Dakshina Kannada, Karnataka, 575001, India",
        "type": "city",
        "lon": "74.8430082",
        "boundingbox": [
            "12.7098101",
            "13.0298101",
            "74.6830082",
            "75.0030082"
        ],
        "importance": 0.45,
        "lat": "12.8698101",
        "class": "place"
    },
    "mentions": {
        "horanadu": {
            "closest_to": "mangalore",
            "address": "Horanadu, Mudigere taluk, Chikkamagaluru district, Karnataka, 577181, India",
            "longitude": "75.3445161",
            "latitude": "13.2761199",
            "blogLinks": [
                "http://www.indiamike.com/india/karnataka-f38/udupi-agumbe-shringeri-murudeshwara-jog-falls-dharmasthala-t137208/"
            ],
            "locType": "town"
        },
        "coastal karnataka": {
            "closest_to": "mangalore",
            "address": "Bharat Petroleum Mangalore Coastal Installation, Baikampady, Mangaluru taluk, Dakshina Kannada, Karnataka, 575014, India",
            "longitude": "74.8137275833157",
            "latitude": "12.96014675",
            "blogLinks": [
                "http://www.nivalink.com/destination/jog-falls"
            ],
            "locType": "industrial"
        },
        "shikra": {
            "closest_to": "jog falls",
            "address": "Shikra Jungle Resort, SH28, Haregalli, Haliyala taluku, Uttara Kannada, Karnataka, India",
            "longitude": "74.60215685001",
            "latitude": "15.3242702",
            "blogLinks": [
                "https://www.tripadvisor.in/Attraction_Review-g1156205-d1206548-Reviews-Jog_Falls-Shimoga_Karnataka.html"
            ],
            "locType": "camp_site"
        },
        "unchalli falls": {
            "closest_to": "jog falls",
            "address": "\u0c89\u0c82\u0c9a\u0cb3\u0ccd\u0cb3\u0cbf \u0c9c\u0cb2\u0caa\u0cbe\u0ca4, Siddapura taluk, Uttara Kannada, Karnataka, India",
            "longitude": "74.7477592",
            "latitude": "14.4097755",
            "blogLinks": [
                "https://www.quora.com/What-are-the-best-places-to-visit-in-between-Mangalore-to-Goa-on-a-road-trip"
            ],
            "locType": "waterfall"
        },
        "kadra": {
            "closest_to": "jog falls",
            "address": "Kadra, Karavara taluk, Uttara Kannada, Karnataka, India",
            "longitude": "74.3470725",
            "latitude": "14.9058881",
            "blogLinks": [
                "http://travel.paintedstork.com/blog/2005/08/drive-in-rains-jog-falls-karwar-kali.html"
            ],
            "locType": "village"
        },
        "kali": {
            "closest_to": "jog falls",
            "address": "Kali, Joida taluk, Uttara Kannada, Karnataka, India",
            "longitude": "74.5802901",
            "latitude": "15.0145378",
            "blogLinks": [
                "http://travel.paintedstork.com/blog/2005/08/drive-in-rains-jog-falls-karwar-kali.html"
            ],
            "locType": "river"
        },
        "jog falls": {
            "closest_to": "mangalore",
            "address": "Jog Falls, Joga - Kargal, Sagara taluk, Shimoga district, Karnataka, India",
            "longitude": "74.8128715",
            "latitude": "14.2276106",
            "blogLinks": [
                "https://www.tripadvisor.in/Attraction_Review-g1156205-d1206548-Reviews-Jog_Falls-Shimoga_Karnataka.html",
                "http://travel.india.com/jog-falls/places-to-visit/",
                "http://travel.india.com/jog-falls/"
            ],
            "locType": "locality"
        },
        "sharavati river": {
            "closest_to": "jog falls",
            "address": "Sharavati, Sagara taluk, Shimoga district, Karnataka, India",
            "longitude": "74.7647294",
            "latitude": "14.2360979",
            "blogLinks": [
                "http://travel.india.com/jog-falls/"
            ],
            "locType": "river"
        },
        "sita river": {
            "closest_to": "mangalore",
            "address": "Sita, Karkala taluk, Udupi district, Karnataka, India",
            "longitude": "74.9348242",
            "latitude": "13.4787567",
            "blogLinks": [
                "https://besttimetovisitjogfalls.wordpress.com/tag/karnataka-tourism/",
                "https://besttimetovisitjogfalls.wordpress.com/tag/falls-in-karnataka/"
            ],
            "locType": "river"
        },
        "marikamba": {
            "closest_to": "mangalore",
            "address": "Marikamba Temple, NH766C;SH26, Halkal, \u0c95\u0cc1\u0c82\u0ca6\u0cbe\u0caa\u0cc1\u0cb0 \u0ca4\u0cbe\u0cb2\u0cc2\u0c95\u0cc1, Udupi district, Karnataka, 576220, India",
            "longitude": "74.8103631279317",
            "latitude": "13.8626958",
            "blogLinks": [
                "http://www.indiamike.com/india/karnataka-f38/help-required-on-weekend-tour-to-jog-falls-t141156/"
            ],
            "locType": "place_of_worship"
        },
        "kalaseshwara temple": {
            "closest_to": "mangalore",
            "address": "Kalaseshwara Temple, SH66, Kalasa, Mudigere taluk, Chikkamagaluru district, Karnataka, 577124, India",
            "longitude": "75.363446975",
            "latitude": "13.23228505",
            "blogLinks": [
                "https://besttimetovisitjogfalls.wordpress.com/tag/falls-in-karnataka/"
            ],
            "locType": "place_of_worship"
        },
        "uttara kannada": {
            "closest_to": "jog falls",
            "address": "Uttara Kannada, Karnataka, India",
            "longitude": "74.4729163045979",
            "latitude": "14.6726379",
            "blogLinks": [
                "http://blog.sterlingholidays.com/jog-falls-karnataka-one-of-the-highest-falls-in-asia/"
            ],
            "locType": "administrative"
        },
        "dakshina kannada district": {
            "closest_to": "mangalore",
            "address": "Dakshina Kannada, Karnataka, India",
            "longitude": "74.9813132",
            "latitude": "12.9324457",
            "blogLinks": [
                "https://besttimetovisitjogfalls.wordpress.com/tag/karnataka-tourism/",
                "https://besttimetovisitjogfalls.wordpress.com/tag/falls-in-karnataka/"
            ],
            "locType": "county"
        },
        "linganamakki": {
            "closest_to": "mangalore",
            "address": "Linganamakki, Sagara taluk, Shimoga district, Karnataka, India",
            "longitude": "74.8292508",
            "latitude": "14.1731954",
            "blogLinks": [
                "http://travel.india.com/jog-falls/places-to-visit/",
                "http://blog.sterlingholidays.com/jog-falls-karnataka-one-of-the-highest-falls-in-asia/"
            ],
            "locType": "village"
        },
        "keladi": {
            "closest_to": "jog falls",
            "address": "Keladi, Sagara taluk, Shimoga district, Karnataka, India",
            "longitude": "75.0165753",
            "latitude": "14.2214761",
            "blogLinks": [
                "http://www.nivalink.com/destination/jog-falls"
            ],
            "locType": "village"
        },
        "kundapur": {
            "closest_to": "mangalore",
            "address": "United Basel mission church Higher Primary School, Kundapur, Chikkansal Road, Vaderahobali, Kundapura, \u0c95\u0cc1\u0c82\u0ca6\u0cbe\u0caa\u0cc1\u0cb0 \u0ca4\u0cbe\u0cb2\u0cc2\u0c95\u0cc1, Udupi district, Karnataka, 576200, India",
            "longitude": "74.6906749",
            "latitude": "13.6343509",
            "blogLinks": [
                "https://www.quora.com/What-are-the-best-places-to-visit-in-between-Mangalore-to-Goa-on-a-road-trip"
            ],
            "locType": "school"
        },
        "agumbe": {
            "closest_to": "mangalore",
            "address": "Agumbe, Tirthahalli taluk, Shimoga district, Karnataka, 577411, India",
            "longitude": "75.0965525",
            "latitude": "13.5094998",
            "blogLinks": [
                "https://besttimetovisitjogfalls.wordpress.com/tag/karnataka-tourism/",
                "https://besttimetovisitjogfalls.wordpress.com/tag/falls-in-karnataka/"
            ],
            "locType": "village"
        },
        "kapu": {
            "closest_to": "mangalore",
            "address": "Kapu, Udupi taluku, Udupi district, Karnataka, India",
            "longitude": "74.7470496",
            "latitude": "13.2309688",
            "blogLinks": [
                "https://www.tripoto.com/trip/bangalore-to-jog-falls-karnataka"
            ],
            "locType": "village"
        },
        "linganamakki dam": {
            "closest_to": "mangalore",
            "address": "Linganamakki Dam, Sagara taluk, Shimoga district, Karnataka, India",
            "longitude": "74.8464623767123",
            "latitude": "14.1758978",
            "blogLinks": [
                "http://travel.india.com/jog-falls/"
            ],
            "locType": "dam"
        },
        "shringeri": {
            "closest_to": "jog falls",
            "address": "Shringeri, Hanagal taluk, Haveri district, Karnataka, India",
            "longitude": "75.0621168",
            "latitude": "14.7221214",
            "blogLinks": [
                "http://www.indiamike.com/india/karnataka-f38/udupi-agumbe-shringeri-murudeshwara-jog-falls-dharmasthala-t137208/"
            ],
            "locType": "village"
        },
        "tunga river": {
            "closest_to": "mangalore",
            "address": "Tunga, Tirthahalli taluk, Shimoga district, Karnataka, India",
            "longitude": "75.3221835",
            "latitude": "13.6632221",
            "blogLinks": [
                "http://travel.india.com/jog-falls/places-to-visit/"
            ],
            "locType": "river"
        },
        "hosagadde": {
            "closest_to": "jog falls",
            "address": "Hosagadde, Kelaginamane, Siddapura taluk, Uttara Kannada, Karnataka, India",
            "longitude": "74.7527463",
            "latitude": "14.3274092",
            "blogLinks": [
                "http://travel.india.com/jog-falls/places-to-visit/"
            ],
            "locType": "locality"
        },
        "varada": {
            "closest_to": "jog falls",
            "address": "Varada, Savanura taluk, Haveri district, Karnataka, India",
            "longitude": "75.47206",
            "latitude": "14.8717792",
            "blogLinks": [
                "http://www.nivalink.com/destination/jog-falls"
            ],
            "locType": "river"
        },
        "ankola": {
            "closest_to": "jog falls",
            "address": "Ankola, Ankola taluk, Uttara Kannada, Karnataka, 581314, India",
            "longitude": "74.3047846",
            "latitude": "14.6599889",
            "blogLinks": [
                "http://www.indianholiday.com/tours-of-india/jog-falls-trip-bangalore.html",
                "https://besttimetovisitjogfalls.wordpress.com/tag/karnataka-tourism/",
                "https://besttimetovisitjogfalls.wordpress.com/tag/falls-in-karnataka/",
                "http://blog.sterlingholidays.com/jog-falls-karnataka-one-of-the-highest-falls-in-asia/"
            ],
            "locType": "town"
        },
        "sharavati valley": {
            "closest_to": "jog falls",
            "address": "Sharavati, Sagara taluk, Shimoga district, Karnataka, India",
            "longitude": "74.7647294",
            "latitude": "14.2360979",
            "blogLinks": [
                "http://travel.paintedstork.com/blog/2005/08/drive-in-rains-jog-falls-karwar-kali.html"
            ],
            "locType": "river"
        },
        "panaji": {
            "closest_to": "jog falls",
            "address": "Belgaum - Panaji Highway, Londa, Khanapura taluku, Belgaum district, Karnataka, India",
            "longitude": "74.4876784",
            "latitude": "15.4422981",
            "blogLinks": [
                "http://www.indianholiday.com/tours-of-india/jog-falls-trip-bangalore.html"
            ],
            "locType": "trunk"
        },
        "shantadurga": {
            "closest_to": "jog falls",
            "address": "Shantadurga Temple, NH66, Kodibag, Chittakula, Karavara taluk, Uttara Kannada, Karnataka, 581352, India",
            "longitude": "74.1334229242931",
            "latitude": "14.84849645",
            "blogLinks": [
                "http://www.indianholiday.com/tours-of-india/jog-falls-trip-bangalore.html"
            ],
            "locType": "place_of_worship"
        },
        "kemmangundi": {
            "closest_to": "mangalore",
            "address": "Kemmannagundi, Tarikere taluku, Chikkamagaluru district, Karnataka, India",
            "longitude": "75.7520082",
            "latitude": "13.5463048",
            "blogLinks": [
                "https://besttimetovisitjogfalls.wordpress.com/tag/karnataka-tourism/",
                "https://besttimetovisitjogfalls.wordpress.com/tag/falls-in-karnataka/"
            ],
            "locType": "village"
        },
        "hubli": {
            "closest_to": "jog falls",
            "address": "Hubballi - \u0cb9\u0cc1\u0cac\u0ccd\u0cac\u0cb3\u0ccd\u0cb3\u0cbf, Hubballi taluku, Dharwad district, Karnataka, 580020, India",
            "longitude": "75.1379848",
            "latitude": "15.3518378",
            "blogLinks": [
                "https://besttimetovisitjogfalls.wordpress.com/tag/karnataka-tourism/",
                "http://www.nivalink.com/destination/jog-falls",
                "https://besttimetovisitjogfalls.wordpress.com/tag/falls-in-karnataka/",
                "https://www.tripoto.com/trip/bangalore-to-jog-falls-karnataka"
            ],
            "locType": "city"
        },
        "mangalore": {
            "closest_to": "mangalore",
            "address": "Mangaluru, Mangaluru taluk, Dakshina Kannada, Karnataka, 575001, India",
            "longitude": "74.8430082",
            "latitude": "12.8698101",
            "blogLinks": [
                "http://www.team-bhp.com/forum/route-travel-queries/29629-bangalore-shimogga-jog-falls-goa-mangalore-bangalore-route.html",
                "https://besttimetovisitjogfalls.wordpress.com/tag/karnataka-tourism/",
                "https://www.tripoto.com/trip/bangalore-to-jog-falls-karnataka",
                "https://www.quora.com/What-are-the-best-places-to-visit-in-between-Mangalore-to-Goa-on-a-road-trip",
                "http://travel.paintedstork.com/blog/2005/08/drive-in-rains-jog-falls-karwar-kali.html"
            ],
            "locType": "city"
        },
        "sagara": {
            "closest_to": "mangalore",
            "address": "Sagara, Sagara taluk, Shimoga district, Karnataka, 577400, India",
            "longitude": "75.0262551",
            "latitude": "14.1666594",
            "blogLinks": [
                "http://travel.india.com/jog-falls/places-to-visit/",
                "http://www.indiamike.com/india/karnataka-f38/help-required-on-weekend-tour-to-jog-falls-t141156/",
                "http://www.nivalink.com/destination/jog-falls"
            ],
            "locType": "town"
        },
        "sagar": {
            "closest_to": "mangalore",
            "address": "Sagara, Sagara taluk, Shimoga district, Karnataka, 577400, India",
            "longitude": "75.0262551",
            "latitude": "14.1666594",
            "blogLinks": [
                "http://blog.sterlingholidays.com/jog-falls-karnataka-one-of-the-highest-falls-in-asia/",
                "http://travel.paintedstork.com/blog/2005/08/drive-in-rains-jog-falls-karwar-kali.html"
            ],
            "locType": "town"
        },
        "thirthahalli taluk of shimoga": {
            "closest_to": "mangalore",
            "address": "Agumbe Road, Nalur, Tirthahalli taluk, Shimoga district, Karnataka, India",
            "longitude": "75.1326104",
            "latitude": "13.5865156",
            "blogLinks": [
                "http://blog.sterlingholidays.com/jog-falls-karnataka-one-of-the-highest-falls-in-asia/"
            ],
            "locType": "trunk"
        },
        "dharwad": {
            "closest_to": "jog falls",
            "address": "Dharwad, Dharawada taluku, Dharwad district, Karnataka, 580001, India",
            "longitude": "75.0066516",
            "latitude": "15.4540505",
            "blogLinks": [
                "https://besttimetovisitjogfalls.wordpress.com/tag/karnataka-tourism/",
                "https://besttimetovisitjogfalls.wordpress.com/tag/falls-in-karnataka/"
            ],
            "locType": "city"
        },
        "karwar": {
            "closest_to": "jog falls",
            "address": "Karwar, Karavara taluk, Uttara Kannada, Karnataka, 581300, India",
            "longitude": "74.1319229",
            "latitude": "14.8120931",
            "blogLinks": [
                "https://www.quora.com/What-are-the-best-places-to-visit-in-between-Mangalore-to-Goa-on-a-road-trip",
                "http://travel.paintedstork.com/blog/2005/08/drive-in-rains-jog-falls-karwar-kali.html"
            ],
            "locType": "town"
        },
        "hebbe falls": {
            "closest_to": "mangalore",
            "address": "Hebbe falls, Kemmannagundi Road, Attigundi, Chikkamagaluru taluku, Chikkamagaluru district, Karnataka, India",
            "longitude": "75.7253701",
            "latitude": "13.5414025",
            "blogLinks": [
                "https://besttimetovisitjogfalls.wordpress.com/tag/karnataka-tourism/",
                "https://besttimetovisitjogfalls.wordpress.com/tag/falls-in-karnataka/"
            ],
            "locType": "attraction"
        },
        "charmadi": {
            "closest_to": "mangalore",
            "address": "Charmadi, Beltangadi taluk, Dakshina Kannada, Karnataka, 574290, India",
            "longitude": "75.3967377",
            "latitude": "13.0365436",
            "blogLinks": [
                "https://besttimetovisitjogfalls.wordpress.com/tag/karnataka-tourism/",
                "https://besttimetovisitjogfalls.wordpress.com/tag/falls-in-karnataka/"
            ],
            "locType": "village"
        },
        "sahasralinga": {
            "closest_to": "jog falls",
            "address": "Sahasralinga, Shirasi taluk, Uttara Kannada, Karnataka, India",
            "longitude": "74.8077293",
            "latitude": "14.7197633",
            "blogLinks": [
                "https://www.quora.com/What-are-the-best-places-to-visit-in-between-Mangalore-to-Goa-on-a-road-trip"
            ],
            "locType": "hamlet"
        },
        "honnavar": {
            "closest_to": "jog falls",
            "address": "Honnavar, Honnavara taluku, Uttara Kannada, Karnataka, 581334, India",
            "longitude": "74.4446716",
            "latitude": "14.2810827",
            "blogLinks": [
                "http://blog.sterlingholidays.com/jog-falls-karnataka-one-of-the-highest-falls-in-asia/"
            ],
            "locType": "town"
        },
        "bhatkal": {
            "closest_to": "mangalore",
            "address": "Bhatkal, Bhatkala taluk, Uttara Kannada, Karnataka, 581320, India",
            "longitude": "74.5485295",
            "latitude": "13.9952114",
            "blogLinks": [
                "https://www.tripadvisor.in/Attraction_Review-g1156205-d1206548-Reviews-Jog_Falls-Shimoga_Karnataka.html"
            ],
            "locType": "town"
        },
        "kalasa": {
            "closest_to": "mangalore",
            "address": "Kalasa, Mudigere taluk, Chikkamagaluru district, Karnataka, 577124, India",
            "longitude": "75.3582366",
            "latitude": "13.2322235",
            "blogLinks": [
                "http://www.team-bhp.com/forum/route-travel-queries/29629-bangalore-shimogga-jog-falls-goa-mangalore-bangalore-route.html"
            ],
            "locType": "town"
        },
        "kundapura": {
            "closest_to": "mangalore",
            "address": "Kundapura, \u0c95\u0cc1\u0c82\u0ca6\u0cbe\u0caa\u0cc1\u0cb0 \u0ca4\u0cbe\u0cb2\u0cc2\u0c95\u0cc1, Udupi district, Karnataka, 576200, India",
            "longitude": "74.6915722",
            "latitude": "13.6250993",
            "blogLinks": [
                "http://www.nivalink.com/destination/jog-falls"
            ],
            "locType": "town"
        },
        "shimoga": {
            "closest_to": "mangalore",
            "address": "Shivamogga, Shivamogga taluku, Shimoga district, Karnataka, 577200, India",
            "longitude": "75.569737",
            "latitude": "13.9311723",
            "blogLinks": [
                "https://besttimetovisitjogfalls.wordpress.com/tag/karnataka-tourism/",
                "https://besttimetovisitjogfalls.wordpress.com/tag/falls-in-karnataka/"
            ],
            "locType": "city"
        },
        "gokarna beach": {
            "closest_to": "jog falls",
            "address": "Gokarna Beach, Gokarna Road, Ganji Gadde, Kumata taluk, Uttara Kannada, Karnataka, 581326, India",
            "longitude": "74.3109489488919",
            "latitude": "14.5516537",
            "blogLinks": [
                "https://www.tripadvisor.in/Attraction_Review-g1156205-d1206548-Reviews-Jog_Falls-Shimoga_Karnataka.html"
            ],
            "locType": "beach"
        },
        "gokarna": {
            "closest_to": "jog falls",
            "address": "Gokarna, Kumata taluk, Uttara Kannada, Karnataka, 581326, India",
            "longitude": "74.3184418",
            "latitude": "14.5439629",
            "blogLinks": [
                "http://www.indiamike.com/india/karnataka-f38/udupi-agumbe-shringeri-murudeshwara-jog-falls-dharmasthala-t137208/",
                "http://www.indianholiday.com/tours-of-india/jog-falls-trip-bangalore.html",
                "http://www.indiamike.com/india/karnataka-f38/help-required-on-weekend-tour-to-jog-falls-t141156/"
            ],
            "locType": "town"
        },
        "india": {
            "closest_to": "jog falls",
            "address": "Karnataka, India",
            "longitude": "75.7223521",
            "latitude": "14.5203896",
            "blogLinks": [
                "https://besttimetovisitjogfalls.wordpress.com/tag/karnataka-tourism/"
            ],
            "locType": "administrative"
        },
        "sharavati": {
            "closest_to": "jog falls",
            "address": "Sharavati, Sagara taluk, Shimoga district, Karnataka, India",
            "longitude": "74.7647294",
            "latitude": "14.2360979",
            "blogLinks": [
                "http://travel.paintedstork.com/blog/2005/08/drive-in-rains-jog-falls-karwar-kali.html",
                "http://www.bangaloretrips.info/jogfalls"
            ],
            "locType": "river"
        }
    },
    "jog falls": {
        "place_id": "12596177",
        "osm_id": "1191427856",
        "icon": "https://nominatim.openstreetmap.org/images/mapicons/poi_place_village.p.20.png",
        "osm_type": "node",
        "licence": "Data \u00a9 OpenStreetMap contributors, ODbL 1.0. http://www.openstreetmap.org/copyright",
        "display_name": "Jog Falls, Joga - Kargal, Sagara taluk, Shimoga district, Karnataka, India",
        "type": "locality",
        "lon": "74.8128715",
        "boundingbox": [
            "14.2176106",
            "14.2376106",
            "74.8028715",
            "74.8228715"
        ],
        "importance": 0.66590216462374,
        "lat": "14.2276106",
        "class": "place"
    }
}