{
    "udupi": {
        "place_id": "634423",
        "osm_id": "245620117",
        "icon": "https://nominatim.openstreetmap.org/images/mapicons/poi_place_city.p.20.png",
        "osm_type": "node",
        "licence": "Data \u00a9 OpenStreetMap contributors, ODbL 1.0. http://www.openstreetmap.org/copyright",
        "display_name": "Udupi, Udupi taluku, Udupi district, Karnataka, 576101, India",
        "type": "city",
        "lon": "74.7473232",
        "boundingbox": [
            "13.1819169",
            "13.5019169",
            "74.5873232",
            "74.9073232"
        ],
        "importance": 0.55,
        "lat": "13.3419169",
        "class": "place"
    },
    "kundapur": {
        "place_id": "33849904",
        "osm_id": "2806096352",
        "icon": "https://nominatim.openstreetmap.org/images/mapicons/education_school.p.20.png",
        "osm_type": "node",
        "licence": "Data \u00a9 OpenStreetMap contributors, ODbL 1.0. http://www.openstreetmap.org/copyright",
        "display_name": "United Basel mission church Higher Primary School, Kundapur, Chikkansal Road, Vaderahobali, Kundapura, \u0c95\u0cc1\u0c82\u0ca6\u0cbe\u0caa\u0cc1\u0cb0 \u0ca4\u0cbe\u0cb2\u0cc2\u0c95\u0cc1, Udupi district, Karnataka, 576200, India",
        "type": "school",
        "lon": "74.6906749",
        "boundingbox": [
            "13.6343009",
            "13.6344009",
            "74.6906249",
            "74.6907249"
        ],
        "importance": 0.201,
        "lat": "13.6343509",
        "class": "amenity"
    },
    "mentions": {
        "kodachadri peak": {
            "closest_to": "kundapur",
            "address": "Kodachadri, \u0c95\u0cc1\u0c82\u0ca6\u0cbe\u0caa\u0cc1\u0cb0 \u0ca4\u0cbe\u0cb2\u0cc2\u0c95\u0cc1, Udupi district, Karnataka, India",
            "longitude": "74.8705395",
            "latitude": "13.8565758",
            "blogLinks": [
                "http://mustseekarnataka.blogspot.com/2011/09/must-see-kundapur.html"
            ],
            "locType": "peak"
        },
        "belve village": {
            "closest_to": "udupi",
            "address": "Belve, \u0c95\u0cc1\u0c82\u0ca6\u0cbe\u0caa\u0cc1\u0cb0 \u0ca4\u0cbe\u0cb2\u0cc2\u0c95\u0cc1, Udupi district, Karnataka, India",
            "longitude": "74.9249251",
            "latitude": "13.5271121",
            "blogLinks": [
                "http://wikitravel.org/en/Udupi"
            ],
            "locType": "village"
        },
        "kundapur": {
            "closest_to": "kundapur",
            "address": "United Basel mission church Higher Primary School, Kundapur, Chikkansal Road, Vaderahobali, Kundapura, \u0c95\u0cc1\u0c82\u0ca6\u0cbe\u0caa\u0cc1\u0cb0 \u0ca4\u0cbe\u0cb2\u0cc2\u0c95\u0cc1, Udupi district, Karnataka, 576200, India",
            "longitude": "74.6906749",
            "latitude": "13.6343509",
            "blogLinks": [
                "http://www.nivalink.com/destination/kundapura",
                "https://www.tripadvisor.com/ShowUserReviews-g737164-d1486294-r235105351-JuSTa_Turtlebay_On_Sea_Kundapur_Resort-Udupi_Karnataka.html",
                "http://wikitravel.org/en/Udupi",
                "http://www.distancesfrom.com/in/travel-from-kundapur-to-udupi-Karnataka-India/TravelFromHistory/31133320.aspx",
                "http://mustseekarnataka.blogspot.com/2011/09/must-see-kundapur.html",
                "https://www.quora.com/What-are-some-good-places-to-visit-on-the-Goa-Mangalore-route"
            ],
            "locType": "school"
        },
        "kundapura railway station": {
            "closest_to": "udupi",
            "address": "Kundapura, Railway Station Road, Vaderahobali, Koni, \u0c95\u0cc1\u0c82\u0ca6\u0cbe\u0caa\u0cc1\u0cb0 \u0ca4\u0cbe\u0cb2\u0cc2\u0c95\u0cc1, Udupi district, Karnataka, 576200, India",
            "longitude": "74.7288534",
            "latitude": "13.6133238",
            "blogLinks": [
                "http://wikitravel.org/en/Udupi"
            ],
            "locType": "station"
        },
        "kamalashile": {
            "closest_to": "kundapur",
            "address": "Government Lower Primary School, Yelaberu, Kamalashile, SH52, Hosangadi, \u0c95\u0cc1\u0c82\u0ca6\u0cbe\u0caa\u0cc1\u0cb0 \u0ca4\u0cbe\u0cb2\u0cc2\u0c95\u0cc1, Udupi district, Karnataka, 576282, India",
            "longitude": "74.8881686",
            "latitude": "13.708506",
            "blogLinks": [
                "http://mustseekarnataka.blogspot.com/2011/09/must-see-kundapur.html"
            ],
            "locType": "school"
        },
        "varahi river": {
            "closest_to": "kundapur",
            "address": "Varahi, \u0c95\u0cc1\u0c82\u0ca6\u0cbe\u0caa\u0cc1\u0cb0 \u0ca4\u0cbe\u0cb2\u0cc2\u0c95\u0cc1, Udupi district, Karnataka, India",
            "longitude": "74.9489117",
            "latitude": "13.6582668",
            "blogLinks": [
                "http://mustseekarnataka.blogspot.com/2011/09/must-see-kundapur.html"
            ],
            "locType": "river"
        },
        "hebri": {
            "closest_to": "udupi",
            "address": "Hebri, Karkala taluk, Udupi district, Karnataka, India",
            "longitude": "74.9911872",
            "latitude": "13.4586986",
            "blogLinks": [
                "http://wikitravel.org/en/Udupi"
            ],
            "locType": "village"
        },
        "malpe beach": {
            "closest_to": "udupi",
            "address": "Malpe Beach, Malpe Road, Adi Udupi, Malpe, Udupi taluku, Udupi district, Karnataka, 576101, India",
            "longitude": "74.6977767",
            "latitude": "13.3610748",
            "blogLinks": [
                "http://wikitravel.org/en/Udupi"
            ],
            "locType": "marina"
        },
        "barkuru": {
            "closest_to": "udupi",
            "address": "Barkuru, Udupi taluku, Udupi district, Karnataka, India",
            "longitude": "74.7536442",
            "latitude": "13.4674306",
            "blogLinks": [
                "http://mustseekarnataka.blogspot.com/2011/09/must-see-kundapur.html"
            ],
            "locType": "village"
        },
        "udupi taluk": {
            "closest_to": "udupi",
            "address": "Thirthahalli - Udupi Highway, Shivapura, Karkala taluk, Udupi district, Karnataka, India",
            "longitude": "74.9592512",
            "latitude": "13.4249325",
            "blogLinks": [
                "http://mustseekarnataka.blogspot.com/2011/09/must-see-kundapur.html"
            ],
            "locType": "trunk"
        },
        "manipal": {
            "closest_to": "udupi",
            "address": "Manipal, Udupi taluku, Udupi district, Karnataka, India",
            "longitude": "74.7870308",
            "latitude": "13.3519723",
            "blogLinks": [
                "http://wikitravel.org/en/Udupi"
            ],
            "locType": "town"
        },
        "mahakali": {
            "closest_to": "udupi",
            "address": "Mahakali Marga, Ambalapadi, Udupi, Udupi taluku, Udupi district, Karnataka, 576101, India",
            "longitude": "74.7253262",
            "latitude": "13.3420788",
            "blogLinks": [
                "http://www.nivalink.com/destination/udupi"
            ],
            "locType": "residential"
        },
        "kodachadri": {
            "closest_to": "kundapur",
            "address": "Kodachadri, \u0c95\u0cc1\u0c82\u0ca6\u0cbe\u0caa\u0cc1\u0cb0 \u0ca4\u0cbe\u0cb2\u0cc2\u0c95\u0cc1, Udupi district, Karnataka, India",
            "longitude": "74.8705395",
            "latitude": "13.8565758",
            "blogLinks": [
                "http://mustseekarnataka.blogspot.com/2011/09/must-see-kundapur.html"
            ],
            "locType": "peak"
        },
        "souparnika": {
            "closest_to": "kundapur",
            "address": "Souparnika Bathing Ghat Road, Kollur, \u0c95\u0cc1\u0c82\u0ca6\u0cbe\u0caa\u0cc1\u0cb0 \u0ca4\u0cbe\u0cb2\u0cc2\u0c95\u0cc1, Udupi district, Karnataka, 576220, India",
            "longitude": "74.8095156",
            "latitude": "13.8642453",
            "blogLinks": [
                "http://mustseekarnataka.blogspot.com/2011/09/must-see-kundapur.html"
            ],
            "locType": "unclassified"
        },
        "kirimanjeshwara": {
            "closest_to": "kundapur",
            "address": "Government Lower Primary Kannada School, Nagoor, Kirimanjeshwara, NH66, Navunda, \u0c95\u0cc1\u0c82\u0ca6\u0cbe\u0caa\u0cc1\u0cb0 \u0ca4\u0cbe\u0cb2\u0cc2\u0c95\u0cc1, Udupi district, Karnataka, 576224, India",
            "longitude": "74.6402601",
            "latitude": "13.7931089",
            "blogLinks": [
                "http://mustseekarnataka.blogspot.com/2011/09/must-see-kundapur.html"
            ],
            "locType": "school"
        },
        "gangolli": {
            "closest_to": "kundapur",
            "address": "Konchadi Radha Shyne Government Higher Primary School, Kharvikeri, Gangolli, NH66, Navunda, \u0c95\u0cc1\u0c82\u0ca6\u0cbe\u0caa\u0cc1\u0cb0 \u0ca4\u0cbe\u0cb2\u0cc2\u0c95\u0cc1, Udupi district, Karnataka, 576224, India",
            "longitude": "74.6642475",
            "latitude": "13.6554353",
            "blogLinks": [
                "http://mustseekarnataka.blogspot.com/2011/09/must-see-kundapur.html",
                "http://www.nivalink.com/destination/kundapura"
            ],
            "locType": "school"
        },
        "malpe": {
            "closest_to": "udupi",
            "address": "Malpe, Udupi taluku, Udupi district, Karnataka, India",
            "longitude": "74.7036914",
            "latitude": "13.3507423",
            "blogLinks": [
                "http://www.nivalink.com/destination/udupi"
            ],
            "locType": "village"
        },
        "kundapura": {
            "closest_to": "udupi",
            "address": "Kundapura, \u0c95\u0cc1\u0c82\u0ca6\u0cbe\u0caa\u0cc1\u0cb0 \u0ca4\u0cbe\u0cb2\u0cc2\u0c95\u0cc1, Udupi district, Karnataka, 576200, India",
            "longitude": "74.6915722",
            "latitude": "13.6250993",
            "blogLinks": [
                "http://mustseekarnataka.blogspot.com/2011/09/must-see-kundapur.html",
                "https://en.wikipedia.org/wiki/Kundapura",
                "http://www.nivalink.com/destination/udupi",
                "http://www.nivalink.com/destination/kundapura"
            ],
            "locType": "town"
        },
        "uppinakudru": {
            "closest_to": "kundapur",
            "address": "Uppinakudru, \u0c95\u0cc1\u0c82\u0ca6\u0cbe\u0caa\u0cc1\u0cb0 \u0ca4\u0cbe\u0cb2\u0cc2\u0c95\u0cc1, Udupi district, Karnataka, India",
            "longitude": "74.6908524",
            "latitude": "13.6587767",
            "blogLinks": [
                "http://mustseekarnataka.blogspot.com/2011/09/must-see-kundapur.html"
            ],
            "locType": "village"
        },
        "hattiangadi": {
            "closest_to": "kundapur",
            "address": "Hattiangadi, \u0c95\u0cc1\u0c82\u0ca6\u0cbe\u0caa\u0cc1\u0cb0 \u0ca4\u0cbe\u0cb2\u0cc2\u0c95\u0cc1, Udupi district, Karnataka, India",
            "longitude": "74.7327001",
            "latitude": "13.6466541",
            "blogLinks": [
                "http://mustseekarnataka.blogspot.com/2011/09/must-see-kundapur.html"
            ],
            "locType": "village"
        },
        "anegudde": {
            "closest_to": "udupi",
            "address": "Anegudde Ganapathi Temple, Anugudde Ganapathi Temple Road, Vaderahobali, Kumbhashi, \u0c95\u0cc1\u0c82\u0ca6\u0cbe\u0caa\u0cc1\u0cb0 \u0ca4\u0cbe\u0cb2\u0cc2\u0c95\u0cc1, Udupi district, Karnataka, 576231, India",
            "longitude": "74.70466635",
            "latitude": "13.56926545",
            "blogLinks": [
                "http://mustseekarnataka.blogspot.com/2011/09/must-see-kundapur.html"
            ],
            "locType": "place_of_worship"
        },
        "madhva sarovara": {
            "closest_to": "udupi",
            "address": "Sri Madhva Sarovara, Rathabidi, Indiranagara, Udupi, Udupi taluku, Udupi district, Karnataka, 576101, India",
            "longitude": "74.7523631573063",
            "latitude": "13.3412371",
            "blogLinks": [
                "http://wikitravel.org/en/Udupi"
            ],
            "locType": "water"
        },
        "kollur": {
            "closest_to": "kundapur",
            "address": "Kollur, \u0c95\u0cc1\u0c82\u0ca6\u0cbe\u0caa\u0cc1\u0cb0 \u0ca4\u0cbe\u0cb2\u0cc2\u0c95\u0cc1, Udupi district, Karnataka, 576220, India",
            "longitude": "74.8137959",
            "latitude": "13.8634049",
            "blogLinks": [
                "http://mustseekarnataka.blogspot.com/2011/09/must-see-kundapur.html",
                "https://en.wikipedia.org/wiki/Kundapura"
            ],
            "locType": "village"
        },
        "guddattu temple": {
            "closest_to": "udupi",
            "address": "Shri Vinayaka Temple Guddattu, Barkur Road, Saibrakatte, Udupi taluku, Udupi district, Karnataka, India",
            "longitude": "74.790761",
            "latitude": "13.5527072",
            "blogLinks": [
                "http://mustseekarnataka.blogspot.com/2011/09/must-see-kundapur.html"
            ],
            "locType": "place_of_worship"
        },
        "kundeshwara temple": {
            "closest_to": "udupi",
            "address": "Kundeshwara Temple, Church Road, Vaderahobali, Kundapura, \u0c95\u0cc1\u0c82\u0ca6\u0cbe\u0caa\u0cc1\u0cb0 \u0ca4\u0cbe\u0cb2\u0cc2\u0c95\u0cc1, Udupi district, Karnataka, 576200, India",
            "longitude": "74.6883382002292",
            "latitude": "13.62498995",
            "blogLinks": [
                "http://mustseekarnataka.blogspot.com/2011/09/must-see-kundapur.html"
            ],
            "locType": "place_of_worship"
        },
        "byndoor": {
            "closest_to": "kundapur",
            "address": "Bainduru, \u0c95\u0cc1\u0c82\u0ca6\u0cbe\u0caa\u0cc1\u0cb0 \u0ca4\u0cbe\u0cb2\u0cc2\u0c95\u0cc1, Udupi district, Karnataka, 576214, India",
            "longitude": "74.6270036",
            "latitude": "13.8662536",
            "blogLinks": [
                "http://mustseekarnataka.blogspot.com/2011/09/must-see-kundapur.html"
            ],
            "locType": "village"
        },
        "mahakali temple": {
            "closest_to": "udupi",
            "address": "Mahakali and Janardhana Temple, Mahakali Marga, Ambalapadi, Udupi, Udupi taluku, Udupi district, Karnataka, 576101, India",
            "longitude": "74.7307174382814",
            "latitude": "13.3371922",
            "blogLinks": [
                "http://www.nivalink.com/destination/udupi"
            ],
            "locType": "place_of_worship"
        },
        "udupi railway station": {
            "closest_to": "udupi",
            "address": "Udupi Railway Station, Railway Godown Road, Indrali, Udupi, Udupi taluku, Udupi district, Karnataka, 576101, India",
            "longitude": "74.7710217",
            "latitude": "13.3360878",
            "blogLinks": [
                "http://www.nivalink.com/destination/udupi",
                "http://wikitravel.org/en/Udupi"
            ],
            "locType": "station"
        },
        "koteshwara": {
            "closest_to": "udupi",
            "address": "Koteshwara, \u0c95\u0cc1\u0c82\u0ca6\u0cbe\u0caa\u0cc1\u0cb0 \u0ca4\u0cbe\u0cb2\u0cc2\u0c95\u0cc1, Udupi district, Karnataka, India",
            "longitude": "74.6975369",
            "latitude": "13.5883963",
            "blogLinks": [
                "http://mustseekarnataka.blogspot.com/2011/09/must-see-kundapur.html"
            ],
            "locType": "village"
        },
        "maravanthe": {
            "closest_to": "kundapur",
            "address": "Nethaji Subhash Chandra Bose Government High School, Maravanthe, NH66, Navunda, \u0c95\u0cc1\u0c82\u0ca6\u0cbe\u0caa\u0cc1\u0cb0 \u0ca4\u0cbe\u0cb2\u0cc2\u0c95\u0cc1, Udupi district, Karnataka, 576224, India",
            "longitude": "74.6480358",
            "latitude": "13.7316626",
            "blogLinks": [
                "http://www.nivalink.com/destination/kundapura"
            ],
            "locType": "school"
        },
        "souparnika river": {
            "closest_to": "kundapur",
            "address": "Souparnika Bathing Ghat Road, Kollur, \u0c95\u0cc1\u0c82\u0ca6\u0cbe\u0caa\u0cc1\u0cb0 \u0ca4\u0cbe\u0cb2\u0cc2\u0c95\u0cc1, Udupi district, Karnataka, 576220, India",
            "longitude": "74.8095156",
            "latitude": "13.8642453",
            "blogLinks": [
                "http://mustseekarnataka.blogspot.com/2011/09/must-see-kundapur.html"
            ],
            "locType": "unclassified"
        },
        "karkala": {
            "closest_to": "udupi",
            "address": "Karkala, Karkala taluk, Udupi district, Karnataka, 574104, India",
            "longitude": "74.9959586",
            "latitude": "13.2112826",
            "blogLinks": [
                "http://www.nivalink.com/destination/udupi",
                "http://wikitravel.org/en/Udupi"
            ],
            "locType": "town"
        },
        "brahmavar": {
            "closest_to": "udupi",
            "address": "Brahmavar Market Road, Brahmavara, Udupi taluku, Udupi district, Karnataka, 576213, India",
            "longitude": "74.7453719",
            "latitude": "13.4373633",
            "blogLinks": [
                "http://mustseekarnataka.blogspot.com/2011/09/must-see-kundapur.html",
                "http://wikitravel.org/en/Udupi"
            ],
            "locType": "tertiary"
        },
        "kemmannu": {
            "closest_to": "udupi",
            "address": "Kemmannu, Udupi taluku, Udupi district, Karnataka, India",
            "longitude": "74.7091185",
            "latitude": "13.4007564",
            "blogLinks": [
                "https://www.tripoto.com/travel-guide/kundapur",
                "http://wikitravel.org/en/Udupi"
            ],
            "locType": "village"
        },
        "siddapur": {
            "closest_to": "kundapur",
            "address": "Siddapur, \u0c95\u0cc1\u0c82\u0ca6\u0cbe\u0caa\u0cc1\u0cb0 \u0ca4\u0cbe\u0cb2\u0cc2\u0c95\u0cc1, Udupi district, Karnataka, 576229, India",
            "longitude": "74.911019",
            "latitude": "13.6626885",
            "blogLinks": [
                "http://mustseekarnataka.blogspot.com/2011/09/must-see-kundapur.html"
            ],
            "locType": "village"
        },
        "barkur": {
            "closest_to": "udupi",
            "address": "Barkur, Barkuru Mandarthi Road, Mandarti, Udupi taluku, Udupi district, Karnataka, India",
            "longitude": "74.7600136",
            "latitude": "13.4771583",
            "blogLinks": [
                "https://en.wikipedia.org/wiki/Kundapura"
            ],
            "locType": "station"
        },
        "kapu beach": {
            "closest_to": "udupi",
            "address": "Kapu Beach, NH66, Mallaru, Udupi taluku, Udupi district, Karnataka, India",
            "longitude": "74.7388930883129",
            "latitude": "13.2187564",
            "blogLinks": [
                "http://wikitravel.org/en/Udupi"
            ],
            "locType": "beach"
        },
        "udupi": {
            "closest_to": "udupi",
            "address": "Udupi, Udupi taluku, Udupi district, Karnataka, 576101, India",
            "longitude": "74.7473232",
            "latitude": "13.3419169",
            "blogLinks": [
                "http://mustseekarnataka.blogspot.com/2011/09/must-see-kundapur.html",
                "http://www.nivalink.com/destination/udupi",
                "https://www.tripoto.com/places-to-visit/india/udupi",
                "http://wikitravel.org/en/Udupi"
            ],
            "locType": "city"
        },
        "shankaranarayana": {
            "closest_to": "udupi",
            "address": "Shankaranarayana, \u0c95\u0cc1\u0c82\u0ca6\u0cbe\u0caa\u0cc1\u0cb0 \u0ca4\u0cbe\u0cb2\u0cc2\u0c95\u0cc1, Udupi district, Karnataka, 576227, India",
            "longitude": "74.8600862",
            "latitude": "13.6058955",
            "blogLinks": [
                "http://mustseekarnataka.blogspot.com/2011/09/must-see-kundapur.html"
            ],
            "locType": "village"
        },
        "udupi krishna temple": {
            "closest_to": "udupi",
            "address": "Sri Krishna Temple Udupi, Rathabidi, Indiranagara, Udupi, Udupi taluku, Udupi district, Karnataka, 576101, India",
            "longitude": "74.7520421",
            "latitude": "13.341185",
            "blogLinks": [
                "http://www.nivalink.com/destination/udupi"
            ],
            "locType": "place_of_worship"
        },
        "kalpana": {
            "closest_to": "udupi",
            "address": "Kalpana, Kavi Muddana Marg, Indiranagara, Udupi, Udupi taluku, Udupi district, Karnataka, 576101, India",
            "longitude": "74.7506815",
            "latitude": "13.3360433",
            "blogLinks": [
                "http://wikitravel.org/en/Udupi"
            ],
            "locType": "cinema"
        },
        "shiriyara": {
            "closest_to": "udupi",
            "address": "Shiriyara, Udupi taluku, Udupi district, Karnataka, India",
            "longitude": "74.7926017",
            "latitude": "13.537104",
            "blogLinks": [
                "http://mustseekarnataka.blogspot.com/2011/09/must-see-kundapur.html"
            ],
            "locType": "village"
        }
    }
}