{
    "sakleshpur": {
        "lat": "12.9434349",
        "importance": 0.4,
        "osm_type": "node",
        "class": "place",
        "boundingbox": [
            "12.9034349",
            "12.9834349",
            "75.7462318",
            "75.8262318"
        ],
        "icon": "https://nominatim.openstreetmap.org/images/mapicons/poi_place_town.p.20.png",
        "osm_id": "670593480",
        "licence": "Data \u00a9 OpenStreetMap contributors, ODbL 1.0. http://www.openstreetmap.org/copyright",
        "lon": "75.7862318",
        "place_id": "6499206",
        "display_name": "Sakaleshpura, Sakaleshapura taluk, Hassan district, Karnataka, 573134, India",
        "type": "town"
    },
    "mentions": {
        "kodachadri": {
            "closest_to": "thirthahalli",
            "latitude": "13.8565758",
            "blogLinks": [
                "http://www.travelchords.com/aboutus/holiday-in-Thirthahalli"
            ],
            "address": "Kodachadri, \u0c95\u0cc1\u0c82\u0ca6\u0cbe\u0caa\u0cc1\u0cb0 \u0ca4\u0cbe\u0cb2\u0cc2\u0c95\u0cc1, Udupi district, Karnataka, India",
            "locType": "peak",
            "longitude": "74.8705395"
        },
        "humcha": {
            "closest_to": "thirthahalli",
            "latitude": "13.862013",
            "blogLinks": [
                "http://www.nivalink.com/destination/thirthahalli"
            ],
            "address": "Humcha Main Road, Huncha, Hosanagara taluk, Shimoga district, Karnataka, India",
            "locType": "secondary",
            "longitude": "75.2098487"
        },
        "shravanabelagola": {
            "closest_to": "sakleshpur",
            "latitude": "12.8581305",
            "blogLinks": [
                "http://www.holidaymonk.com/places/sakleshpur-homestay/watehalli-homestay/"
            ],
            "address": "Shravanabelagola, Channarayapattana taluk, Hassan district, Karnataka, 573135, India",
            "locType": "town",
            "longitude": "76.4869997"
        },
        "karkala": {
            "closest_to": "thirthahalli",
            "latitude": "13.2112826",
            "blogLinks": [
                "http://www.nivalink.com/destination/mangalore"
            ],
            "address": "Karkala, Karkala taluk, Udupi district, Karnataka, 574104, India",
            "locType": "town",
            "longitude": "74.9959586"
        },
        "halebidu": {
            "closest_to": "sakleshpur",
            "latitude": "12.359893",
            "blogLinks": [
                "http://www.nivalink.com/destination/sakleshpur"
            ],
            "address": "Halebidu, Hunasuru taluk, Mysuru district, Karnataka, India",
            "locType": "village",
            "longitude": "76.4607075"
        },
        "maragunda": {
            "closest_to": "thirthahalli",
            "latitude": "12.9867236",
            "blogLinks": [
                "http://www.holidayiq.com/destinations/sakleshpur/"
            ],
            "address": "Maragunda, Sakaleshapura taluk, Hassan district, Karnataka, India",
            "locType": "village",
            "longitude": "75.6201653"
        },
        "hemavathi river": {
            "closest_to": "sakleshpur",
            "latitude": "12.8267596",
            "blogLinks": [
                "http://www.holidayiq.com/destinations/sakleshpur/"
            ],
            "address": "Hemavathi Reservoir, Hasana taluk, Hassan district, Karnataka, India",
            "locType": "dam",
            "longitude": "76.0556931"
        },
        "bahubali": {
            "closest_to": "sakleshpur",
            "latitude": "12.8540505",
            "blogLinks": [
                "http://www.nivalink.com/destination/mangalore"
            ],
            "address": "Bahubali Statue, SH8, Shravanabelagola, Channarayapattana taluk, Hassan district, Karnataka, 573135, India",
            "locType": "place_of_worship",
            "longitude": "76.4846128"
        },
        "udupi": {
            "closest_to": "thirthahalli",
            "latitude": "13.3419169",
            "blogLinks": [
                "http://www.nivalink.com/destination/mangalore",
                "http://www.mapsofindia.com/maps/karnataka/"
            ],
            "address": "Udupi, Udupi taluku, Udupi district, Karnataka, 576101, India",
            "locType": "city",
            "longitude": "74.7473232"
        },
        "kukke": {
            "closest_to": "thirthahalli",
            "latitude": "13.7523964",
            "blogLinks": [
                "http://www.holidayiq.com/destinations/sakleshpur/"
            ],
            "address": "Kukke, Tirthahalli taluk, Shimoga district, Karnataka, India",
            "locType": "village",
            "longitude": "75.3076538"
        },
        "sakaleshpura": {
            "closest_to": "thirthahalli",
            "latitude": "12.9434349",
            "blogLinks": [
                "http://www.holidayiq.com/destinations/sakleshpur/"
            ],
            "address": "Sakaleshpura, Sakaleshapura taluk, Hassan district, Karnataka, 573134, India",
            "locType": "town",
            "longitude": "75.7862318"
        },
        "hassan district": {
            "closest_to": "sakleshpur",
            "latitude": "13.0315068",
            "blogLinks": [
                "https://www.mekanagadde.com/tourist-places-nearby-to-visit/",
                "http://www.holidayiq.com/destinations/sakleshpur/"
            ],
            "address": "Hassan district, Karnataka, India",
            "locType": "administrative",
            "longitude": "76.1745460751981"
        },
        "belur": {
            "closest_to": "thirthahalli",
            "latitude": "13.1645671",
            "blogLinks": [
                "http://www.nivalink.com/destination/sakleshpur"
            ],
            "address": "Belur, Beluru taluk, Hassan district, Karnataka, 573115, India",
            "locType": "town",
            "longitude": "75.8634851"
        },
        "chikkamagalur": {
            "closest_to": "thirthahalli",
            "latitude": "13.3030706",
            "blogLinks": [
                "http://www.nivalink.com/destination/sakleshpur",
                "http://www.holidayiq.com/destinations/sakleshpur/"
            ],
            "address": "Chikkamagalur, SH57, Hosamane Badavane, Hiremagaluru, Chikkamagaluru taluku, Chikkamagaluru district, Karnataka, 577101, India",
            "locType": "station",
            "longitude": "75.789501"
        },
        "thirthahalli": {
            "closest_to": "thirthahalli",
            "latitude": "13.4265327",
            "blogLinks": [
                "https://www.tripoto.com/weekend-getaways/from-thirthahalli",
                "http://www.nivalink.com/destination/thirthahalli",
                "http://www.travelchords.com/aboutus/holiday-in-Thirthahalli",
                "https://www.tripoto.com/weekend-getaways/from-sakleshpur"
            ],
            "address": "Thirthahalli - Udupi Highway, Shivapura, Karkala taluk, Udupi district, Karnataka, India",
            "locType": "trunk",
            "longitude": "74.9626368"
        },
        "sringeri": {
            "closest_to": "thirthahalli",
            "latitude": "13.4261724",
            "blogLinks": [
                "http://www.nivalink.com/destination/thirthahalli"
            ],
            "address": "Sringeri, Sringeri taluku, Chikkamagaluru district, Karnataka, 577592, India",
            "locType": "town",
            "longitude": "75.2553718"
        },
        "chikkamagaluru": {
            "closest_to": "thirthahalli",
            "latitude": "13.318014",
            "blogLinks": [
                "https://www.mekanagadde.com/tourist-places-nearby-to-visit/"
            ],
            "address": "Chikkamagaluru, Chikkamagaluru taluku, Chikkamagaluru district, Karnataka, 577101, India",
            "locType": "city",
            "longitude": "75.7738743"
        },
        "chennakesava": {
            "closest_to": "thirthahalli",
            "latitude": "13.1629239",
            "blogLinks": [
                "https://www.mekanagadde.com/tourist-places-nearby-to-visit/"
            ],
            "address": "Chennakesava Temple, NH73, Navilahalli, Beluru taluk, Hassan district, Karnataka, India",
            "locType": "place_of_worship",
            "longitude": "75.8603311"
        },
        "kodagu": {
            "closest_to": "sakleshpur",
            "latitude": "12.38117345",
            "blogLinks": [
                "https://www.tripoto.com/weekend-getaways/from-sakleshpur",
                "http://www.mapsofindia.com/maps/karnataka/"
            ],
            "address": "Kodagu, Karnataka, India",
            "locType": "administrative",
            "longitude": "75.6677235950852"
        },
        "kumara parvatha": {
            "closest_to": "sakleshpur",
            "latitude": "12.6623315",
            "blogLinks": [
                "https://www.tripoto.com/weekend-getaways/from-sakleshpur"
            ],
            "address": "Kumara Parvatha, Somawarpet taluk, Kodagu, Karnataka, India",
            "locType": "peak",
            "longitude": "75.6865652"
        },
        "panambur": {
            "closest_to": "thirthahalli",
            "latitude": "12.9535736",
            "blogLinks": [
                "http://www.nivalink.com/destination/mangalore"
            ],
            "address": "Panambur, Mangaluru taluk, Dakshina Kannada, Karnataka, India",
            "locType": "village",
            "longitude": "74.8031577"
        },
        "varahi": {
            "closest_to": "thirthahalli",
            "latitude": "13.6582668",
            "blogLinks": [
                "http://www.travelchords.com/aboutus/holiday-in-Thirthahalli"
            ],
            "address": "Varahi, \u0c95\u0cc1\u0c82\u0ca6\u0cbe\u0caa\u0cc1\u0cb0 \u0ca4\u0cbe\u0cb2\u0cc2\u0c95\u0cc1, Udupi district, Karnataka, India",
            "locType": "river",
            "longitude": "74.9489117"
        },
        "maggie valley": {
            "closest_to": "thirthahalli",
            "latitude": "13.1829767",
            "blogLinks": [
                "https://www.visitnc.com/kids-family"
            ],
            "address": "Maggi Stall, Meenakshi Guest House Rd, Nitte, Karkala taluk, Udupi district, Karnataka, India",
            "locType": "fast_food",
            "longitude": "74.9370197"
        },
        "dubare elephant camp": {
            "closest_to": "sakleshpur",
            "latitude": "12.3716865",
            "blogLinks": [
                "https://www.tripoto.com/weekend-getaways/from-sakleshpur"
            ],
            "address": "Dubare Elephant Camp, SH91, Dodda Bettageri, Somawarpet taluk, Kodagu, Karnataka, India",
            "locType": "attraction",
            "longitude": "75.9066719"
        },
        "sakleshpur": {
            "closest_to": "thirthahalli",
            "latitude": "12.9434349",
            "blogLinks": [
                "http://www.nivalink.com/destination/sakleshpur",
                "https://www.mekanagadde.com/benefits-of-staying-at-a-homestay-in-chikmagalur-sakleshpur/",
                "https://www.mekanagadde.com/tourist-places-nearby-to-visit/",
                "http://www.holidaymonk.com/places/sakleshpur-homestay/watehalli-homestay/",
                "https://www.tripoto.com/weekend-getaways/from-sakleshpur",
                "http://www.holidayiq.com/destinations/sakleshpur/",
                "http://www.mapsofindia.com/maps/karnataka/"
            ],
            "address": "Sakaleshpura, Sakaleshapura taluk, Hassan district, Karnataka, 573134, India",
            "locType": "town",
            "longitude": "75.7862318"
        },
        "dakshina kannada": {
            "closest_to": "thirthahalli",
            "latitude": "12.8114089",
            "blogLinks": [
                "http://www.nivalink.com/destination/mangalore",
                "https://www.tripoto.com/weekend-getaways/from-sakleshpur",
                "http://www.holidayiq.com/destinations/sakleshpur/",
                "http://www.mapsofindia.com/maps/karnataka/"
            ],
            "address": "Dakshina Kannada, Karnataka, India",
            "locType": "administrative",
            "longitude": "75.1008028650794"
        },
        "south of mangalore": {
            "closest_to": "thirthahalli",
            "latitude": "12.871537",
            "blogLinks": [
                "http://www.nivalink.com/destination/mangalore"
            ],
            "address": "Karnataka Bank Head Office, Kankanady, Mangaluru, Mangaluru taluk, Dakshina Kannada, Karnataka, 575001, India",
            "locType": "commercial",
            "longitude": "74.8632149706795"
        },
        "coorg": {
            "closest_to": "sakleshpur",
            "latitude": "12.4204003",
            "blogLinks": [
                "https://www.tripoto.com/weekend-getaways/from-sakleshpur"
            ],
            "address": "Madikeri, Madikeri taluku, Kodagu, Karnataka, India",
            "locType": "town",
            "longitude": "75.740031"
        },
        "sakleshpur chikmagalur": {
            "closest_to": "thirthahalli",
            "latitude": "12.9434349",
            "blogLinks": [
                "https://www.mekanagadde.com/tourist-places-nearby-to-visit/",
                "https://www.mekanagadde.com/benefits-of-staying-at-a-homestay-in-chikmagalur-sakleshpur/"
            ],
            "address": "Sakaleshpura, Sakaleshapura taluk, Hassan district, Karnataka, 573134, India",
            "locType": "town",
            "longitude": "75.7862318"
        },
        "sullia": {
            "closest_to": "sakleshpur",
            "latitude": "12.5576644",
            "blogLinks": [
                "https://www.mekanagadde.com/tourist-places-nearby-to-visit/"
            ],
            "address": "Sulya, Sulya taluk, Dakshina Kannada, Karnataka, 574239, India",
            "locType": "town",
            "longitude": "75.3907575"
        },
        "kundapura": {
            "closest_to": "thirthahalli",
            "latitude": "13.6250993",
            "blogLinks": [
                "http://www.nivalink.com/destination/sakleshpur",
                "http://www.nivalink.com/destination/thirthahalli",
                "http://www.nivalink.com/destination/mangalore"
            ],
            "address": "Kundapura, \u0c95\u0cc1\u0c82\u0ca6\u0cbe\u0caa\u0cc1\u0cb0 \u0ca4\u0cbe\u0cb2\u0cc2\u0c95\u0cc1, Udupi district, Karnataka, 576200, India",
            "locType": "town",
            "longitude": "74.6915722"
        },
        "kannur": {
            "closest_to": "thirthahalli",
            "latitude": "12.8487602",
            "blogLinks": [
                "http://www.nivalink.com/destination/sakleshpur",
                "http://www.nivalink.com/destination/thirthahalli",
                "http://www.thrillophilia.com/blog/20-places-you-need-to-visit-in-india-with-your-best-friend/",
                "https://www.tripoto.com/weekend-getaways/from-sakleshpur",
                "http://www.nivalink.com/destination/mangalore"
            ],
            "address": "Netravati bridge - Kannur Bypass Road (Proposed), Padil, Bajal, Mangaluru taluk, Dakshina Kannada, Karnataka, 575007, India",
            "locType": "construction",
            "longitude": "74.8858161"
        },
        "kumara": {
            "closest_to": "sakleshpur",
            "latitude": "12.6623315",
            "blogLinks": [
                "http://www.holidayiq.com/destinations/sakleshpur/"
            ],
            "address": "Kumara Parvatha, Somawarpet taluk, Kodagu, Karnataka, India",
            "locType": "peak",
            "longitude": "75.6865652"
        },
        "tirthahalli": {
            "closest_to": "thirthahalli",
            "latitude": "13.6901992",
            "blogLinks": [
                "http://www.nivalink.com/destination/thirthahalli",
                "http://www.travelchords.com/aboutus/holiday-in-Thirthahalli"
            ],
            "address": "Tirthahalli, Tirthahalli taluk, Shimoga district, Karnataka, 577432, India",
            "locType": "town",
            "longitude": "75.2463699"
        },
        "napoklu": {
            "closest_to": "sakleshpur",
            "latitude": "12.3058737",
            "blogLinks": [
                "http://www.nivalink.com/destination/mangalore"
            ],
            "address": "Napoklu, Madikeri taluku, Kodagu, Karnataka, India",
            "locType": "village",
            "longitude": "75.6884619"
        },
        "dharmasthala": {
            "closest_to": "thirthahalli",
            "latitude": "12.9519571",
            "blogLinks": [
                "http://www.nivalink.com/destination/mangalore"
            ],
            "address": "Dharmasthala, Beltangadi taluk, Dakshina Kannada, Karnataka, 574216, India",
            "locType": "village",
            "longitude": "75.3813122"
        },
        "lal bagh": {
            "closest_to": "thirthahalli",
            "latitude": "12.8859223",
            "blogLinks": [
                "https://www.tripoto.com/weekend-getaways/from-thirthahalli",
                "https://www.tripoto.com/weekend-getaways/from-sakleshpur"
            ],
            "address": "Lal Bagh Bus Stop, Mahatma Gandhi Road, Lalbagh, Ladyhill, Mangaluru, Mangaluru taluk, Dakshina Kannada, Karnataka, 575001, India",
            "locType": "bus_stop",
            "longitude": "74.8386152"
        },
        "mallalli falls": {
            "closest_to": "sakleshpur",
            "latitude": "12.6813778",
            "blogLinks": [
                "https://www.tripoto.com/weekend-getaways/from-sakleshpur"
            ],
            "address": "Mallalli Falls, Somawarpet taluk, Kodagu, Karnataka, India",
            "locType": "waterfall",
            "longitude": "75.723663"
        },
        "kannada": {
            "closest_to": "thirthahalli",
            "latitude": "12.8114089",
            "blogLinks": [
                "https://www.mekanagadde.com/tourist-places-nearby-to-visit/"
            ],
            "address": "Dakshina Kannada, Karnataka, India",
            "locType": "administrative",
            "longitude": "75.1008028650794"
        },
        "mangalore": {
            "closest_to": "thirthahalli",
            "latitude": "12.8698101",
            "blogLinks": [
                "http://www.nivalink.com/destination/sakleshpur",
                "http://www.nivalink.com/destination/mangalore",
                "https://www.mekanagadde.com/tourist-places-nearby-to-visit/",
                "https://www.tripoto.com/weekend-getaways/from-sakleshpur",
                "https://www.tripoto.com/weekend-getaways/from-thirthahalli",
                "http://www.travelchords.com/aboutus/holiday-in-Thirthahalli",
                "http://www.holidayiq.com/destinations/sakleshpur/",
                "http://www.holidaymonk.com/places/sakleshpur-homestay/makkithitta-home-stay/"
            ],
            "address": "Mangaluru, Mangaluru taluk, Dakshina Kannada, Karnataka, 575001, India",
            "locType": "city",
            "longitude": "74.8430082"
        },
        "chikmagalur": {
            "closest_to": "thirthahalli",
            "latitude": "13.5",
            "blogLinks": [
                "https://www.mekanagadde.com/tourist-places-nearby-to-visit/",
                "http://www.holidaymonk.com/places/sakleshpur-homestay/watehalli-homestay/",
                "https://www.mekanagadde.com/benefits-of-staying-at-a-homestay-in-chikmagalur-sakleshpur/",
                "http://www.holidaymonk.com/places/sakleshpur-homestay/makkithitta-home-stay/"
            ],
            "address": "Chikmagalur, Chikkamagaluru district, Karnataka, India",
            "locType": "county",
            "longitude": "75.5"
        },
        "mangalore railway station": {
            "closest_to": "thirthahalli",
            "latitude": "12.9519663",
            "blogLinks": [
                "https://www.mekanagadde.com/benefits-of-staying-at-a-homestay-in-chikmagalur-sakleshpur/",
                "http://www.nivalink.com/destination/mangalore"
            ],
            "address": "Hotels in Mangalore Near Railway Station  (Reiseb\u00fcro ), SH67, Gandhinagar, Kenjar, Mangaluru taluk, Dakshina Kannada, Karnataka, 575015, India",
            "locType": "travel_agent",
            "longitude": "74.8680725"
        },
        "malnad": {
            "closest_to": "thirthahalli",
            "latitude": "13.3160351",
            "blogLinks": [
                "http://www.nivalink.com/destination/sakleshpur",
                "http://www.nivalink.com/destination/thirthahalli",
                "http://www.travelchords.com/aboutus/holiday-in-Thirthahalli",
                "http://www.holidayiq.com/destinations/sakleshpur/"
            ],
            "address": "Malnad Hospital, Mudigere-Kadur Road, Chikkamagaluru, Chikkamagaluru taluku, Chikkamagaluru district, Karnataka, 577101, India",
            "locType": "hospital",
            "longitude": "75.7715495"
        },
        "annapoorna": {
            "closest_to": "thirthahalli",
            "latitude": "13.3434791",
            "blogLinks": [
                "https://www.mekanagadde.com/tourist-places-nearby-to-visit/"
            ],
            "address": "Annapoorna, Malpe - Manipal Road, End Point, Manipal, Udupi taluku, Udupi district, Karnataka, 576102, India",
            "locType": "yes",
            "longitude": "74.7952585267652"
        },
        "mangalore international airport": {
            "closest_to": "thirthahalli",
            "latitude": "12.95518575",
            "blogLinks": [
                "https://www.tripoto.com/weekend-getaways/from-sakleshpur"
            ],
            "address": "Mangalore International Airport, Airport Entry Road, Gandhinagar, Kenjar, Mangaluru taluk, Dakshina Kannada, Karnataka, 575015, India",
            "locType": "aerodrome",
            "longitude": "74.887492668144"
        },
        "omkareshwara temple": {
            "closest_to": "sakleshpur",
            "latitude": "12.420546",
            "blogLinks": [
                "https://www.tripoto.com/weekend-getaways/from-sakleshpur"
            ],
            "address": "Omkareshwara Temple, Main Road, Madikeri, Madikeri taluku, Kodagu, Karnataka, India",
            "locType": "place_of_worship",
            "longitude": "75.741304"
        },
        "kavaledurga": {
            "closest_to": "thirthahalli",
            "latitude": "13.7177176",
            "blogLinks": [
                "http://www.travelchords.com/aboutus/holiday-in-Thirthahalli"
            ],
            "address": "Kavaledurga, Tirthahalli taluk, Shimoga district, Karnataka, India",
            "locType": "village",
            "longitude": "75.1269652"
        },
        "brahmagiri peak": {
            "closest_to": "sakleshpur",
            "latitude": "12.3868578",
            "blogLinks": [
                "https://www.tripoto.com/weekend-getaways/from-sakleshpur"
            ],
            "address": "Brahmagiri, Madikeri taluku, Kodagu, Karnataka, India",
            "locType": "peak",
            "longitude": "75.490746"
        },
        "kalaseshwara temple": {
            "closest_to": "thirthahalli",
            "latitude": "13.23228505",
            "blogLinks": [
                "http://www.nivalink.com/destination/sakleshpur",
                "http://www.nivalink.com/destination/thirthahalli",
                "http://www.nivalink.com/destination/mangalore"
            ],
            "address": "Kalaseshwara Temple, SH66, Kalasa, Mudigere taluk, Chikkamagaluru district, Karnataka, 577124, India",
            "locType": "place_of_worship",
            "longitude": "75.363446975"
        },
        "kadri manjunatha temple": {
            "closest_to": "thirthahalli",
            "latitude": "12.88588535",
            "blogLinks": [
                "http://www.nivalink.com/destination/mangalore"
            ],
            "address": "Kadri Manjunatha Temple, Manjunatha Colony Road, Bikarnakatte, Nanthoor, Mangaluru, Mangaluru taluk, Dakshina Kannada, Karnataka, 575001, India",
            "locType": "place_of_worship",
            "longitude": "74.85560021854"
        },
        "raja seat": {
            "closest_to": "sakleshpur",
            "latitude": "12.41421975",
            "blogLinks": [
                "https://www.tripoto.com/weekend-getaways/from-sakleshpur"
            ],
            "address": "Raja Seat, Mahatma Gandhi Road, Madikeri, Madikeri taluku, Kodagu, Karnataka, India",
            "locType": "park",
            "longitude": "75.7369653316478"
        },
        "hassan": {
            "closest_to": "sakleshpur",
            "latitude": "13.0070817",
            "blogLinks": [
                "http://www.holidayiq.com/destinations/sakleshpur/"
            ],
            "address": "Hassan, Hasana taluk, Hassan district, Karnataka, 573201, India",
            "locType": "town",
            "longitude": "76.0992703"
        },
        "st. aloysius chapel": {
            "closest_to": "thirthahalli",
            "latitude": "12.8737995",
            "blogLinks": [
                "http://www.nivalink.com/destination/mangalore"
            ],
            "address": "St. Aloysius Chapel, St Aloysius Internal Road, Dongerkeri, Mallikatte, Mangaluru, Mangaluru taluk, Dakshina Kannada, Karnataka, 575001, India",
            "locType": "place_of_worship",
            "longitude": "74.8453615"
        },
        "madikeri fort": {
            "closest_to": "sakleshpur",
            "latitude": "12.4203606",
            "blogLinks": [
                "https://www.tripoto.com/weekend-getaways/from-sakleshpur"
            ],
            "address": "Madikeri Museum, Fort Internal Road, Madikeri, Madikeri taluku, Kodagu, Karnataka, India",
            "locType": "museum",
            "longitude": "75.7392494"
        },
        "mangalore port": {
            "closest_to": "thirthahalli",
            "latitude": "12.9318976",
            "blogLinks": [
                "http://www.nivalink.com/destination/mangalore"
            ],
            "address": "New Mangalore Port, Kuloor, Mangaluru taluk, Dakshina Kannada, Karnataka, India",
            "locType": "locality",
            "longitude": "74.8219606"
        },
        "mangalore airport": {
            "closest_to": "thirthahalli",
            "latitude": "12.95518575",
            "blogLinks": [
                "http://www.nivalink.com/destination/mangalore"
            ],
            "address": "Mangalore International Airport, Airport Entry Road, Gandhinagar, Kenjar, Mangaluru taluk, Dakshina Kannada, Karnataka, 575015, India",
            "locType": "aerodrome",
            "longitude": "74.887492668144"
        },
        "manjunatha": {
            "closest_to": "thirthahalli",
            "latitude": "12.8847787",
            "blogLinks": [
                "https://www.mekanagadde.com/tourist-places-nearby-to-visit/",
                "http://www.nivalink.com/destination/mangalore"
            ],
            "address": "Manjunatha Colony Road, Bikarnakatte, Nanthoor, Mangaluru, Mangaluru taluk, Dakshina Kannada, Karnataka, 575001, India",
            "locType": "residential",
            "longitude": "74.8543195"
        },
        "manjarabad fort": {
            "closest_to": "thirthahalli",
            "latitude": "12.9173302",
            "blogLinks": [
                "https://www.tripoto.com/weekend-getaways/from-sakleshpur",
                "http://www.holidayiq.com/destinations/sakleshpur/"
            ],
            "address": "Manjarabad Fort, SH27, Hullahalli, Sakaleshapura taluk, Hassan district, Karnataka, 573134, India",
            "locType": "attraction",
            "longitude": "75.7580572896098"
        },
        "moodbidri": {
            "closest_to": "thirthahalli",
            "latitude": "13.0656537",
            "blogLinks": [
                "http://www.nivalink.com/destination/mangalore"
            ],
            "address": "Corpus Christi Church, Moodbidri, Solapur-Mangalore Highway, Miyyar, Karkala taluk, Udupi district, Karnataka, 574107, India",
            "locType": "place_of_worship",
            "longitude": "74.9956313829407"
        },
        "hoysaleswara": {
            "closest_to": "sakleshpur",
            "latitude": "13.2127193",
            "blogLinks": [
                "https://www.mekanagadde.com/tourist-places-nearby-to-visit/"
            ],
            "address": "Hoysaleswara Temple, SH21, Halebidu, Beluru taluk, Hassan district, Karnataka, 573121, India",
            "locType": "place_of_worship",
            "longitude": "75.9941649"
        },
        "coastal karnataka": {
            "closest_to": "thirthahalli",
            "latitude": "12.96014675",
            "blogLinks": [
                "http://www.nivalink.com/destination/mangalore"
            ],
            "address": "Bharat Petroleum Mangalore Coastal Installation, Baikampady, Mangaluru taluk, Dakshina Kannada, Karnataka, 575014, India",
            "locType": "industrial",
            "longitude": "74.8137275833157"
        },
        "dakshina kannada district": {
            "closest_to": "thirthahalli",
            "latitude": "12.9324457",
            "blogLinks": [
                "https://www.mekanagadde.com/tourist-places-nearby-to-visit/"
            ],
            "address": "Dakshina Kannada, Karnataka, India",
            "locType": "county",
            "longitude": "74.9813132"
        },
        "kundadri": {
            "closest_to": "thirthahalli",
            "latitude": "13.5580148",
            "blogLinks": [
                "http://www.travelchords.com/aboutus/holiday-in-Thirthahalli"
            ],
            "address": "Kundadri, Tirthahalli taluk, Shimoga district, Karnataka, India",
            "locType": "peak",
            "longitude": "75.1689994"
        },
        "mangaladevi temple": {
            "closest_to": "thirthahalli",
            "latitude": "12.84923455",
            "blogLinks": [
                "http://www.nivalink.com/destination/mangalore"
            ],
            "address": "Shri Mangaladevi Temple, Mangala Devi Temple Road, Mulihitlu, Bolar, Mangaluru, Mangaluru taluk, Dakshina Kannada, Karnataka, 575001, India",
            "locType": "place_of_worship",
            "longitude": "74.8452646984836"
        }
    },
    "thirthahalli": {
        "lat": "13.4265327",
        "importance": 0.3,
        "osm_id": "374064965",
        "osm_type": "way",
        "class": "highway",
        "boundingbox": [
            "13.4262888",
            "13.4265327",
            "74.9623428",
            "74.9626368"
        ],
        "licence": "Data \u00a9 OpenStreetMap contributors, ODbL 1.0. http://www.openstreetmap.org/copyright",
        "lon": "74.9626368",
        "place_id": "146734997",
        "display_name": "Thirthahalli - Udupi Highway, Shivapura, Karkala taluk, Udupi district, Karnataka, India",
        "type": "trunk"
    }
}