{
    "mentions": {
        "river sharavati": {
            "closest_to": "agumbe",
            "address": "Sharavati, Sagara taluk, Shimoga district, Karnataka, India",
            "longitude": "74.7647294",
            "latitude": "14.2360979",
            "blogLinks": [
                "http://manipal.edu/mu/about-us/international-collaborations/area-of-attractions-nearby.html"
            ],
            "locType": "river"
        },
        "kigga village": {
            "closest_to": "hassan",
            "address": "Kigga, Sringeri taluku, Chikkamagaluru district, Karnataka, 577139, India",
            "longitude": "75.1903656777356",
            "latitude": "13.41691525",
            "blogLinks": [
                "http://wikitravel.org/en/Shringeri"
            ],
            "locType": "village"
        },
        "kadur": {
            "closest_to": "hassan",
            "address": "Mudigere-Kadur Road, Basavannahalli, Chikkamagaluru, Chikkamagaluru taluku, Chikkamagaluru district, Karnataka, 577101, India",
            "longitude": "75.7820095",
            "latitude": "13.3283654",
            "blogLinks": [
                "http://wikitravel.org/en/Shringeri",
                "http://wikitravel.org/en/Chikmagalur"
            ],
            "locType": "trunk"
        },
        "yagachi": {
            "closest_to": "hassan",
            "address": "Yagachi, Beluru taluk, Hassan district, Karnataka, India",
            "longitude": "75.950911",
            "latitude": "13.0658494",
            "blogLinks": [
                "http://wikitravel.org/en/Chikmagalur"
            ],
            "locType": "river"
        },
        "gomateshwara": {
            "closest_to": "hassan",
            "address": "Bahubali Statue, SH8, Shravanabelagola, Channarayapattana taluk, Hassan district, Karnataka, 573135, India",
            "longitude": "76.4846128",
            "latitude": "12.8540505",
            "blogLinks": [
                "http://manipal.edu/mu/about-us/international-collaborations/area-of-attractions-nearby.html"
            ],
            "locType": "place_of_worship"
        },
        "coorg": {
            "closest_to": "hassan",
            "address": "Madikeri, Madikeri taluku, Kodagu, Karnataka, India",
            "longitude": "75.740031",
            "latitude": "12.4204003",
            "blogLinks": [
                "https://www.quora.com/What-are-some-places-to-visit-in-Karnataka"
            ],
            "locType": "town"
        },
        "chikmagalur": {
            "closest_to": "hassan",
            "address": "Chikmagalur, Chikkamagaluru district, Karnataka, India",
            "longitude": "75.5",
            "latitude": "13.5",
            "blogLinks": [
                "http://wikitravel.org/en/Chikmagalur"
            ],
            "locType": "county"
        },
        "amrutapura": {
            "closest_to": "hassan",
            "address": "Amrutapura, Tarikere taluku, Chikkamagaluru district, Karnataka, India",
            "longitude": "75.8535015",
            "latitude": "13.7425193",
            "blogLinks": [
                "http://wikitravel.org/en/Chikmagalur"
            ],
            "locType": "village"
        },
        "thirthahalli": {
            "closest_to": "agumbe",
            "address": "Thirthahalli - Udupi Highway, Shivapura, Karkala taluk, Udupi district, Karnataka, India",
            "longitude": "74.9626368",
            "latitude": "13.4265327",
            "blogLinks": [
                "https://www.tripoto.com/trip/agumbe-the-cherrapunji-of-the-south-574bfcfa56b50",
                "http://www.nivalink.com/destination/thirthahalli"
            ],
            "locType": "trunk"
        },
        "kalaseshwara temple": {
            "closest_to": "hassan",
            "address": "Kalaseshwara Temple, SH66, Kalasa, Mudigere taluk, Chikkamagaluru district, Karnataka, 577124, India",
            "longitude": "75.363446975",
            "latitude": "13.23228505",
            "blogLinks": [
                "http://www.nivalink.com/destination/thirthahalli",
                "http://www.godakshin.com/?q=travel-guides/sringeri-sightseeing-173.html"
            ],
            "locType": "place_of_worship"
        },
        "kundapur": {
            "closest_to": "agumbe",
            "address": "United Basel mission church Higher Primary School, Kundapur, Chikkansal Road, Vaderahobali, Kundapura, \u0c95\u0cc1\u0c82\u0ca6\u0cbe\u0caa\u0cc1\u0cb0 \u0ca4\u0cbe\u0cb2\u0cc2\u0c95\u0cc1, Udupi district, Karnataka, 576200, India",
            "longitude": "74.6906749",
            "latitude": "13.6343509",
            "blogLinks": [
                "https://www.quora.com/What-are-some-places-to-visit-in-Karnataka",
                "http://www.distancesfrom.com/in/directions-from-Hassan-to-Kundapur-via-Agumbe/DirectionHistory/33343913.aspx",
                "http://www.distancesfrom.com/in/travel-time-from-Hassan-to-Kundapur-via-Agumbe/TravelTimeHistory/33343913.aspx",
                "http://distancecalculator.globefeed.com/India_Distance_Calculator.asp?state=19"
            ],
            "locType": "school"
        },
        "manikyadhara": {
            "closest_to": "hassan",
            "address": "Manikyadhara, Bababudangiri Road, Inam Dattatreya Pitha, Chikkamagaluru taluku, Chikkamagaluru district, Karnataka, India",
            "longitude": "75.7701434",
            "latitude": "13.4220248",
            "blogLinks": [
                "http://wikitravel.org/en/Chikmagalur"
            ],
            "locType": "attraction"
        },
        "chikkamagaluru": {
            "closest_to": "hassan",
            "address": "Chikkamagaluru, Chikkamagaluru taluku, Chikkamagaluru district, Karnataka, 577101, India",
            "longitude": "75.7738743",
            "latitude": "13.318014",
            "blogLinks": [
                "http://wikitravel.org/en/Chikmagalur",
                "http://www.distancesfrom.com/distance-from-Hassan-to-Mangalore-via-Agumbe/DistanceHistory/1274146.aspx",
                "http://www.distancesfrom.com/distance-from-Hassan-to-Agumbe-via-Chikkamagaluru-district/DistanceHistory/29313799.aspx"
            ],
            "locType": "city"
        },
        "halebid": {
            "closest_to": "hassan",
            "address": "Halebidu, Beluru taluk, Hassan district, Karnataka, 573121, India",
            "longitude": "75.9918793",
            "latitude": "13.2167959",
            "blogLinks": [
                "https://www.triphobo.com/tripplans/india-itinerary-from-bangalore-58138e064e823172630002b5"
            ],
            "locType": "village"
        },
        "shivalli": {
            "closest_to": "hassan",
            "address": "Shivalli, Mandya taluk, Mandya district, Karnataka, India",
            "longitude": "76.8226719",
            "latitude": "12.5863355",
            "blogLinks": [
                "http://manipal.edu/mu/about-us/international-collaborations/area-of-attractions-nearby.html"
            ],
            "locType": "village"
        },
        "hebbe": {
            "closest_to": "hassan",
            "address": "Hebbe falls, Kemmannagundi Road, Attigundi, Chikkamagaluru taluku, Chikkamagaluru district, Karnataka, India",
            "longitude": "75.7253701",
            "latitude": "13.5414025",
            "blogLinks": [
                "http://wikitravel.org/en/Chikmagalur"
            ],
            "locType": "attraction"
        },
        "mahishi": {
            "closest_to": "hassan",
            "address": "Mahishi Road, Maluru, Kudumallige, Tirthahalli taluk, Shimoga district, Karnataka, India",
            "longitude": "75.3317875",
            "latitude": "13.7112757",
            "blogLinks": [
                "https://www.tripoto.com/trip/agumbe-the-cherrapunji-of-the-south-574bfcfa56b50"
            ],
            "locType": "primary"
        },
        "bababudangiri": {
            "closest_to": "hassan",
            "address": "Bababudangiri Road, Inam Dattatreya Pitha, Chikkamagaluru taluku, Chikkamagaluru district, Karnataka, India",
            "longitude": "75.7486618",
            "latitude": "13.4297401",
            "blogLinks": [
                "http://wikitravel.org/en/Chikmagalur"
            ],
            "locType": "tertiary"
        },
        "river sowparnika": {
            "closest_to": "agumbe",
            "address": "Mavinakaru, \u0c95\u0cc1\u0c82\u0ca6\u0cbe\u0caa\u0cc1\u0cb0 \u0ca4\u0cbe\u0cb2\u0cc2\u0c95\u0cc1, Udupi district, Karnataka, India",
            "longitude": "74.8185883",
            "latitude": "13.8592257",
            "blogLinks": [
                "http://manipal.edu/mu/about-us/international-collaborations/area-of-attractions-nearby.html"
            ],
            "locType": "river"
        },
        "sri vidyashankara temple": {
            "closest_to": "hassan",
            "address": "Sri Vidyashankara Swamy Temple, Sri Vidyateertha Setu, Sringeri, Sringeri taluku, Chikkamagaluru district, Karnataka, 577592, India",
            "longitude": "75.2514472909836",
            "latitude": "13.41567005",
            "blogLinks": [
                "http://www.godakshin.com/?q=travel-guides/sringeri-sightseeing-173.html"
            ],
            "locType": "place_of_worship"
        },
        "karkala": {
            "closest_to": "hassan",
            "address": "Karkala, Karkala taluk, Udupi district, Karnataka, 574104, India",
            "longitude": "74.9959586",
            "latitude": "13.2112826",
            "blogLinks": [
                "http://manipal.edu/mu/about-us/international-collaborations/area-of-attractions-nearby.html",
                "https://www.triphobo.com/tripplans/india-itinerary-from-bangalore-58138e064e823172630002b5"
            ],
            "locType": "town"
        },
        "humcha": {
            "closest_to": "agumbe",
            "address": "Humcha Main Road, Huncha, Hosanagara taluk, Shimoga district, Karnataka, India",
            "longitude": "75.2098487",
            "latitude": "13.862013",
            "blogLinks": [
                "http://www.nivalink.com/destination/thirthahalli"
            ],
            "locType": "secondary"
        },
        "koppa": {
            "closest_to": "hassan",
            "address": "Koppa, Koppa taluk, Chikkamagaluru district, Karnataka, India",
            "longitude": "75.3633986",
            "latitude": "13.533207",
            "blogLinks": [
                "http://wikitravel.org/en/Shringeri"
            ],
            "locType": "town"
        },
        "mullayanagiri": {
            "closest_to": "hassan",
            "address": "Mullayyanagiri, Chikkamagaluru, Chikkamagaluru taluku, Chikkamagaluru district, Karnataka, 577101, India",
            "longitude": "75.7214034",
            "latitude": "13.3909217",
            "blogLinks": [
                "https://www.quora.com/What-are-some-places-to-visit-in-Karnataka"
            ],
            "locType": "peak"
        },
        "birur": {
            "closest_to": "hassan",
            "address": "Birur Junction, NH69, Byagadehalli, Kaduru taluk, Chikkamagaluru district, Karnataka, 577548, India",
            "longitude": "75.9731786",
            "latitude": "13.5928214",
            "blogLinks": [
                "http://wikitravel.org/en/Shringeri"
            ],
            "locType": "station"
        },
        "tumkur": {
            "closest_to": "hassan",
            "address": "Tumakuru, Tumkur district, Karnataka, India",
            "longitude": "77.0002445",
            "latitude": "13.4999406",
            "blogLinks": [
                "http://wikitravel.org/en/Chikmagalur"
            ],
            "locType": "county"
        },
        "gowdahalli": {
            "closest_to": "hassan",
            "address": "Gowdahalli, Mudigere taluk, Chikkamagaluru district, Karnataka, India",
            "longitude": "75.5981999",
            "latitude": "13.0422415",
            "blogLinks": [
                "http://wikitravel.org/en/Chikmagalur"
            ],
            "locType": "village"
        },
        "hemavati": {
            "closest_to": "hassan",
            "address": "Hemavati, Hasana taluk, Hassan district, Karnataka, India",
            "longitude": "76.0723187",
            "latitude": "12.8179996",
            "blogLinks": [
                "http://wikitravel.org/en/Chikmagalur"
            ],
            "locType": "river"
        },
        "hassan": {
            "closest_to": "hassan",
            "address": "Hassan, Hasana taluk, Hassan district, Karnataka, 573201, India",
            "longitude": "76.0992703",
            "latitude": "13.0070817",
            "blogLinks": [
                "https://www.tripoto.com/trip/agumbe-the-cherrapunji-of-the-south-574bfcfa56b50"
            ],
            "locType": "town"
        },
        "kaimara": {
            "closest_to": "hassan",
            "address": "Kaimara, Chikkamagaluru taluku, Chikkamagaluru district, Karnataka, India",
            "longitude": "75.7448654",
            "latitude": "13.3713857",
            "blogLinks": [
                "http://wikitravel.org/en/Chikmagalur"
            ],
            "locType": "village"
        },
        "maradi": {
            "closest_to": "hassan",
            "address": "Maradi, Arakalagudu taluk, Hassan district, Karnataka, India",
            "longitude": "76.0757799",
            "latitude": "12.8130205",
            "blogLinks": [
                "http://wikitravel.org/en/Chikmagalur"
            ],
            "locType": "village"
        },
        "sringeri": {
            "closest_to": "hassan",
            "address": "Sringeri, Sringeri taluku, Chikkamagaluru district, Karnataka, 577592, India",
            "longitude": "75.2553718",
            "latitude": "13.4261724",
            "blogLinks": [
                "http://wikitravel.org/en/Shringeri",
                "http://www.nivalink.com/destination/thirthahalli",
                "http://www.godakshin.com/?q=travel-guides/sringeri-sightseeing-173.html"
            ],
            "locType": "town"
        },
        "agumbe": {
            "closest_to": "hassan",
            "address": "Agumbe, Tirthahalli taluk, Shimoga district, Karnataka, 577411, India",
            "longitude": "75.0965525",
            "latitude": "13.5094998",
            "blogLinks": [
                "http://wikitravel.org/en/Chikmagalur",
                "http://www.distancesfrom.com/in/directions-from-Hassan-to-Kundapur-via-Agumbe/DirectionHistory/33343913.aspx",
                "http://www.distancesfrom.com/in/travel-time-from-Hassan-to-Kundapur-via-Agumbe/TravelTimeHistory/33343913.aspx",
                "https://www.tripoto.com/trip/agumbe-the-cherrapunji-of-the-south-574bfcfa56b50",
                "https://www.tripoto.com/weekend-getaways/from-agumbe",
                "http://wikitravel.org/en/Agumbe"
            ],
            "locType": "village"
        },
        "iruppu falls": {
            "closest_to": "hassan",
            "address": "Iruppu Falls, SH89, Taila, Virajpet taluk, Kodagu, Karnataka, 571217, India",
            "longitude": "75.9839484",
            "latitude": "11.9667954",
            "blogLinks": [
                "https://www.quora.com/What-are-some-places-to-visit-in-Karnataka"
            ],
            "locType": "attraction"
        },
        "agumbe rainforest research station": {
            "closest_to": "agumbe",
            "address": "Agumbe Rainforest Research Station (ARRS), Agumbe Road, Guddekeri, Tirthahalli taluk, Shimoga district, Karnataka, 577411, India",
            "longitude": "75.088690168594",
            "latitude": "13.51811715",
            "blogLinks": [
                "https://www.tripoto.com/weekend-getaways/from-agumbe"
            ],
            "locType": "Research"
        },
        "vedavati": {
            "closest_to": "hassan",
            "address": "Vedavati, Kaduru taluk, Chikkamagaluru district, Karnataka, India",
            "longitude": "76.1347937",
            "latitude": "13.6048777",
            "blogLinks": [
                "http://wikitravel.org/en/Chikmagalur"
            ],
            "locType": "river"
        },
        "sakleshpur": {
            "closest_to": "hassan",
            "address": "Sakaleshpura, Sakaleshapura taluk, Hassan district, Karnataka, 573134, India",
            "longitude": "75.7862318",
            "latitude": "12.9434349",
            "blogLinks": [
                "https://www.triphobo.com/tripplans/india-itinerary-from-bangalore-58138e064e823172630002b5"
            ],
            "locType": "town"
        },
        "malnad": {
            "closest_to": "hassan",
            "address": "Malnad Hospital, Mudigere-Kadur Road, Chikkamagaluru, Chikkamagaluru taluku, Chikkamagaluru district, Karnataka, 577101, India",
            "longitude": "75.7715495",
            "latitude": "13.3160351",
            "blogLinks": [
                "http://www.nivalink.com/destination/thirthahalli"
            ],
            "locType": "hospital"
        },
        "kudremukh": {
            "closest_to": "hassan",
            "address": "Kudremukha, Mudigere taluk, Chikkamagaluru district, Karnataka, India",
            "longitude": "75.2523304",
            "latitude": "13.2144007",
            "blogLinks": [
                "http://manipal.edu/mu/about-us/international-collaborations/area-of-attractions-nearby.html",
                "http://wikitravel.org/en/Chikmagalur"
            ],
            "locType": "village"
        },
        "malpe": {
            "closest_to": "agumbe",
            "address": "Malpe, Udupi taluku, Udupi district, Karnataka, India",
            "longitude": "74.7036914",
            "latitude": "13.3507423",
            "blogLinks": [
                "http://manipal.edu/mu/about-us/international-collaborations/area-of-attractions-nearby.html"
            ],
            "locType": "village"
        },
        "kundapura": {
            "closest_to": "agumbe",
            "address": "Kundapura, \u0c95\u0cc1\u0c82\u0ca6\u0cbe\u0caa\u0cc1\u0cb0 \u0ca4\u0cbe\u0cb2\u0cc2\u0c95\u0cc1, Udupi district, Karnataka, 576200, India",
            "longitude": "74.6915722",
            "latitude": "13.6250993",
            "blogLinks": [
                "http://wikitravel.org/en/Shringeri",
                "http://www.nivalink.com/destination/thirthahalli"
            ],
            "locType": "town"
        },
        "silent valley": {
            "closest_to": "hassan",
            "address": "Silent Shores Resort, Krishnaraja Sagara Road, Kurgalli, Bastipura, Srirangapattana taluk, Mandya district, Karnataka, 570027, India",
            "longitude": "76.5819054",
            "latitude": "12.3459371",
            "blogLinks": [
                "https://www.quora.com/What-are-some-places-to-visit-in-Karnataka"
            ],
            "locType": "hotel"
        },
        "lakkavalli": {
            "closest_to": "agumbe",
            "address": "Lakkavalli, Soraba taluk, Shimoga district, Karnataka, India",
            "longitude": "75.1078097",
            "latitude": "14.5841018",
            "blogLinks": [
                "http://wikitravel.org/en/Chikmagalur"
            ],
            "locType": "village"
        },
        "parkala": {
            "closest_to": "agumbe",
            "address": "Parkala, Udupi taluku, Udupi district, Karnataka, India",
            "longitude": "74.8063643",
            "latitude": "13.3549129",
            "blogLinks": [
                "http://manipal.edu/mu/about-us/international-collaborations/area-of-attractions-nearby.html"
            ],
            "locType": "village"
        },
        "hariharapura": {
            "closest_to": "hassan",
            "address": "Hariharapura, Koppa taluk, Chikkamagaluru district, Karnataka, 577120, India",
            "longitude": "75.3016877",
            "latitude": "13.5203047",
            "blogLinks": [
                "http://www.godakshin.com/?q=travel-guides/sringeri-sightseeing-173.html"
            ],
            "locType": "village"
        },
        "tirthahalli": {
            "closest_to": "hassan",
            "address": "Tirthahalli, Tirthahalli taluk, Shimoga district, Karnataka, 577432, India",
            "longitude": "75.2463699",
            "latitude": "13.6901992",
            "blogLinks": [
                "http://www.nivalink.com/destination/thirthahalli"
            ],
            "locType": "town"
        },
        "mangalore": {
            "closest_to": "agumbe",
            "address": "Mangaluru, Mangaluru taluk, Dakshina Kannada, Karnataka, 575001, India",
            "longitude": "74.8430082",
            "latitude": "12.8698101",
            "blogLinks": [
                "http://wikitravel.org/en/Shringeri",
                "http://manipal.edu/mu/about-us/international-collaborations/area-of-attractions-nearby.html",
                "http://wikitravel.org/en/Agumbe",
                "http://www.distancesfrom.com/distance-from-Hassan-to-Mangalore-via-Agumbe/DistanceHistory/1274146.aspx",
                "http://wikitravel.org/en/Chikmagalur"
            ],
            "locType": "city"
        },
        "kudremukh peak": {
            "closest_to": "hassan",
            "address": "Kudremukha, Mudigere taluk, Chikkamagaluru district, Karnataka, India",
            "longitude": "75.2748196",
            "latitude": "13.1255691",
            "blogLinks": [
                "https://www.quora.com/What-are-some-places-to-visit-in-Karnataka"
            ],
            "locType": "peak"
        },
        "belur": {
            "closest_to": "hassan",
            "address": "Belur, Beluru taluk, Hassan district, Karnataka, 573115, India",
            "longitude": "75.8634851",
            "latitude": "13.1645671",
            "blogLinks": [
                "http://wikitravel.org/en/Chikmagalur"
            ],
            "locType": "town"
        },
        "karnataka": {
            "closest_to": "hassan",
            "address": "Karnataka, Shalivahana Road, Nazarbad, Mysuru, Mysuru taluk, Mysuru district, Karnataka, 570001, India",
            "longitude": "76.6639936",
            "latitude": "12.3084901",
            "blogLinks": [
                "http://www.distancesfrom.com/distance-from-Hassan-to-Mangalore-via-Agumbe/DistanceHistory/1274146.aspx",
                "http://distancecalculator.globefeed.com/India_Distance_Calculator.asp?state=19",
                "http://wikitravel.org/en/Chikmagalur",
                "http://www.nivalink.com/destination/thirthahalli",
                "http://www.distancesfrom.com/in/directions-from-Hassan-to-Kundapur-via-Agumbe/DirectionHistory/33343913.aspx",
                "http://www.distancesfrom.com/in/travel-time-from-Hassan-to-Kundapur-via-Agumbe/TravelTimeHistory/33343913.aspx",
                "https://www.tripoto.com/trip/agumbe-the-cherrapunji-of-the-south-574bfcfa56b50",
                "https://www.quora.com/What-are-some-places-to-visit-in-Karnataka",
                "https://www.tripoto.com/weekend-getaways/from-agumbe",
                "http://www.karnatakatourism.org/",
                "http://manipal.edu/mu/about-us/international-collaborations/area-of-attractions-nearby.html",
                "http://wikitravel.org/en/Agumbe",
                "http://www.distancesfrom.com/distance-from-Agumbe-to-Hassan/DistanceHistory/819206.aspx",
                "http://www.distancesfrom.com/distance-from-Hassan-to-Agumbe-via-Chikkamagaluru-district/DistanceHistory/29313799.aspx"
            ],
            "locType": "atm"
        },
        "kemmannagundi": {
            "closest_to": "hassan",
            "address": "Kemmannagundi, Tarikere taluku, Chikkamagaluru district, Karnataka, India",
            "longitude": "75.7520082",
            "latitude": "13.5463048",
            "blogLinks": [
                "http://wikitravel.org/en/Chikmagalur"
            ],
            "locType": "village"
        },
        "kannur": {
            "closest_to": "agumbe",
            "address": "Netravati bridge - Kannur Bypass Road (Proposed), Padil, Bajal, Mangaluru taluk, Dakshina Kannada, Karnataka, 575007, India",
            "longitude": "74.8858161",
            "latitude": "12.8487602",
            "blogLinks": [
                "http://www.nivalink.com/destination/thirthahalli"
            ],
            "locType": "construction"
        },
        "sakrebailu": {
            "closest_to": "hassan",
            "address": "Sakrebailu, Shivamogga taluku, Shimoga district, Karnataka, India",
            "longitude": "75.5118018",
            "latitude": "13.8360489",
            "blogLinks": [
                "https://www.tripoto.com/trip/agumbe-the-cherrapunji-of-the-south-574bfcfa56b50"
            ],
            "locType": "village"
        },
        "honnavar": {
            "closest_to": "agumbe",
            "address": "Honnavar, Honnavara taluku, Uttara Kannada, Karnataka, 581334, India",
            "longitude": "74.4446716",
            "latitude": "14.2810827",
            "blogLinks": [
                "http://manipal.edu/mu/about-us/international-collaborations/area-of-attractions-nearby.html"
            ],
            "locType": "town"
        },
        "mullayanagiri range": {
            "closest_to": "hassan",
            "address": "Mullayyanagiri, Chikkamagaluru, Chikkamagaluru taluku, Chikkamagaluru district, Karnataka, 577101, India",
            "longitude": "75.7214034",
            "latitude": "13.3909217",
            "blogLinks": [
                "https://www.quora.com/What-are-some-places-to-visit-in-Karnataka"
            ],
            "locType": "peak"
        },
        "lal bagh": {
            "closest_to": "agumbe",
            "address": "Lal Bagh Bus Stop, Mahatma Gandhi Road, Lalbagh, Ladyhill, Mangaluru, Mangaluru taluk, Dakshina Kannada, Karnataka, 575001, India",
            "longitude": "74.8386152",
            "latitude": "12.8859223",
            "blogLinks": [
                "https://www.tripoto.com/weekend-getaways/from-agumbe"
            ],
            "locType": "bus_stop"
        },
        "venugopalaswami temple": {
            "closest_to": "hassan",
            "address": "Venugopalaswami Temple, NH150A, Nilanahalli, Pandavapura taluk, Mandya district, Karnataka, India",
            "longitude": "76.6437385",
            "latitude": "12.5573364",
            "blogLinks": [
                "http://www.godakshin.com/?q=travel-guides/sringeri-sightseeing-173.html"
            ],
            "locType": "place_of_worship"
        },
        "kigga": {
            "closest_to": "hassan",
            "address": "Kigga, Sringeri taluku, Chikkamagaluru district, Karnataka, 577139, India",
            "longitude": "75.1903656777356",
            "latitude": "13.41691525",
            "blogLinks": [
                "http://wikitravel.org/en/Shringeri"
            ],
            "locType": "village"
        },
        "shimoga": {
            "closest_to": "hassan",
            "address": "Shivamogga, Shivamogga taluku, Shimoga district, Karnataka, 577200, India",
            "longitude": "75.569737",
            "latitude": "13.9311723",
            "blogLinks": [
                "https://www.tripoto.com/trip/agumbe-the-cherrapunji-of-the-south-574bfcfa56b50"
            ],
            "locType": "city"
        },
        "udupi district": {
            "closest_to": "agumbe",
            "address": "Udupi district, Karnataka, India",
            "longitude": "74.7469037178649",
            "latitude": "13.49007305",
            "blogLinks": [
                "http://manipal.edu/mu/about-us/international-collaborations/area-of-attractions-nearby.html"
            ],
            "locType": "administrative"
        },
        "kannada": {
            "closest_to": "hassan",
            "address": "Dakshina Kannada, Karnataka, India",
            "longitude": "75.1008028650794",
            "latitude": "12.8114089",
            "blogLinks": [
                "http://wikitravel.org/en/Agumbe"
            ],
            "locType": "administrative"
        },
        "sharavati": {
            "closest_to": "agumbe",
            "address": "Sharavati, Sagara taluk, Shimoga district, Karnataka, India",
            "longitude": "74.7647294",
            "latitude": "14.2360979",
            "blogLinks": [
                "http://manipal.edu/mu/about-us/international-collaborations/area-of-attractions-nearby.html"
            ],
            "locType": "river"
        }
    },
    "hassan": {
        "place_id": "1806238",
        "osm_id": "340748436",
        "icon": "https://nominatim.openstreetmap.org/images/mapicons/poi_place_town.p.20.png",
        "osm_type": "node",
        "licence": "Data \u00a9 OpenStreetMap contributors, ODbL 1.0. http://www.openstreetmap.org/copyright",
        "display_name": "Hassan, Hasana taluk, Hassan district, Karnataka, 573201, India",
        "type": "town",
        "lon": "76.0992703",
        "boundingbox": [
            "12.9670817",
            "13.0470817",
            "76.0592703",
            "76.1392703"
        ],
        "importance": 0.490701435537,
        "lat": "13.0070817",
        "class": "place"
    },
    "agumbe": {
        "place_id": "8561493",
        "osm_id": "910403408",
        "icon": "https://nominatim.openstreetmap.org/images/mapicons/poi_place_village.p.20.png",
        "osm_type": "node",
        "licence": "Data \u00a9 OpenStreetMap contributors, ODbL 1.0. http://www.openstreetmap.org/copyright",
        "display_name": "Agumbe, Tirthahalli taluk, Shimoga district, Karnataka, 577411, India",
        "type": "village",
        "lon": "75.0965525",
        "boundingbox": [
            "13.4894998",
            "13.5294998",
            "75.0765525",
            "75.1165525"
        ],
        "importance": 0.475,
        "lat": "13.5094998",
        "class": "place"
    }
}