{
    "mentions": {
        "yagachi": {
            "closest_to": "belur",
            "address": "Yagachi, Beluru taluk, Hassan district, Karnataka, India",
            "longitude": "75.950911",
            "latitude": "13.0658494",
            "blogLinks": [
                "http://wikitravel.org/en/Belur"
            ],
            "locType": "river"
        },
        "chennigaraya": {
            "closest_to": "belur",
            "address": "Kappe Chennigaraya Temple, NH73, Navilahalli, Beluru taluk, Hassan district, Karnataka, India",
            "longitude": "75.8603867",
            "latitude": "13.1624691",
            "blogLinks": [
                "http://wikitravel.org/en/Belur"
            ],
            "locType": "archaeological_site"
        },
        "udupi city": {
            "closest_to": "agumbe",
            "address": "Udupi, Udupi taluku, Udupi district, Karnataka, 576101, India",
            "longitude": "74.7473232",
            "latitude": "13.3419169",
            "blogLinks": [
                "https://en.wikipedia.org/wiki/Agumbe"
            ],
            "locType": "city"
        },
        "thirthahalli": {
            "closest_to": "agumbe",
            "address": "Thirthahalli - Udupi Highway, Shivapura, Karkala taluk, Udupi district, Karnataka, India",
            "longitude": "74.9626368",
            "latitude": "13.4265327",
            "blogLinks": [
                "https://en.wikipedia.org/wiki/Agumbe"
            ],
            "locType": "trunk"
        },
        "kappe chennigaraya": {
            "closest_to": "belur",
            "address": "Kappe Chennigaraya Temple, NH73, Navilahalli, Beluru taluk, Hassan district, Karnataka, India",
            "longitude": "75.8603867",
            "latitude": "13.1624691",
            "blogLinks": [
                "http://wikitravel.org/en/Belur"
            ],
            "locType": "archaeological_site"
        },
        "halebid": {
            "closest_to": "belur",
            "address": "Halebidu, Beluru taluk, Hassan district, Karnataka, 573121, India",
            "longitude": "75.9918793",
            "latitude": "13.2167959",
            "blogLinks": [
                "http://wikitravel.org/en/Belur",
                "http://www.karnatakatourism.org/",
                "http://www.holidayiq.com/Halebid-and-Belur-Sightseeing-651.html"
            ],
            "locType": "village"
        },
        "hoysaleswara": {
            "closest_to": "belur",
            "address": "Hoysaleswara Temple, SH21, Halebidu, Beluru taluk, Hassan district, Karnataka, 573121, India",
            "longitude": "75.9941649",
            "latitude": "13.2127193",
            "blogLinks": [
                "https://en.wikipedia.org/wiki/Halebidu",
                "https://conference.manipal.edu/EMSI2017/PlacesToVisit.aspx"
            ],
            "locType": "place_of_worship"
        },
        "yagachi river": {
            "closest_to": "belur",
            "address": "Yagachi, Beluru taluk, Hassan district, Karnataka, India",
            "longitude": "75.950911",
            "latitude": "13.0658494",
            "blogLinks": [
                "http://travel.india.com/belur/"
            ],
            "locType": "river"
        },
        "kudremukh": {
            "closest_to": "belur",
            "address": "Kudremukha, Mudigere taluk, Chikkamagaluru district, Karnataka, India",
            "longitude": "75.2523304",
            "latitude": "13.2144007",
            "blogLinks": [
                "http://travel.india.com/kudremukh/"
            ],
            "locType": "village"
        },
        "hassan district": {
            "closest_to": "belur",
            "address": "Hassan district, Karnataka, India",
            "longitude": "76.1745460751981",
            "latitude": "13.0315068",
            "blogLinks": [
                "https://en.wikipedia.org/wiki/Halebidu",
                "http://wikitravel.org/en/Belur",
                "https://karnatakatouristspots.wordpress.com/2012/10/"
            ],
            "locType": "administrative"
        },
        "agumbe hill": {
            "closest_to": "agumbe",
            "address": "Agumbe, Tirthahalli taluk, Shimoga district, Karnataka, 577411, India",
            "longitude": "75.0965525",
            "latitude": "13.5094998",
            "blogLinks": [
                "https://karnatakatouristspots.wordpress.com/2012/10/"
            ],
            "locType": "village"
        },
        "dakshin kannada of karnataka": {
            "closest_to": "agumbe",
            "address": "Dakshin Court, NH73, Kaikunje, Bantwal Cross Road, Bantwal taluk, Dakshina Kannada, Karnataka, India",
            "longitude": "75.0309089",
            "latitude": "12.8827367",
            "blogLinks": [
                "http://www.onefivenine.com/india/Travel/Place/Agumbe"
            ],
            "locType": "restaurant"
        },
        "karkala": {
            "closest_to": "agumbe",
            "address": "Karkala, Karkala taluk, Udupi district, Karnataka, 574104, India",
            "longitude": "74.9959586",
            "latitude": "13.2112826",
            "blogLinks": [
                "https://conference.manipal.edu/EMSI2017/PlacesToVisit.aspx"
            ],
            "locType": "town"
        },
        "kaidala": {
            "closest_to": "belur",
            "address": "Kaidala, Tipaturu taluk, Tumkur district, Karnataka, India",
            "longitude": "76.5487269",
            "latitude": "13.2052746",
            "blogLinks": [
                "http://wikitravel.org/en/Belur"
            ],
            "locType": "village"
        },
        "harihareshwara": {
            "closest_to": "agumbe",
            "address": "Harihareshwara Temple, NH66, Charanthipete, Karnad, Mulki, Mangaluru taluk, Dakshina Kannada, Karnataka, 574154, India",
            "longitude": "74.7930728229472",
            "latitude": "13.0824827",
            "blogLinks": [
                "https://karnatakatouristspots.wordpress.com/2012/10/"
            ],
            "locType": "place_of_worship"
        },
        "dharmastala": {
            "closest_to": "belur",
            "address": "Dharmasthala, Beltangadi taluk, Dakshina Kannada, Karnataka, 574216, India",
            "longitude": "75.3813122",
            "latitude": "12.9519571",
            "blogLinks": [
                "http://wikitravel.org/en/Belur"
            ],
            "locType": "village"
        },
        "belur road": {
            "closest_to": "belur",
            "address": "Belur, Beluru taluk, Hassan district, Karnataka, 573115, India",
            "longitude": "75.8634851",
            "latitude": "13.1645671",
            "blogLinks": [
                "http://wikitravel.org/en/Belur"
            ],
            "locType": "town"
        },
        "hassan": {
            "closest_to": "belur",
            "address": "Hassan, Hasana taluk, Hassan district, Karnataka, 573201, India",
            "longitude": "76.0992703",
            "latitude": "13.0070817",
            "blogLinks": [
                "http://travel.india.com/belur/",
                "http://wikitravel.org/en/Belur"
            ],
            "locType": "town"
        },
        "river yagachi": {
            "closest_to": "belur",
            "address": "Yagachi, Beluru taluk, Hassan district, Karnataka, India",
            "longitude": "75.950911",
            "latitude": "13.0658494",
            "blogLinks": [
                "http://www.holidayiq.com/Halebid-and-Belur-Sightseeing-651.html"
            ],
            "locType": "river"
        },
        "hoysaleswara temple": {
            "closest_to": "belur",
            "address": "Hoysaleswara Temple, SH21, Halebidu, Beluru taluk, Hassan district, Karnataka, 573121, India",
            "longitude": "75.9941649",
            "latitude": "13.2127193",
            "blogLinks": [
                "http://www.holidayiq.com/Halebid-and-Belur-Sightseeing-651.html"
            ],
            "locType": "place_of_worship"
        },
        "mercara": {
            "closest_to": "belur",
            "address": "Madikeri, Madikeri taluku, Kodagu, Karnataka, India",
            "longitude": "75.740031",
            "latitude": "12.4204003",
            "blogLinks": [
                "http://wikitravel.org/en/Belur"
            ],
            "locType": "town"
        },
        "kedareswara": {
            "closest_to": "belur",
            "address": "Kedareswara Temple, SH21, Halebidu, Beluru taluk, Hassan district, Karnataka, 573121, India",
            "longitude": "75.9986303",
            "latitude": "13.209021",
            "blogLinks": [
                "https://en.wikipedia.org/wiki/Halebidu"
            ],
            "locType": "place_of_worship"
        },
        "hoysala village resort": {
            "closest_to": "belur",
            "address": "Hoysala Village Resort, Beluru Road, Basavapura, Beluru taluk, Hassan district, Karnataka, India",
            "longitude": "76.066493",
            "latitude": "13.028919",
            "blogLinks": [
                "http://wikitravel.org/en/Belur"
            ],
            "locType": "hotel"
        },
        "agumbe": {
            "closest_to": "agumbe",
            "address": "Agumbe, Tirthahalli taluk, Shimoga district, Karnataka, 577411, India",
            "longitude": "75.0965525",
            "latitude": "13.5094998",
            "blogLinks": [
                "https://karnatakatouristspots.wordpress.com/2012/10/",
                "https://www.tripoto.com/weekend-getaways/from-agumbe",
                "https://www.tripoto.com/places-to-visit/india/agumbe"
            ],
            "locType": "village"
        },
        "agumbe rainforest research station": {
            "closest_to": "agumbe",
            "address": "Agumbe Rainforest Research Station (ARRS), Agumbe Road, Guddekeri, Tirthahalli taluk, Shimoga district, Karnataka, 577411, India",
            "longitude": "75.088690168594",
            "latitude": "13.51811715",
            "blogLinks": [
                "https://www.tripoto.com/weekend-getaways/from-agumbe",
                "https://www.tripoto.com/places-to-visit/india/agumbe"
            ],
            "locType": "Research"
        },
        "kudremukh national park": {
            "closest_to": "belur",
            "address": "Kudremukh National Park, SH66, Sringeri taluku, Chikkamagaluru district, Karnataka, India",
            "longitude": "75.1828713712862",
            "latitude": "13.25397485",
            "blogLinks": [
                "https://en.wikipedia.org/wiki/Agumbe",
                "http://travel.india.com/kudremukh/"
            ],
            "locType": "national_park"
        },
        "halebeedu": {
            "closest_to": "belur",
            "address": "Halebeedu Hagare Road, Harubihalli, Beluru taluk, Hassan district, Karnataka, 573121, India",
            "longitude": "76.000043",
            "latitude": "13.1681662",
            "blogLinks": [
                "http://travel.india.com/belur/"
            ],
            "locType": "secondary"
        },
        "chennakeshava temple": {
            "closest_to": "belur",
            "address": "Chennakeshava Temple, NH73, Arakere, Arasikere taluku, Hassan district, Karnataka, 573112, India",
            "longitude": "76.1294164",
            "latitude": "13.3748908",
            "blogLinks": [
                "http://www.holidayiq.com/Halebid-and-Belur-Sightseeing-651.html"
            ],
            "locType": "place_of_worship"
        },
        "hassan district of karnataka": {
            "closest_to": "belur",
            "address": "Hassan district, Karnataka, India",
            "longitude": "76.1745460751981",
            "latitude": "13.0315068",
            "blogLinks": [
                "http://www.holidayiq.com/Halebid-and-Belur-Sightseeing-651.html"
            ],
            "locType": "administrative"
        },
        "chennigaraya temple": {
            "closest_to": "belur",
            "address": "Kappe Chennigaraya Temple, NH73, Navilahalli, Beluru taluk, Hassan district, Karnataka, India",
            "longitude": "75.8603867",
            "latitude": "13.1624691",
            "blogLinks": [
                "http://wikitravel.org/en/Belur"
            ],
            "locType": "archaeological_site"
        },
        "belur - chikmagalur highway": {
            "closest_to": "belur",
            "address": "Belur, Beluru taluk, Hassan district, Karnataka, 573115, India",
            "longitude": "75.8634851",
            "latitude": "13.1645671",
            "blogLinks": [
                "http://wikitravel.org/en/Belur"
            ],
            "locType": "town"
        },
        "chennakesava temple": {
            "closest_to": "belur",
            "address": "Chennakesava Temple, NH73, Navilahalli, Beluru taluk, Hassan district, Karnataka, India",
            "longitude": "75.8603311",
            "latitude": "13.1629239",
            "blogLinks": [
                "http://www.holidayiq.com/Halebid-and-Belur-Sightseeing-651.html"
            ],
            "locType": "place_of_worship"
        },
        "yagachi dam": {
            "closest_to": "belur",
            "address": "Yagachi Dam, Beluru taluk, Hassan district, Karnataka, India",
            "longitude": "75.8678438",
            "latitude": "13.1812074",
            "blogLinks": [
                "http://www.holidayiq.com/Halebid-and-Belur-Sightseeing-651.html"
            ],
            "locType": "dam"
        },
        "mangalore": {
            "closest_to": "agumbe",
            "address": "Mangaluru, Mangaluru taluk, Dakshina Kannada, Karnataka, 575001, India",
            "longitude": "74.8430082",
            "latitude": "12.8698101",
            "blogLinks": [
                "http://www.onefivenine.com/india/Travel/Place/Agumbe",
                "http://wikitravel.org/en/Belur",
                "https://www.tripoto.com/trip/belur-halebidu-5896",
                "https://en.wikipedia.org/wiki/Agumbe"
            ],
            "locType": "city"
        },
        "chennakesava": {
            "closest_to": "belur",
            "address": "Chennakesava Temple, NH73, Navilahalli, Beluru taluk, Hassan district, Karnataka, India",
            "longitude": "75.8603311",
            "latitude": "13.1629239",
            "blogLinks": [
                "http://wikitravel.org/en/Belur"
            ],
            "locType": "place_of_worship"
        },
        "veeranarayana temple": {
            "closest_to": "agumbe",
            "address": "Veeranarayana Temple, Solapur-Mangalore Highway, Shakthinagar, Kulashekara, Kudupu, Mangaluru taluk, Dakshina Kannada, Karnataka, 575007, India",
            "longitude": "74.8847597015472",
            "latitude": "12.88735285",
            "blogLinks": [
                "https://karnatakatouristspots.wordpress.com/2012/10/"
            ],
            "locType": "place_of_worship"
        },
        "belur": {
            "closest_to": "belur",
            "address": "Belur, Beluru taluk, Hassan district, Karnataka, 573115, India",
            "longitude": "75.8634851",
            "latitude": "13.1645671",
            "blogLinks": [
                "http://travel.india.com/belur/",
                "http://wikitravel.org/en/Belur",
                "https://karnatakatouristspots.wordpress.com/2012/10/",
                "https://www.tripoto.com/trip/belur-halebidu-5896",
                "http://www.holidayiq.com/Halebid-and-Belur-Sightseeing-651.html"
            ],
            "locType": "town"
        },
        "udupi-agumbe road": {
            "closest_to": "belur",
            "address": "Agumbe Road, Soppugudde, Tirthahalli, Tirthahalli taluk, Shimoga district, Karnataka, 577432, India",
            "longitude": "75.2422204",
            "latitude": "13.6914356",
            "blogLinks": [
                "https://en.wikipedia.org/wiki/Agumbe"
            ],
            "locType": "trunk"
        },
        "mudigere": {
            "closest_to": "belur",
            "address": "Mudigere, Aluru taluk, Hassan district, Karnataka, India",
            "longitude": "76.0185988",
            "latitude": "13.0093567",
            "blogLinks": [
                "http://wikitravel.org/en/Belur"
            ],
            "locType": "village"
        },
        "lal bagh": {
            "closest_to": "agumbe",
            "address": "Lal Bagh Bus Stop, Mahatma Gandhi Road, Lalbagh, Ladyhill, Mangaluru, Mangaluru taluk, Dakshina Kannada, Karnataka, 575001, India",
            "longitude": "74.8386152",
            "latitude": "12.8859223",
            "blogLinks": [
                "https://www.tripoto.com/weekend-getaways/from-agumbe"
            ],
            "locType": "bus_stop"
        },
        "river varahi": {
            "closest_to": "agumbe",
            "address": "Varahi, \u0c95\u0cc1\u0c82\u0ca6\u0cbe\u0caa\u0cc1\u0cb0 \u0ca4\u0cbe\u0cb2\u0cc2\u0c95\u0cc1, Udupi district, Karnataka, India",
            "longitude": "74.9489117",
            "latitude": "13.6582668",
            "blogLinks": [
                "http://www.onefivenine.com/india/Travel/Place/Agumbe"
            ],
            "locType": "river"
        },
        "shimoga": {
            "closest_to": "belur",
            "address": "Shivamogga, Shivamogga taluku, Shimoga district, Karnataka, 577200, India",
            "longitude": "75.569737",
            "latitude": "13.9311723",
            "blogLinks": [
                "https://en.wikipedia.org/wiki/Agumbe"
            ],
            "locType": "city"
        },
        "chikmagalur": {
            "closest_to": "belur",
            "address": "Chikmagalur, Chikkamagaluru district, Karnataka, India",
            "longitude": "75.5",
            "latitude": "13.5",
            "blogLinks": [
                "https://karnatakatouristspots.wordpress.com/2012/10/"
            ],
            "locType": "county"
        },
        "belavadi": {
            "closest_to": "belur",
            "address": "Belavadi, Koppa taluk, Chikkamagaluru district, Karnataka, India",
            "longitude": "75.3760773",
            "latitude": "13.5284899",
            "blogLinks": [
                "https://www.tripoto.com/trip/belur-halebidu-5896"
            ],
            "locType": "village"
        }
    },
    "agumbe": {
        "place_id": "8561493",
        "osm_id": "910403408",
        "icon": "https://nominatim.openstreetmap.org/images/mapicons/poi_place_village.p.20.png",
        "osm_type": "node",
        "licence": "Data \u00a9 OpenStreetMap contributors, ODbL 1.0. http://www.openstreetmap.org/copyright",
        "display_name": "Agumbe, Tirthahalli taluk, Shimoga district, Karnataka, 577411, India",
        "type": "village",
        "lon": "75.0965525",
        "boundingbox": [
            "13.4894998",
            "13.5294998",
            "75.0765525",
            "75.1165525"
        ],
        "importance": 0.475,
        "lat": "13.5094998",
        "class": "place"
    },
    "belur": {
        "place_id": "633330",
        "osm_id": "245618812",
        "icon": "https://nominatim.openstreetmap.org/images/mapicons/poi_place_town.p.20.png",
        "osm_type": "node",
        "licence": "Data \u00a9 OpenStreetMap contributors, ODbL 1.0. http://www.openstreetmap.org/copyright",
        "display_name": "Belur, Beluru taluk, Hassan district, Karnataka, 573115, India",
        "type": "town",
        "lon": "75.8634851",
        "boundingbox": [
            "13.1245671",
            "13.2045671",
            "75.8234851",
            "75.9034851"
        ],
        "importance": 0.5,
        "lat": "13.1645671",
        "class": "place"
    }
}