{
    "sirsi": {
        "icon": "https://nominatim.openstreetmap.org/images/mapicons/poi_place_town.p.20.png",
        "osm_type": "node",
        "boundingbox": [
            "14.5792362",
            "14.6592362",
            "74.7988611",
            "74.8788611"
        ],
        "display_name": "Sirsi, Shirasi taluk, Uttara Kannada, Karnataka, 581400, India",
        "class": "place",
        "osm_id": "245628312",
        "type": "town",
        "licence": "Data \u00a9 OpenStreetMap contributors, ODbL 1.0. http://www.openstreetmap.org/copyright",
        "lon": "74.8388611",
        "lat": "14.6192362",
        "place_id": "630058",
        "importance": 0.5
    },
    "badami": {
        "icon": "https://nominatim.openstreetmap.org/images/mapicons/poi_place_town.p.20.png",
        "osm_type": "node",
        "boundingbox": [
            "15.8803874",
            "15.9603874",
            "75.6407865",
            "75.7207865"
        ],
        "display_name": "Badami, Badami taluku, Bagalkote district, Karnataka, 587200, India",
        "class": "place",
        "osm_id": "655135229",
        "type": "town",
        "licence": "Data \u00a9 OpenStreetMap contributors, ODbL 1.0. http://www.openstreetmap.org/copyright",
        "lon": "75.6807865",
        "lat": "15.9203874",
        "place_id": "6086961",
        "importance": 0.5
    },
    "mentions": {
        "kamalapur": {
            "blogLinks": [
                "http://wikitravel.org/en/Hampi"
            ],
            "locType": "yes",
            "longitude": "75.003629911571",
            "latitude": "15.4456282",
            "address": "Kamalapur Nursing Home, Station Road, Kalyana nagar, Gandhinagar, Dharwad, Dharawada taluku, Dharwad district, Karnataka, 580001, India",
            "closest_to": "sirsi"
        },
        "hazara rama temple": {
            "blogLinks": [
                "http://wikitravel.org/en/Hampi"
            ],
            "locType": "place_of_worship",
            "longitude": "76.4687794",
            "latitude": "15.3178218",
            "address": "Hazara Rama Temple, Hampi Kamalapura Road, Kamalapura, Hosapete taluk, Bellary district, Karnataka, 583221, India",
            "closest_to": "badami"
        },
        "badami cave": {
            "blogLinks": [
                "http://travel.india.com/badami/places-to-visit/"
            ],
            "locType": "attraction",
            "longitude": "75.6842639478391",
            "latitude": "15.9184483",
            "address": "Badami Cave Temples, Bahanpur - Gadankeri Highway, Banashankari, Badami taluku, Bagalkote district, Karnataka, 587200, India",
            "closest_to": "badami"
        },
        "tungabadra dam": {
            "blogLinks": [
                "http://wikitravel.org/en/Hampi"
            ],
            "locType": "canal",
            "longitude": "76.8686753",
            "latitude": "15.1764865",
            "address": "Tungabadra High Level Canal, Ballari, Bellary taluk, Bellary district, Karnataka, India",
            "closest_to": "badami"
        },
        "kamalapura - hampi": {
            "blogLinks": [
                "http://samundarbaba.blogspot.in/2010/11/we-visited-hampi-badami-aihole-and.html"
            ],
            "locType": "primary",
            "longitude": "76.4601501",
            "latitude": "15.3237031",
            "address": "Hampi Kamalapura Road, Hampe, Hosapete taluk, Bellary district, Karnataka, 583239, India",
            "closest_to": "badami"
        },
        "sangameshwara": {
            "blogLinks": [
                "https://www.quora.com/What-are-the-best-places-to-visit-on-a-3-day-trip-in-and-around-Karnataka"
            ],
            "locType": "village",
            "longitude": "74.87651",
            "latitude": "15.184341",
            "address": "Sangameshwara, Kalaghatagi taluku, Dharwad district, Karnataka, India",
            "closest_to": "sirsi"
        },
        "anegundi": {
            "blogLinks": [
                "http://wikitravel.org/en/Hampi"
            ],
            "locType": "village",
            "longitude": "76.4924232",
            "latitude": "15.3509583",
            "address": "Anegundi, Gangavati taluku, Koppal district, Karnataka, India",
            "closest_to": "badami"
        },
        "hampi": {
            "blogLinks": [
                "http://samundarbaba.blogspot.in/2010/11/we-visited-hampi-badami-aihole-and.html",
                "https://www.quora.com/What-are-the-best-places-to-visit-on-a-3-day-trip-in-and-around-Karnataka",
                "http://wikitravel.org/en/Hampi"
            ],
            "locType": "village",
            "longitude": "76.4606199",
            "latitude": "15.3359769",
            "address": "Hampe, Hosapete taluk, Bellary district, Karnataka, 583239, India",
            "closest_to": "badami"
        },
        "gokarna": {
            "blogLinks": [
                "http://wikitravel.org/en/Hampi"
            ],
            "locType": "town",
            "longitude": "74.3184418",
            "latitude": "14.5439629",
            "address": "Gokarna, Kumata taluk, Uttara Kannada, Karnataka, 581326, India",
            "closest_to": "sirsi"
        },
        "tunga": {
            "blogLinks": [
                "https://www.quora.com/What-are-the-best-places-to-visit-on-a-3-day-trip-in-and-around-Karnataka"
            ],
            "locType": "river",
            "longitude": "75.3221835",
            "latitude": "13.6632221",
            "address": "Tunga, Tirthahalli taluk, Shimoga district, Karnataka, India",
            "closest_to": "sirsi"
        },
        "sharavati": {
            "blogLinks": [
                "https://www.quora.com/What-are-the-best-places-to-visit-on-a-3-day-trip-in-and-around-Karnataka"
            ],
            "locType": "river",
            "longitude": "74.7647294",
            "latitude": "14.2360979",
            "address": "Sharavati, Sagara taluk, Shimoga district, Karnataka, India",
            "closest_to": "sirsi"
        },
        "virupapur": {
            "blogLinks": [
                "http://wikitravel.org/en/Hampi"
            ],
            "locType": "school",
            "longitude": "76.80057",
            "latitude": "16.65052",
            "address": "Government Lps Virupapur, Virupapura, Shahapura taluku, Yadagiri district, Karnataka, India",
            "closest_to": "badami"
        },
        "hampi bazaar": {
            "blogLinks": [
                "http://wikitravel.org/en/Hampi"
            ],
            "locType": "unclassified",
            "longitude": "76.4621571",
            "latitude": "15.3347585",
            "address": "Hampi Bazaar, Hampe, Hosapete taluk, Bellary district, Karnataka, 583239, India",
            "closest_to": "badami"
        },
        "vitthala": {
            "blogLinks": [
                "http://samundarbaba.blogspot.in/2010/11/we-visited-hampi-badami-aihole-and.html"
            ],
            "locType": "footway",
            "longitude": "76.4705005",
            "latitude": "15.3376716",
            "address": "Way to Vitthala Temple, Hampe, Hosapete taluk, Bellary district, Karnataka, 583239, India",
            "closest_to": "badami"
        },
        "hulekal": {
            "blogLinks": [
                "https://raobharata.wordpress.com/2012/04/21/more-waterfalls-around-sonda-sirsi/"
            ],
            "locType": "village",
            "longitude": "74.7618551",
            "latitude": "14.6945452",
            "address": "Hulekal, Shirasi taluk, Uttara Kannada, Karnataka, 581336, India",
            "closest_to": "sirsi"
        },
        "yellapura": {
            "blogLinks": [
                "https://raobharata.wordpress.com/2012/04/21/more-waterfalls-around-sonda-sirsi/"
            ],
            "locType": "town",
            "longitude": "74.7061458",
            "latitude": "14.9622518",
            "address": "Yellapura, Yallapura taluk, Uttara Kannada, Karnataka, 581359, India",
            "closest_to": "sirsi"
        },
        "tagore beach": {
            "blogLinks": [
                "https://www.quora.com/What-are-the-best-places-to-visit-on-a-3-day-trip-in-and-around-Karnataka"
            ],
            "locType": "beach",
            "longitude": "74.126114099183",
            "latitude": "14.81741155",
            "address": "Rabindranath Tagore Beach, NH66, Kodibag, Karwar, Karavara taluk, Uttara Kannada, Karnataka, 581300, India",
            "closest_to": "sirsi"
        },
        "anegondi": {
            "blogLinks": [
                "http://wikitravel.org/en/Hampi"
            ],
            "locType": "village",
            "longitude": "76.4924232",
            "latitude": "15.3509583",
            "address": "Anegundi, Gangavati taluku, Koppal district, Karnataka, India",
            "closest_to": "badami"
        },
        "marikamba temple": {
            "blogLinks": [
                "https://www.quora.com/What-are-the-best-places-to-visit-on-a-3-day-trip-in-and-around-Karnataka"
            ],
            "locType": "place_of_worship",
            "longitude": "74.8103631279317",
            "latitude": "13.8626958",
            "address": "Marikamba Temple, NH766C;SH26, Halkal, \u0c95\u0cc1\u0c82\u0ca6\u0cbe\u0caa\u0cc1\u0cb0 \u0ca4\u0cbe\u0cb2\u0cc2\u0c95\u0cc1, Udupi district, Karnataka, 576220, India",
            "closest_to": "sirsi"
        },
        "mirjan fort": {
            "blogLinks": [
                "https://www.quora.com/What-are-the-best-places-to-visit-on-a-3-day-trip-in-and-around-Karnataka"
            ],
            "locType": "attraction",
            "longitude": "74.4174838158512",
            "latitude": "14.48905715",
            "address": "Mirjana Fort, Edapally- Panvel Highway, Kimani, Kumata taluk, Uttara Kannada, Karnataka, 581344, India",
            "closest_to": "sirsi"
        },
        "sanapur lake": {
            "blogLinks": [
                "http://wikitravel.org/en/Hampi"
            ],
            "locType": "reservoir",
            "longitude": "76.4294274988777",
            "latitude": "15.35823095",
            "address": "Sanapura Kere, Sanapura, Gangavati taluku, Koppal district, Karnataka, India",
            "closest_to": "badami"
        },
        "banavasi": {
            "blogLinks": [
                "https://www.quora.com/What-are-the-best-places-to-visit-on-a-3-day-trip-in-and-around-Karnataka"
            ],
            "locType": "town",
            "longitude": "75.0129845",
            "latitude": "14.5389738",
            "address": "Banavasi, Shirasi taluk, Uttara Kannada, Karnataka, India",
            "closest_to": "sirsi"
        },
        "koppal": {
            "blogLinks": [
                "http://wikitravel.org/en/Hampi"
            ],
            "locType": "town",
            "longitude": "76.1547421",
            "latitude": "15.3484144",
            "address": "Koppala, Koppala taluku, Koppal district, Karnataka, 583231, India",
            "closest_to": "sirsi"
        },
        "india": {
            "blogLinks": [
                "http://www.nivalink.com/destination/badami",
                "https://www.travelblog.org/Asia/India/Karnataka/Bangalore/Koramangala/blog-914055.html",
                "https://raobharata.wordpress.com/2012/04/21/more-waterfalls-around-sonda-sirsi/",
                "http://www.distancesfrom.com/in/travel-time-from-Sirsi-to-Guledgudda-via-Badami/TravelTimeHistory/31623938.aspx",
                "https://www.distancecalculator.net/from-badami-to-sirsi",
                "http://wikitravel.org/en/Hampi",
                "http://samundarbaba.blogspot.in/2010/11/we-visited-hampi-badami-aihole-and.html",
                "https://www.quora.com/What-are-the-best-places-to-visit-on-a-3-day-trip-in-and-around-Karnataka",
                "http://www.distancesfrom.com/in/travel-from-Sirsi-to-Guledgudda-via-Badami/TravelFromHistory/31623938.aspx",
                "http://www.distancesfrom.com/in/Trip-Cost-from-Sirsi-to-Guledgudda-via-Badami/TripCostHistory/31623938.aspx"
            ],
            "locType": "administrative",
            "longitude": "75.7223521",
            "latitude": "14.5203896",
            "address": "Karnataka, India",
            "closest_to": "sirsi"
        },
        "markandeya river": {
            "blogLinks": [
                "https://www.quora.com/What-are-the-best-places-to-visit-on-a-3-day-trip-in-and-around-Karnataka"
            ],
            "locType": "river",
            "longitude": "74.5774895",
            "latitude": "15.9707453",
            "address": "Markandeya, Belagavi taluku, Belgaum district, Karnataka, India",
            "closest_to": "sirsi"
        },
        "virupaksha temple": {
            "blogLinks": [
                "http://wikitravel.org/en/Hampi"
            ],
            "locType": "place_of_worship",
            "longitude": "76.4587777156223",
            "latitude": "15.3351754",
            "address": "Virupaksha Temple, Hampi Bazaar, Hampe, Hosapete taluk, Bellary district, Karnataka, 583239, India",
            "closest_to": "badami"
        },
        "hemakuta hill": {
            "blogLinks": [
                "http://wikitravel.org/en/Hampi"
            ],
            "locType": "peak",
            "longitude": "76.4602971",
            "latitude": "15.332915",
            "address": "Hemakuta Hill, Hosapete taluk, Bellary district, Karnataka, India",
            "closest_to": "badami"
        },
        "pattadakal": {
            "blogLinks": [
                "https://www.travelblog.org/Asia/India/Karnataka/Bangalore/Koramangala/blog-914055.html",
                "http://samundarbaba.blogspot.in/2010/11/we-visited-hampi-badami-aihole-and.html",
                "http://www.distancesfrom.com/in/Trip-Cost-from-Sirsi-to-Guledgudda-via-Badami/TripCostHistory/31623938.aspx",
                "http://www.nivalink.com/destination/badami"
            ],
            "locType": "attraction",
            "longitude": "75.815884048161",
            "latitude": "15.9506349",
            "address": "Pattadakal Temples, SH14, \u0cac\u0cbe\u0c9a\u0cbf\u0ca8\u0c97\u0cc1\u0ca1\u0ccd\u0ca1, Badami taluku, Bagalkote district, Karnataka, 587211, India",
            "closest_to": "badami"
        },
        "mullayanagiri": {
            "blogLinks": [
                "https://www.quora.com/What-are-the-best-places-to-visit-on-a-3-day-trip-in-and-around-Karnataka"
            ],
            "locType": "peak",
            "longitude": "75.7214034",
            "latitude": "13.3909217",
            "address": "Mullayyanagiri, Chikkamagaluru, Chikkamagaluru taluku, Chikkamagaluru district, Karnataka, 577101, India",
            "closest_to": "sirsi"
        },
        "guledgudda": {
            "blogLinks": [
                "http://www.distancesfrom.com/in/travel-from-Sirsi-to-Guledgudda-via-Badami/TravelFromHistory/31623938.aspx",
                "http://www.distancesfrom.com/in/travel-time-from-Sirsi-to-Guledgudda-via-Badami/TravelTimeHistory/31623938.aspx",
                "http://www.distancesfrom.com/in/Trip-Cost-from-Sirsi-to-Guledgudda-via-Badami/TripCostHistory/31623938.aspx"
            ],
            "locType": "station",
            "longitude": "75.6952213",
            "latitude": "16.0679499",
            "address": "Guledgudda Road, SH44, Konkanakoppa, Badami taluku, Bagalkote district, Karnataka, India",
            "closest_to": "badami"
        },
        "belgaum": {
            "blogLinks": [
                "https://www.quora.com/What-are-the-best-places-to-visit-on-a-3-day-trip-in-and-around-Karnataka"
            ],
            "locType": "county",
            "longitude": "74.75",
            "latitude": "16.333333",
            "address": "Belgaum, Belgaum district, Karnataka, India",
            "closest_to": "badami"
        },
        "gokul garden": {
            "blogLinks": [
                "https://www.quora.com/What-are-the-best-places-to-visit-on-a-3-day-trip-in-and-around-Karnataka"
            ],
            "locType": "recreation_ground",
            "longitude": "75.1141861403246",
            "latitude": "15.35009745",
            "address": "Gokul Garden, Gokul Road / Airport Road, Renuka Nagar, Padmaraj Nagar, Gokul, Hubballi taluku, Dharwad district, Karnataka, 580030, India",
            "closest_to": "sirsi"
        },
        "margao": {
            "blogLinks": [
                "http://wikitravel.org/en/Hampi"
            ],
            "locType": "bank",
            "longitude": "73.9583411",
            "latitude": "15.2740083",
            "address": "Karnataka bank, NH66, Aquem, Fatorda, Margao, South Goa, Goa, 403600, India",
            "closest_to": "sirsi"
        },
        "malaprabha": {
            "blogLinks": [
                "https://www.travelblog.org/Asia/India/Karnataka/Bangalore/Koramangala/blog-914055.html",
                "http://travel.india.com/badami/places-to-visit/"
            ],
            "locType": "river",
            "longitude": "75.1982668",
            "latitude": "15.8914192",
            "address": "Malaprabha, Ramadurga taluku, Belgaum district, Karnataka, India",
            "closest_to": "sirsi"
        },
        "kali": {
            "blogLinks": [
                "https://www.quora.com/What-are-the-best-places-to-visit-on-a-3-day-trip-in-and-around-Karnataka"
            ],
            "locType": "river",
            "longitude": "74.5802901",
            "latitude": "15.0145378",
            "address": "Kali, Joida taluk, Uttara Kannada, Karnataka, India",
            "closest_to": "sirsi"
        },
        "sirsi": {
            "blogLinks": [
                "https://www.quora.com/What-are-the-best-places-to-visit-on-a-3-day-trip-in-and-around-Karnataka"
            ],
            "locType": "town",
            "longitude": "74.8388611",
            "latitude": "14.6192362",
            "address": "Sirsi, Shirasi taluk, Uttara Kannada, Karnataka, 581400, India",
            "closest_to": "sirsi"
        },
        "kuppali": {
            "blogLinks": [
                "https://www.quora.com/What-are-the-best-places-to-visit-on-a-3-day-trip-in-and-around-Karnataka"
            ],
            "locType": "tertiary",
            "longitude": "75.3158067",
            "latitude": "13.5998255",
            "address": "Kuppali Road, Kuppalli, Tirthahalli taluk, Shimoga district, Karnataka, India",
            "closest_to": "sirsi"
        },
        "bijapur": {
            "blogLinks": [
                "https://www.travelblog.org/Asia/India/Karnataka/Bangalore/Koramangala/blog-914055.html"
            ],
            "locType": "city",
            "longitude": "75.7175387",
            "latitude": "16.8269911",
            "address": "Vijayapura, Vijayapura taluk, Bijapur district, Karnataka, 586101, India",
            "closest_to": "badami"
        },
        "kodachadri": {
            "blogLinks": [
                "https://www.quora.com/What-are-the-best-places-to-visit-on-a-3-day-trip-in-and-around-Karnataka"
            ],
            "locType": "peak",
            "longitude": "74.8705395",
            "latitude": "13.8565758",
            "address": "Kodachadri, \u0c95\u0cc1\u0c82\u0ca6\u0cbe\u0caa\u0cc1\u0cb0 \u0ca4\u0cbe\u0cb2\u0cc2\u0c95\u0cc1, Udupi district, Karnataka, India",
            "closest_to": "sirsi"
        },
        "tungabhadra river": {
            "blogLinks": [
                "http://samundarbaba.blogspot.in/2010/11/we-visited-hampi-badami-aihole-and.html"
            ],
            "locType": "river",
            "longitude": "76.4931607",
            "latitude": "15.3446123",
            "address": "Tungabhadra, Gangavati taluku, Koppal district, Karnataka, India",
            "closest_to": "badami"
        },
        "almatti dam": {
            "blogLinks": [
                "https://www.travelblog.org/Asia/India/Karnataka/Bangalore/Koramangala/blog-914055.html"
            ],
            "locType": "canal",
            "longitude": "75.9517801",
            "latitude": "16.3648934",
            "address": "Almatti Left Bank Canal, Basavana Bagevadi Taluku, Bijapur district, Karnataka, India",
            "closest_to": "badami"
        },
        "amboli": {
            "blogLinks": [
                "https://www.quora.com/What-are-the-best-places-to-visit-on-a-3-day-trip-in-and-around-Karnataka"
            ],
            "locType": "village",
            "longitude": "74.4340839",
            "latitude": "15.6456171",
            "address": "Amboli, Khanapura taluku, Belgaum district, Karnataka, India",
            "closest_to": "sirsi"
        },
        "hospet junction": {
            "blogLinks": [
                "http://wikitravel.org/en/Hampi"
            ],
            "locType": "station",
            "longitude": "76.3869935",
            "latitude": "15.2865104",
            "address": "Hospet Junction, Station Road, Basavanada, Hosapete taluk, Bellary district, Karnataka, 583201, India",
            "closest_to": "badami"
        },
        "karkala": {
            "blogLinks": [
                "https://www.quora.com/What-are-the-best-places-to-visit-on-a-3-day-trip-in-and-around-Karnataka"
            ],
            "locType": "town",
            "longitude": "74.9959586",
            "latitude": "13.2112826",
            "address": "Karkala, Karkala taluk, Udupi district, Karnataka, 574104, India",
            "closest_to": "sirsi"
        },
        "gokak": {
            "blogLinks": [
                "https://www.quora.com/What-are-the-best-places-to-visit-on-a-3-day-trip-in-and-around-Karnataka"
            ],
            "locType": "town",
            "longitude": "74.8224338",
            "latitude": "16.1693033",
            "address": "Gokak, Gokak taluku, Belgaum district, Karnataka, 591307, India",
            "closest_to": "badami"
        },
        "badami": {
            "blogLinks": [
                "http://www.nivalink.com/destination/badami",
                "http://travel.india.com/badami/places-to-visit/",
                "https://www.travelblog.org/Asia/India/Karnataka/Bangalore/Koramangala/blog-914055.html",
                "http://www.distancesfrom.com/in/travel-time-from-Sirsi-to-Guledgudda-via-Badami/TravelTimeHistory/31623938.aspx",
                "https://www.audleytravel.com/india/places-to-go/badami",
                "http://samundarbaba.blogspot.in/2010/11/we-visited-hampi-badami-aihole-and.html",
                "http://www.karnatakatourism.org/",
                "https://www.quora.com/What-are-the-best-places-to-visit-on-a-3-day-trip-in-and-around-Karnataka",
                "http://www.distancesfrom.com/in/travel-from-Sirsi-to-Guledgudda-via-Badami/TravelFromHistory/31623938.aspx",
                "http://www.distancesfrom.com/in/Trip-Cost-from-Sirsi-to-Guledgudda-via-Badami/TripCostHistory/31623938.aspx",
                "https://www.ixigo.com/travel-guide/badami"
            ],
            "locType": "town",
            "longitude": "75.6807865",
            "latitude": "15.9203874",
            "address": "Badami, Badami taluku, Bagalkote district, Karnataka, 587200, India",
            "closest_to": "badami"
        },
        "kumta road": {
            "blogLinks": [
                "https://raobharata.wordpress.com/2012/04/21/more-waterfalls-around-sonda-sirsi/"
            ],
            "locType": "town",
            "longitude": "74.4107617",
            "latitude": "14.4261647",
            "address": "Kumta, Kumata taluk, Uttara Kannada, Karnataka, India",
            "closest_to": "sirsi"
        },
        "kali river": {
            "blogLinks": [
                "https://www.quora.com/What-are-the-best-places-to-visit-on-a-3-day-trip-in-and-around-Karnataka"
            ],
            "locType": "river",
            "longitude": "74.5802901",
            "latitude": "15.0145378",
            "address": "Kali, Joida taluk, Uttara Kannada, Karnataka, India",
            "closest_to": "sirsi"
        },
        "uttara kannada": {
            "blogLinks": [
                "https://raobharata.wordpress.com/2012/04/21/more-waterfalls-around-sonda-sirsi/",
                "https://www.quora.com/What-are-the-best-places-to-visit-on-a-3-day-trip-in-and-around-Karnataka"
            ],
            "locType": "administrative",
            "longitude": "74.4729163045979",
            "latitude": "14.6726379",
            "address": "Uttara Kannada, Karnataka, India",
            "closest_to": "sirsi"
        },
        "anjenaya hill": {
            "blogLinks": [
                "http://wikitravel.org/en/Hampi"
            ],
            "locType": "place_of_worship",
            "longitude": "76.4065341",
            "latitude": "15.2403311",
            "address": "Anjenaya temple, Jambunatha Traditional Temple Stairs, Rajapu, Hosapete taluk, Bellary district, Karnataka, 583200, India",
            "closest_to": "badami"
        },
        "hospet": {
            "blogLinks": [
                "http://wikitravel.org/en/Hampi"
            ],
            "locType": "town",
            "longitude": "76.3870527",
            "latitude": "15.266079",
            "address": "Hosapete, Hosapete taluk, Bellary district, Karnataka, 583200, India",
            "closest_to": "badami"
        },
        "mullayanagiri range": {
            "blogLinks": [
                "https://www.quora.com/What-are-the-best-places-to-visit-on-a-3-day-trip-in-and-around-Karnataka"
            ],
            "locType": "peak",
            "longitude": "75.7214034",
            "latitude": "13.3909217",
            "address": "Mullayyanagiri, Chikkamagaluru, Chikkamagaluru taluku, Chikkamagaluru district, Karnataka, 577101, India",
            "closest_to": "sirsi"
        },
        "malaprabha river": {
            "blogLinks": [
                "http://samundarbaba.blogspot.in/2010/11/we-visited-hampi-badami-aihole-and.html"
            ],
            "locType": "river",
            "longitude": "75.1982668",
            "latitude": "15.8914192",
            "address": "Malaprabha, Ramadurga taluku, Belgaum district, Karnataka, India",
            "closest_to": "sirsi"
        },
        "yellapur": {
            "blogLinks": [
                "https://www.quora.com/What-are-the-best-places-to-visit-on-a-3-day-trip-in-and-around-Karnataka"
            ],
            "locType": "town",
            "longitude": "74.7061458",
            "latitude": "14.9622518",
            "address": "Yellapura, Yallapura taluk, Uttara Kannada, Karnataka, 581359, India",
            "closest_to": "sirsi"
        },
        "udupi hotel": {
            "blogLinks": [
                "https://www.travelblog.org/Asia/India/Karnataka/Bangalore/Koramangala/blog-914055.html"
            ],
            "locType": "hotel",
            "longitude": "74.8346487",
            "latitude": "14.6157772",
            "address": "Udupi Hotel, Nataraj Raod, Sirsi, Shirasi taluk, Uttara Kannada, Karnataka, 581400, India",
            "closest_to": "sirsi"
        },
        "bellary": {
            "blogLinks": [
                "http://samundarbaba.blogspot.in/2010/11/we-visited-hampi-badami-aihole-and.html",
                "http://wikitravel.org/en/Hampi"
            ],
            "locType": "county",
            "longitude": "76.8323648",
            "latitude": "15.2485413",
            "address": "Bellary, Bellary district, Karnataka, India",
            "closest_to": "badami"
        },
        "parvati": {
            "blogLinks": [
                "https://www.quora.com/What-are-the-best-places-to-visit-on-a-3-day-trip-in-and-around-Karnataka"
            ],
            "locType": "village",
            "longitude": "75.7898501",
            "latitude": "16.0395701",
            "address": "Parvati, Badami taluku, Bagalkote district, Karnataka, India",
            "closest_to": "badami"
        },
        "bagalkot district of north karnataka": {
            "blogLinks": [
                "http://samundarbaba.blogspot.in/2010/11/we-visited-hampi-badami-aihole-and.html"
            ],
            "locType": "city",
            "longitude": "75.6967919",
            "latitude": "16.1853166",
            "address": "Bagalakote, Bagalakote taluk, Bagalkote district, Karnataka, India",
            "closest_to": "badami"
        },
        "malpe": {
            "blogLinks": [
                "https://www.quora.com/What-are-the-best-places-to-visit-on-a-3-day-trip-in-and-around-Karnataka"
            ],
            "locType": "village",
            "longitude": "74.7036914",
            "latitude": "13.3507423",
            "address": "Malpe, Udupi taluku, Udupi district, Karnataka, India",
            "closest_to": "sirsi"
        },
        "tungabhadra": {
            "blogLinks": [
                "https://www.ixigo.com/travel-guide/badami",
                "http://samundarbaba.blogspot.in/2010/11/we-visited-hampi-badami-aihole-and.html",
                "http://wikitravel.org/en/Hampi"
            ],
            "locType": "river",
            "longitude": "76.4931607",
            "latitude": "15.3446123",
            "address": "Tungabhadra, Gangavati taluku, Koppal district, Karnataka, India",
            "closest_to": "badami"
        },
        "kudremukh national park": {
            "blogLinks": [
                "https://www.quora.com/What-are-the-best-places-to-visit-on-a-3-day-trip-in-and-around-Karnataka"
            ],
            "locType": "national_park",
            "longitude": "75.1828713712862",
            "latitude": "13.25397485",
            "address": "Kudremukh National Park, SH66, Sringeri taluku, Chikkamagaluru district, Karnataka, India",
            "closest_to": "sirsi"
        },
        "aihole": {
            "blogLinks": [
                "https://www.travelblog.org/Asia/India/Karnataka/Bangalore/Koramangala/blog-914055.html"
            ],
            "locType": "village",
            "longitude": "75.8819129",
            "latitude": "16.0192298",
            "address": "Aihole, Hunagunda taluku, Bagalkote district, Karnataka, India",
            "closest_to": "badami"
        },
        "madhukeshwara": {
            "blogLinks": [
                "https://www.quora.com/What-are-the-best-places-to-visit-on-a-3-day-trip-in-and-around-Karnataka"
            ],
            "locType": "place_of_worship",
            "longitude": "75.1480027",
            "latitude": "14.3058996",
            "address": "Madhukeshwara Temple, Kattinakere Road, Kattinakere Bus Stand, Soraba taluk, Shimoga district, Karnataka, India",
            "closest_to": "sirsi"
        },
        "hubli": {
            "blogLinks": [
                "http://www.nivalink.com/destination/badami",
                "http://wikitravel.org/en/Hampi"
            ],
            "locType": "city",
            "longitude": "75.1379848",
            "latitude": "15.3518378",
            "address": "Hubballi - \u0cb9\u0cc1\u0cac\u0ccd\u0cac\u0cb3\u0ccd\u0cb3\u0cbf, Hubballi taluku, Dharwad district, Karnataka, 580020, India",
            "closest_to": "sirsi"
        },
        "gurupura": {
            "blogLinks": [
                "https://www.quora.com/What-are-the-best-places-to-visit-on-a-3-day-trip-in-and-around-Karnataka"
            ],
            "locType": "village",
            "longitude": "75.7161587",
            "latitude": "13.6686411",
            "address": "Gurupura, Tarikere taluku, Chikkamagaluru district, Karnataka, India",
            "closest_to": "sirsi"
        },
        "bijapur district": {
            "blogLinks": [
                "https://www.quora.com/What-are-the-best-places-to-visit-on-a-3-day-trip-in-and-around-Karnataka"
            ],
            "locType": "administrative",
            "longitude": "75.897147327785",
            "latitude": "16.81105965",
            "address": "Bijapur district, Karnataka, India",
            "closest_to": "badami"
        },
        "matanga hill": {
            "blogLinks": [
                "http://wikitravel.org/en/Hampi"
            ],
            "locType": "peak",
            "longitude": "76.4682314",
            "latitude": "15.3315267",
            "address": "Matanga Hill, Hosapete taluk, Bellary district, Karnataka, India",
            "closest_to": "badami"
        },
        "iceland": {
            "blogLinks": [
                "http://wikitravel.org/en/Hampi"
            ],
            "locType": "restaurant",
            "longitude": "76.3885296",
            "latitude": "15.2760556",
            "address": "Iceland, Sardar Patel Road, Hosapete, Hosapete taluk, Bellary district, Karnataka, 583200, India",
            "closest_to": "badami"
        },
        "ganeshgudi": {
            "blogLinks": [
                "https://www.quora.com/What-are-the-best-places-to-visit-on-a-3-day-trip-in-and-around-Karnataka"
            ],
            "locType": "village",
            "longitude": "74.5335693",
            "latitude": "15.2815822",
            "address": "Ganeshagudi, Joida taluk, Uttara Kannada, Karnataka, India",
            "closest_to": "sirsi"
        },
        "bagalkot": {
            "blogLinks": [
                "http://samundarbaba.blogspot.in/2010/11/we-visited-hampi-badami-aihole-and.html",
                "http://travel.india.com/badami/places-to-visit/"
            ],
            "locType": "city",
            "longitude": "75.6967919",
            "latitude": "16.1853166",
            "address": "Bagalakote, Bagalakote taluk, Bagalkote district, Karnataka, India",
            "closest_to": "badami"
        }
    }
}