{
    "bangalore": {
        "icon": "https://nominatim.openstreetmap.org/images/mapicons/poi_place_city.p.20.png",
        "osm_type": "node",
        "boundingbox": [
            "12.8191198",
            "13.1391198",
            "77.4312997",
            "77.7512997"
        ],
        "display_name": "Bengaluru, Bangalore Urban, Karnataka, 560001, India",
        "class": "place",
        "osm_id": "3401391999",
        "type": "city",
        "licence": "Data \u00a9 OpenStreetMap contributors, ODbL 1.0. http://www.openstreetmap.org/copyright",
        "lon": "77.5912997",
        "lat": "12.9791198",
        "place_id": "46592958",
        "importance": 0.8183333454045
    },
    "mentions": {
        "river yagachi": {
            "blogLinks": [
                "http://www.holidayiq.com/Halebid-and-Belur-Sightseeing-651.html"
            ],
            "locType": "river",
            "longitude": "75.950911",
            "latitude": "13.0658494",
            "address": "Yagachi, Beluru taluk, Hassan district, Karnataka, India",
            "closest_to": "belur"
        },
        "mahindra": {
            "blogLinks": [
                "http://travel.harish-mohan.com/"
            ],
            "locType": "car",
            "longitude": "77.6253492",
            "latitude": "12.912146",
            "address": "Mahindra, Service Road, Sector 6, Bommanahalli, Bengaluru, Bangalore Urban, Karnataka, 560001, India",
            "closest_to": "bangalore"
        },
        "raja seat": {
            "blogLinks": [
                "https://www.tripoto.com/weekend-getaways/from-belur"
            ],
            "locType": "park",
            "longitude": "75.7369653316478",
            "latitude": "12.41421975",
            "address": "Raja Seat, Mahatma Gandhi Road, Madikeri, Madikeri taluku, Kodagu, Karnataka, India",
            "closest_to": "belur"
        },
        "tumkur": {
            "blogLinks": [
                "http://wikitravel.org/en/Chikmagalur"
            ],
            "locType": "county",
            "longitude": "77.0002445",
            "latitude": "13.4999406",
            "address": "Tumakuru, Tumkur district, Karnataka, India",
            "closest_to": "belur"
        },
        "wellington": {
            "blogLinks": [
                "http://travel.harish-mohan.com/"
            ],
            "locType": "residential",
            "longitude": "77.5458236170095",
            "latitude": "13.0554436",
            "address": "Prestige Wellington Park, Jalahalli, Bengaluru, Bangalore Urban, Karnataka, 560001, India",
            "closest_to": "belur"
        },
        "hoysaleswara temple": {
            "blogLinks": [
                "http://www.holidayiq.com/Halebid-and-Belur-Sightseeing-651.html"
            ],
            "locType": "place_of_worship",
            "longitude": "75.9941649",
            "latitude": "13.2127193",
            "address": "Hoysaleswara Temple, SH21, Halebidu, Beluru taluk, Hassan district, Karnataka, 573121, India",
            "closest_to": "belur"
        },
        "pampa": {
            "blogLinks": [
                "https://www.tripoto.com/weekend-getaways/from-belur"
            ],
            "locType": "secondary",
            "longitude": "77.5719518",
            "latitude": "12.9581179",
            "address": "Pampa Mahakavi Road, Ranasingpet, Kalasipalya, Bengaluru, Bangalore Urban, Karnataka, 560001, India",
            "closest_to": "belur"
        },
        "bangalore-mysore": {
            "blogLinks": [
                "http://travel.harish-mohan.com/"
            ],
            "locType": "trunk",
            "longitude": "76.807544",
            "latitude": "12.4964879",
            "address": "Bangalore-Mysore Road, Yaliyuru, Mandya taluk, Mandya district, Karnataka, 571426, India",
            "closest_to": "belur"
        },
        "chola": {
            "blogLinks": [
                "http://travel.harish-mohan.com/"
            ],
            "locType": "yes",
            "longitude": "76.098782",
            "latitude": "13.0023906",
            "address": "Chola Gold Loan, Bengaluru - Mangaluru Road, Ravindra Nagar, Santhe Pete, Hassan, Hasana taluk, Hassan district, Karnataka, 573201, India",
            "closest_to": "belur"
        },
        "dubare elephant camp": {
            "blogLinks": [
                "https://www.tripoto.com/weekend-getaways/from-belur"
            ],
            "locType": "attraction",
            "longitude": "75.9066719",
            "latitude": "12.3716865",
            "address": "Dubare Elephant Camp, SH91, Dodda Bettageri, Somawarpet taluk, Kodagu, Karnataka, India",
            "closest_to": "belur"
        },
        "kaveri": {
            "blogLinks": [
                "http://travel.harish-mohan.com/"
            ],
            "locType": "river",
            "longitude": "77.0635531",
            "latitude": "12.1687878",
            "address": "Kaveri, Kollegala taluk, Chamarajanagar district, Karnataka, India",
            "closest_to": "belur"
        },
        "goa": {
            "blogLinks": [
                "https://www.tripoto.com/weekend-getaways/from-belur"
            ],
            "locType": "restaurant",
            "longitude": "77.6200027",
            "latitude": "12.9750047",
            "address": "Carnival De Goa, Bhaskaran Road, Gupta Layout, Halasuru, Bengaluru, Bangalore Urban, Karnataka, 560001, India",
            "closest_to": "bangalore"
        },
        "lal bagh": {
            "blogLinks": [
                "https://www.tripoto.com/weekend-getaways/from-belur"
            ],
            "locType": "bus_stop",
            "longitude": "74.8386152",
            "latitude": "12.8859223",
            "address": "Lal Bagh Bus Stop, Mahatma Gandhi Road, Lalbagh, Ladyhill, Mangaluru, Mangaluru taluk, Dakshina Kannada, Karnataka, 575001, India",
            "closest_to": "belur"
        },
        "nanjangud": {
            "blogLinks": [
                "http://www.holidayiq.com/Mysore-Sightseeing-472.html"
            ],
            "locType": "station",
            "longitude": "76.683164",
            "latitude": "12.1229725",
            "address": "Nanjangud, Nanjanagudu Bypass, Hejjige, Nanjanagudu taluk, Mysuru district, Karnataka, 571300, India",
            "closest_to": "belur"
        },
        "ooty lake": {
            "blogLinks": [
                "https://www.tripoto.com/weekend-getaways/from-belur"
            ],
            "locType": "primary",
            "longitude": "76.6586807",
            "latitude": "12.2774807",
            "address": "Ooty Road, Vidyaranyapuram, Mysuru, Mysuru taluk, Mysuru district, Karnataka, 570001, India",
            "closest_to": "belur"
        },
        "belur road": {
            "blogLinks": [
                "http://www.team-bhp.com/forum/route-travel-queries/87710-bangalore-shravanabelagola-halebidu-belur-route-queries.html"
            ],
            "locType": "town",
            "longitude": "75.8634851",
            "latitude": "13.1645671",
            "address": "Belur, Beluru taluk, Hassan district, Karnataka, 573115, India",
            "closest_to": "belur"
        },
        "kaimara": {
            "blogLinks": [
                "http://wikitravel.org/en/Chikmagalur"
            ],
            "locType": "village",
            "longitude": "75.7448654",
            "latitude": "13.3713857",
            "address": "Kaimara, Chikkamagaluru taluku, Chikkamagaluru district, Karnataka, India",
            "closest_to": "belur"
        },
        "moyar": {
            "blogLinks": [
                "https://www.tripoto.com/weekend-getaways/from-belur"
            ],
            "locType": "viewpoint",
            "longitude": "76.631118",
            "latitude": "11.6161121",
            "address": "Moyar Gorge, Gundlupet - Coimbatore Highway, Bandipur, Gundlupet taluk, Chamarajanagar district, Karnataka, India",
            "closest_to": "bangalore"
        },
        "kamalapura": {
            "blogLinks": [
                "https://www.tripoto.com/weekend-getaways/from-belur"
            ],
            "locType": "village",
            "longitude": "75.7316366",
            "latitude": "14.4449672",
            "address": "Kamalapura, Harihara taluku, Davanagere district, Karnataka, India",
            "closest_to": "belur"
        },
        "halebid": {
            "blogLinks": [
                "https://www.tripadvisor.in/ShowUserReviews-g1676037-d325163-r22844980-Chennakesava_Temple-Belur_Karnataka.html",
                "http://www.team-bhp.com/forum/route-travel-queries/87710-bangalore-shravanabelagola-halebidu-belur-route-queries.html",
                "https://www.tripoto.com/trip/belur-halebidu-5896",
                "http://www.holidayiq.com/Halebid-and-Belur-Sightseeing-651.html"
            ],
            "locType": "village",
            "longitude": "75.9918793",
            "latitude": "13.2167959",
            "address": "Halebidu, Beluru taluk, Hassan district, Karnataka, 573121, India",
            "closest_to": "belur"
        },
        "kannur": {
            "blogLinks": [
                "http://www.nivalink.com/destination/belur",
                "https://www.tripoto.com/weekend-getaways/from-belur",
                "http://www.nivalink.com/destination/hassan"
            ],
            "locType": "construction",
            "longitude": "74.8858161",
            "latitude": "12.8487602",
            "address": "Netravati bridge - Kannur Bypass Road (Proposed), Padil, Bajal, Mangaluru taluk, Dakshina Kannada, Karnataka, 575007, India",
            "closest_to": "belur"
        },
        "kundapura": {
            "blogLinks": [
                "http://www.nivalink.com/destination/belur",
                "http://www.nivalink.com/destination/hassan"
            ],
            "locType": "town",
            "longitude": "74.6915722",
            "latitude": "13.6250993",
            "address": "Kundapura, \u0c95\u0cc1\u0c82\u0ca6\u0cbe\u0caa\u0cc1\u0cb0 \u0ca4\u0cbe\u0cb2\u0cc2\u0c95\u0cc1, Udupi district, Karnataka, 576200, India",
            "closest_to": "belur"
        },
        "south": {
            "blogLinks": [
                "http://www.nivalink.com/destination/hassan"
            ],
            "locType": "residential",
            "longitude": "77.8040874",
            "latitude": "13.2942848",
            "address": "s, Vijayapura, Devanahalli taluk, Bangalore Rural, Karnataka, 562135, India",
            "closest_to": "bangalore"
        },
        "bababudangiri": {
            "blogLinks": [
                "http://wikitravel.org/en/Chikmagalur"
            ],
            "locType": "tertiary",
            "longitude": "75.7486618",
            "latitude": "13.4297401",
            "address": "Bababudangiri Road, Inam Dattatreya Pitha, Chikkamagaluru taluku, Chikkamagaluru district, Karnataka, India",
            "closest_to": "belur"
        },
        "kanakpura road": {
            "blogLinks": [
                "https://www.tripoto.com/weekend-getaways/from-belur"
            ],
            "locType": "yes",
            "longitude": "77.5438085908703",
            "latitude": "12.8866679",
            "address": "H 902, Mantri Tranquil, Gubbalala, Off Kanakpura Road, Bengaluru - 61, Subramanyapura Main Road, Singapore Gardens, Uttarahalli, Gubbalala, Bangalore Urban, Karnataka, 560086, India",
            "closest_to": "belur"
        },
        "belur": {
            "blogLinks": [
                "http://www.nivalink.com/destination/hassan",
                "http://wikitravel.org/en/Chikmagalur",
                "http://www.nivalink.com/destination/belur",
                "https://www.tripoto.com/weekend-getaways/from-belur",
                "https://www.tripoto.com/trip/belur-halebidu-5896",
                "http://www.holidayiq.com/Halebid-and-Belur-Sightseeing-651.html"
            ],
            "locType": "town",
            "longitude": "75.8634851",
            "latitude": "13.1645671",
            "address": "Belur, Beluru taluk, Hassan district, Karnataka, 573115, India",
            "closest_to": "belur"
        },
        "hebbe": {
            "blogLinks": [
                "http://wikitravel.org/en/Chikmagalur"
            ],
            "locType": "attraction",
            "longitude": "75.7253701",
            "latitude": "13.5414025",
            "address": "Hebbe falls, Kemmannagundi Road, Attigundi, Chikkamagaluru taluku, Chikkamagaluru district, Karnataka, India",
            "closest_to": "belur"
        },
        "mangalore international airport": {
            "blogLinks": [
                "https://www.tripoto.com/weekend-getaways/from-belur"
            ],
            "locType": "aerodrome",
            "longitude": "74.887492668144",
            "latitude": "12.95518575",
            "address": "Mangalore International Airport, Airport Entry Road, Gandhinagar, Kenjar, Mangaluru taluk, Dakshina Kannada, Karnataka, 575015, India",
            "closest_to": "belur"
        },
        "halebeedu": {
            "blogLinks": [
                "https://www.tripoto.com/weekend-getaways/from-belur"
            ],
            "locType": "secondary",
            "longitude": "76.000043",
            "latitude": "13.1681662",
            "address": "Halebeedu Hagare Road, Harubihalli, Beluru taluk, Hassan district, Karnataka, 573121, India",
            "closest_to": "belur"
        },
        "palani": {
            "blogLinks": [
                "https://www.tripoto.com/weekend-getaways/from-belur"
            ],
            "locType": "recycling",
            "longitude": "77.6168951",
            "latitude": "12.9537341",
            "address": "Palani, Neelasandra Bazaar Street, Austin Town BDA Layout, Neelasandra, Bengaluru, Bangalore Urban, Karnataka, 560001, India",
            "closest_to": "bangalore"
        },
        "nilgiris": {
            "blogLinks": [
                "https://www.tripoto.com/weekend-getaways/from-belur"
            ],
            "locType": "supermarket",
            "longitude": "77.6069792",
            "latitude": "12.9725052",
            "address": "Nilgiris, Brigade Road, Tasker Town, Ashok Nagar, Bengaluru, Bangalore Urban, Karnataka, 560001, India",
            "closest_to": "bangalore"
        },
        "udipi": {
            "blogLinks": [
                "http://www.nivalink.com/destination/belur",
                "http://www.nivalink.com/destination/hassan"
            ],
            "locType": "restaurant",
            "longitude": "77.652888",
            "latitude": "12.9530588",
            "address": "Udipi Park, 2nd Cross Road, Muniyappa Layout, Murugeshpalaya, Belure Ambedkar Nagar, Bangalore Urban, Karnataka, 560067, India",
            "closest_to": "bangalore"
        },
        "srirangapatna": {
            "blogLinks": [
                "http://www.holidayiq.com/Mysore-Sightseeing-472.html"
            ],
            "locType": "town",
            "longitude": "76.6850743",
            "latitude": "12.4225604",
            "address": "Srirangapatna, Srirangapattana taluk, Mandya district, Karnataka, 571438, India",
            "closest_to": "belur"
        },
        "coorg": {
            "blogLinks": [
                "https://www.tripoto.com/weekend-getaways/from-belur"
            ],
            "locType": "town",
            "longitude": "75.740031",
            "latitude": "12.4204003",
            "address": "Madikeri, Madikeri taluku, Kodagu, Karnataka, India",
            "closest_to": "belur"
        },
        "maradi": {
            "blogLinks": [
                "http://wikitravel.org/en/Chikmagalur"
            ],
            "locType": "village",
            "longitude": "76.0757799",
            "latitude": "12.8130205",
            "address": "Maradi, Arakalagudu taluk, Hassan district, Karnataka, India",
            "closest_to": "belur"
        },
        "chennakesava temple": {
            "blogLinks": [
                "http://wikitravel.org/en/Chikmagalur",
                "http://www.holidayiq.com/Halebid-and-Belur-Sightseeing-651.html"
            ],
            "locType": "place_of_worship",
            "longitude": "75.8603311",
            "latitude": "13.1629239",
            "address": "Chennakesava Temple, NH73, Navilahalli, Beluru taluk, Hassan district, Karnataka, India",
            "closest_to": "belur"
        },
        "bengal": {
            "blogLinks": [
                "https://www.tripoto.com/weekend-getaways/from-belur"
            ],
            "locType": "industrial",
            "longitude": "77.7517038151245",
            "latitude": "13.0492646",
            "address": "Bengal Lamps, Konadasapura, Bangalore Urban, Karnataka, 560066, India",
            "closest_to": "bangalore"
        },
        "river kaveri": {
            "blogLinks": [
                "http://www.holidayiq.com/Mysore-Sightseeing-472.html",
                "https://www.tripoto.com/weekend-getaways/from-belur",
                "http://www.holidayiq.com/Halebid-and-Belur-Sightseeing-651.html"
            ],
            "locType": "river",
            "longitude": "77.0635531",
            "latitude": "12.1687878",
            "address": "Kaveri, Kollegala taluk, Chamarajanagar district, Karnataka, India",
            "closest_to": "belur"
        },
        "chikkamagaluru": {
            "blogLinks": [
                "http://wikitravel.org/en/Chikmagalur"
            ],
            "locType": "city",
            "longitude": "75.7738743",
            "latitude": "13.318014",
            "address": "Chikkamagaluru, Chikkamagaluru taluku, Chikkamagaluru district, Karnataka, 577101, India",
            "closest_to": "belur"
        },
        "hemavati": {
            "blogLinks": [
                "http://wikitravel.org/en/Chikmagalur"
            ],
            "locType": "river",
            "longitude": "76.0723187",
            "latitude": "12.8179996",
            "address": "Hemavati, Hasana taluk, Hassan district, Karnataka, India",
            "closest_to": "belur"
        },
        "arishinakunte": {
            "blogLinks": [
                "http://travel.harish-mohan.com/"
            ],
            "locType": "village",
            "longitude": "77.4225682",
            "latitude": "13.0784775",
            "address": "Arishinakunte, Nelamangala taluk, Bangalore Rural, Karnataka, India",
            "closest_to": "belur"
        },
        "golconda": {
            "blogLinks": [
                "http://www.holidayiq.com/Mysore-Sightseeing-472.html"
            ],
            "locType": "restaurant",
            "longitude": "77.7127571",
            "latitude": "12.9558467",
            "address": "Golconda Chimney, Varthur Road, Vaikuntam Layout, AECS Layout, Siddapura, Bangalore Urban, Karnataka, 560066, India",
            "closest_to": "bangalore"
        },
        "kerala": {
            "blogLinks": [
                "http://travel.harish-mohan.com/",
                "https://www.tripoto.com/weekend-getaways/from-belur"
            ],
            "locType": "restaurant",
            "longitude": "77.6382683",
            "latitude": "12.9726449",
            "address": "New Life Kerala Mess, Sai Baba Mandira Road, Mottappanapalaya, Indiranagar, Bengaluru, Bangalore Urban, Karnataka, 560001, India",
            "closest_to": "bangalore"
        },
        "india": {
            "blogLinks": [
                "http://www.nivalink.com/destination/hassan",
                "http://wikitravel.org/en/Chikmagalur",
                "http://travel.harish-mohan.com/",
                "https://www.tripadvisor.in/ShowUserReviews-g1676037-d325163-r22844980-Chennakesava_Temple-Belur_Karnataka.html",
                "http://www.holidayiq.com/Mysore-Sightseeing-472.html",
                "https://www.tripoto.com/weekend-getaways/from-belur",
                "https://www.tripoto.com/trip/belur-halebidu-5896",
                "http://www.holidayiq.com/Halebid-and-Belur-Sightseeing-651.html"
            ],
            "locType": "administrative",
            "longitude": "75.7223521",
            "latitude": "14.5203896",
            "address": "Karnataka, India",
            "closest_to": "belur"
        },
        "halebidu": {
            "blogLinks": [
                "http://www.nivalink.com/destination/belur",
                "http://www.team-bhp.com/forum/route-travel-queries/87710-bangalore-shravanabelagola-halebidu-belur-route-queries.html",
                "https://www.tripoto.com/trip/belur-halebidu-5896",
                "http://www.nivalink.com/destination/hassan"
            ],
            "locType": "village",
            "longitude": "76.4607075",
            "latitude": "12.359893",
            "address": "Halebidu, Hunasuru taluk, Mysuru district, Karnataka, India",
            "closest_to": "belur"
        },
        "railway station": {
            "blogLinks": [
                "https://www.tripoto.com/weekend-getaways/from-belur"
            ],
            "locType": "village",
            "longitude": "77.515738",
            "latitude": "13.5029417",
            "address": "Railway Station, Gauribidanuru taluk, Chikkaballapura district, Karnataka, India",
            "closest_to": "belur"
        },
        "national park": {
            "blogLinks": [
                "https://www.tripoto.com/weekend-getaways/from-belur"
            ],
            "locType": "national_park",
            "longitude": "77.5722783830694",
            "latitude": "12.77900335",
            "address": "Bannerghatta National Park, Anekal Road, Begihalli, Bangalore Urban, Karnataka, 560076, India",
            "closest_to": "bangalore"
        },
        "botanical gardens": {
            "blogLinks": [
                "https://www.tripoto.com/weekend-getaways/from-belur"
            ],
            "locType": "protected_area",
            "longitude": "77.5744817798899",
            "latitude": "13.08099125",
            "address": "Botanical Garden, Cart road, Judicial Layout, Jakkur, Bangalore Urban, Karnataka, 560065, India",
            "closest_to": "belur"
        },
        "south bangalore": {
            "blogLinks": [
                "http://www.team-bhp.com/forum/route-travel-queries/87710-bangalore-shravanabelagola-halebidu-belur-route-queries.html"
            ],
            "locType": "residential",
            "longitude": "77.8040586",
            "latitude": "13.2930913",
            "address": "s, Vijayapura, Devanahalli taluk, Bangalore Rural, Karnataka, 562135, India",
            "closest_to": "bangalore"
        },
        "mysore city": {
            "blogLinks": [
                "http://www.holidayiq.com/Mysore-Sightseeing-472.html"
            ],
            "locType": "city",
            "longitude": "76.6553609",
            "latitude": "12.3051828",
            "address": "Mysuru, Mysuru taluk, Mysuru district, Karnataka, 570001, India",
            "closest_to": "belur"
        },
        "mandya": {
            "blogLinks": [
                "https://www.tripoto.com/weekend-getaways/from-belur"
            ],
            "locType": "town",
            "longitude": "76.8937392",
            "latitude": "12.5217836",
            "address": "Mandya, Mandya taluk, Mandya district, Karnataka, 571401, India",
            "closest_to": "belur"
        },
        "river cauvery": {
            "blogLinks": [
                "http://www.nivalink.com/destination/hassan",
                "http://www.holidayiq.com/Mysore-Sightseeing-472.html"
            ],
            "locType": "cinema",
            "longitude": "77.5832796015599",
            "latitude": "13.00262215",
            "address": "Cauvery, 1st Main Road, Lower Palace Orchard, Guttahalli, Bengaluru, Bangalore Urban, Karnataka, 560001, India",
            "closest_to": "belur"
        },
        "gowdahalli": {
            "blogLinks": [
                "http://wikitravel.org/en/Chikmagalur"
            ],
            "locType": "village",
            "longitude": "75.5981999",
            "latitude": "13.0422415",
            "address": "Gowdahalli, Mudigere taluk, Chikkamagaluru district, Karnataka, India",
            "closest_to": "belur"
        },
        "dakshina kannada": {
            "blogLinks": [
                "https://www.tripoto.com/weekend-getaways/from-belur"
            ],
            "locType": "administrative",
            "longitude": "75.1008028650794",
            "latitude": "12.8114089",
            "address": "Dakshina Kannada, Karnataka, India",
            "closest_to": "belur"
        },
        "rain-tree": {
            "blogLinks": [
                "https://www.tripoto.com/weekend-getaways/from-belur"
            ],
            "locType": "tree",
            "longitude": "77.6414765",
            "latitude": "12.9757365",
            "address": "Rain Tree, 3rd Main Road, Defence Colony, Hoysala Nagar, Bengaluru, Bangalore Urban, Karnataka, 560001, India",
            "closest_to": "bangalore"
        },
        "yagachi dam": {
            "blogLinks": [
                "http://www.holidayiq.com/Halebid-and-Belur-Sightseeing-651.html"
            ],
            "locType": "dam",
            "longitude": "75.8678438",
            "latitude": "13.1812074",
            "address": "Yagachi Dam, Beluru taluk, Hassan district, Karnataka, India",
            "closest_to": "belur"
        },
        "lakkavalli": {
            "blogLinks": [
                "http://wikitravel.org/en/Chikmagalur"
            ],
            "locType": "village",
            "longitude": "75.1078097",
            "latitude": "14.5841018",
            "address": "Lakkavalli, Soraba taluk, Shimoga district, Karnataka, India",
            "closest_to": "belur"
        },
        "nageshwara": {
            "blogLinks": [
                "http://www.nivalink.com/destination/hassan"
            ],
            "locType": "yes",
            "longitude": "77.095092",
            "latitude": "13.3632898",
            "address": "Nageshwara, #4, Honnenahalli Road, Satyamangala, Tumkur taluk, Tumkur district, Karnataka, 572101, India",
            "closest_to": "belur"
        },
        "mallalli falls": {
            "blogLinks": [
                "https://www.tripoto.com/weekend-getaways/from-belur"
            ],
            "locType": "waterfall",
            "longitude": "75.723663",
            "latitude": "12.6813778",
            "address": "Mallalli Falls, Somawarpet taluk, Kodagu, Karnataka, India",
            "closest_to": "belur"
        },
        "murugan temple": {
            "blogLinks": [
                "http://travel.harish-mohan.com/"
            ],
            "locType": "place_of_worship",
            "longitude": "77.6551564456312",
            "latitude": "12.95794125",
            "address": "Murugan Temple, 72, Church Road, Kaveri Nagar, Murugeshpalaya, Belure Ambedkar Nagar, Bangalore Urban, Karnataka, 560017, India",
            "closest_to": "bangalore"
        },
        "earth": {
            "blogLinks": [
                "https://www.tripoto.com/weekend-getaways/from-belur"
            ],
            "locType": "industrial",
            "longitude": "77.659986649248",
            "latitude": "12.9740596",
            "address": "Bharat Earth Movers Limited - BEML, GM Palya, Bengaluru, Bangalore Urban, Karnataka, 560001, India",
            "closest_to": "bangalore"
        },
        "hoysala": {
            "blogLinks": [
                "https://www.tripoto.com/trip/belur-halebidu-5896"
            ],
            "locType": "administrative",
            "longitude": "77.6375990817051",
            "latitude": "12.97813815",
            "address": "Hoysala Nagar, Bengaluru, Bangalore Urban, Karnataka, 560001, India",
            "closest_to": "bangalore"
        },
        "kodagu": {
            "blogLinks": [
                "https://www.tripoto.com/weekend-getaways/from-belur"
            ],
            "locType": "administrative",
            "longitude": "75.6677235950852",
            "latitude": "12.38117345",
            "address": "Kodagu, Karnataka, India",
            "closest_to": "belur"
        },
        "river hemavathi": {
            "blogLinks": [
                "http://www.nivalink.com/destination/hassan"
            ],
            "locType": "dam",
            "longitude": "76.0556931",
            "latitude": "12.8267596",
            "address": "Hemavathi Reservoir, Hasana taluk, Hassan district, Karnataka, India",
            "closest_to": "belur"
        },
        "south karnataka": {
            "blogLinks": [
                "http://wikitravel.org/en/Chikmagalur"
            ],
            "locType": "residential",
            "longitude": "77.8040874",
            "latitude": "13.2942848",
            "address": "s, Vijayapura, Devanahalli taluk, Bangalore Rural, Karnataka, 562135, India",
            "closest_to": "bangalore"
        },
        "amrutapura": {
            "blogLinks": [
                "http://wikitravel.org/en/Chikmagalur"
            ],
            "locType": "village",
            "longitude": "75.8535015",
            "latitude": "13.7425193",
            "address": "Amrutapura, Tarikere taluku, Chikkamagaluru district, Karnataka, India",
            "closest_to": "belur"
        },
        "hassan": {
            "blogLinks": [
                "http://www.team-bhp.com/forum/route-travel-queries/87710-bangalore-shravanabelagola-halebidu-belur-route-queries.html",
                "http://wikitravel.org/en/Chikmagalur"
            ],
            "locType": "town",
            "longitude": "76.0992703",
            "latitude": "13.0070817",
            "address": "Hassan, Hasana taluk, Hassan district, Karnataka, 573201, India",
            "closest_to": "belur"
        },
        "coimbatore": {
            "blogLinks": [
                "https://www.tripoto.com/weekend-getaways/from-belur"
            ],
            "locType": "trunk",
            "longitude": "76.6318246",
            "latitude": "11.6793976",
            "address": "Gundlupet - Coimbatore Highway, Bandipur, Gundlupet taluk, Chamarajanagar district, Karnataka, India",
            "closest_to": "belur"
        },
        "north kerala": {
            "blogLinks": [
                "http://www.nivalink.com/destination/belur",
                "http://www.nivalink.com/destination/hassan"
            ],
            "locType": "restaurant",
            "longitude": "77.6382683",
            "latitude": "12.9726449",
            "address": "New Life Kerala Mess, Sai Baba Mandira Road, Mottappanapalaya, Indiranagar, Bengaluru, Bangalore Urban, Karnataka, 560001, India",
            "closest_to": "bangalore"
        },
        "madurai": {
            "blogLinks": [
                "https://www.tripoto.com/weekend-getaways/from-belur",
                "https://www.tripoto.com/trip/belur-halebidu-5896"
            ],
            "locType": "restaurant",
            "longitude": "77.6320535",
            "latitude": "12.9185419",
            "address": "Madurai Idly Shop, 5th Main Road, Teachers Colony, HSR Layout, Bengaluru, Bangalore Urban, Karnataka, 560001, India",
            "closest_to": "bangalore"
        },
        "akshaya park": {
            "blogLinks": [
                "http://travel.harish-mohan.com/"
            ],
            "locType": "residential",
            "longitude": "77.5626944212656",
            "latitude": "13.0039407",
            "address": "61, Akshaya, Gayatri Nagar, Bengaluru, Bangalore Urban, Karnataka, 560003, India",
            "closest_to": "belur"
        },
        "hasanamba temple": {
            "blogLinks": [
                "http://www.nivalink.com/destination/hassan"
            ],
            "locType": "place_of_worship",
            "longitude": "76.0946142",
            "latitude": "13.0027589",
            "address": "Sri Hasanamba Temple, Hosaline Road, Ravindra Nagar, Santhe Pete, Hassan, Hasana taluk, Hassan district, Karnataka, 573201, India",
            "closest_to": "belur"
        },
        "magadi road": {
            "blogLinks": [
                "http://www.team-bhp.com/forum/route-travel-queries/87710-bangalore-shravanabelagola-halebidu-belur-route-queries.html"
            ],
            "locType": "primary",
            "longitude": "77.5484764",
            "latitude": "12.9750144",
            "address": "Magadi Road, Rajajinagar 6th Block, Dasarahalli, Bengaluru, Bangalore Urban, Karnataka, 560001, India",
            "closest_to": "belur"
        },
        "nelamangala taluk": {
            "blogLinks": [
                "http://travel.harish-mohan.com/"
            ],
            "locType": "administrative",
            "longitude": "77.3519372895192",
            "latitude": "13.15097425",
            "address": "Nelamangala taluk, Bangalore Rural, Karnataka, India",
            "closest_to": "belur"
        },
        "golden triangle": {
            "blogLinks": [
                "https://www.tripoto.com/weekend-getaways/from-belur"
            ],
            "locType": "construction",
            "longitude": "77.7617021687636",
            "latitude": "13.05444825",
            "address": "Brigade Golden Triangle Apartments (Under Construction), Kattamanallur, Bangalore Urban, Karnataka, 560066, India",
            "closest_to": "bangalore"
        },
        "emerald lake": {
            "blogLinks": [
                "https://www.tripoto.com/weekend-getaways/from-belur"
            ],
            "locType": "hotel",
            "longitude": "77.8188013",
            "latitude": "13.0833534",
            "address": "Emerald Isle Resort, NH75, Lakshmisagara, Kolar taluk, Kolar district, Karnataka, 563133, India",
            "closest_to": "bangalore"
        },
        "chikkamagalur": {
            "blogLinks": [
                "http://www.nivalink.com/destination/belur"
            ],
            "locType": "station",
            "longitude": "75.789501",
            "latitude": "13.3030706",
            "address": "Chikkamagalur, SH57, Hosamane Badavane, Hiremagaluru, Chikkamagaluru taluku, Chikkamagaluru district, Karnataka, 577101, India",
            "closest_to": "belur"
        },
        "chennakesava": {
            "blogLinks": [
                "https://www.tripoto.com/weekend-getaways/from-belur"
            ],
            "locType": "place_of_worship",
            "longitude": "75.8603311",
            "latitude": "13.1629239",
            "address": "Chennakesava Temple, NH73, Navilahalli, Beluru taluk, Hassan district, Karnataka, India",
            "closest_to": "belur"
        },
        "brindavan gardens": {
            "blogLinks": [
                "http://www.holidayiq.com/Mysore-Sightseeing-472.html"
            ],
            "locType": "garden",
            "longitude": "76.5741029405883",
            "latitude": "12.4208084",
            "address": "Brindavan Gardens, Krishnaraja Sagara Road, Krushnarajasagara, Srirangapattana taluk, Mandya district, Karnataka, India",
            "closest_to": "belur"
        },
        "vittala": {
            "blogLinks": [
                "https://www.tripoto.com/weekend-getaways/from-belur"
            ],
            "locType": "yes",
            "longitude": "76.6237847175927",
            "latitude": "12.30129655",
            "address": "Vijaya Vittala PU College, Sahukar Chennaiah Road, Sarasvatipuram, Mysuru, Mysuru taluk, Mysuru district, Karnataka, 570001, India",
            "closest_to": "belur"
        },
        "nazarabad": {
            "blogLinks": [
                "http://travel.harish-mohan.com/"
            ],
            "locType": "primary",
            "longitude": "76.6588117",
            "latitude": "12.3099796",
            "address": "Nazarabad Main Road, Nazarbad, Mysuru, Mysuru taluk, Mysuru district, Karnataka, 570001, India",
            "closest_to": "belur"
        },
        "kingdom": {
            "blogLinks": [
                "http://travel.harish-mohan.com/"
            ],
            "locType": "residential",
            "longitude": "77.7452071120628",
            "latitude": "13.073111",
            "address": "DeFINER Kingdom Apartments (u/c), Bommenahalli, Bangalore Urban, Karnataka, 560049, India",
            "closest_to": "bangalore"
        },
        "belavadi": {
            "blogLinks": [
                "https://www.tripoto.com/trip/belur-halebidu-5896"
            ],
            "locType": "village",
            "longitude": "75.3760773",
            "latitude": "13.5284899",
            "address": "Belavadi, Koppa taluk, Chikkamagaluru district, Karnataka, India",
            "closest_to": "belur"
        },
        "kemmannagundi": {
            "blogLinks": [
                "http://wikitravel.org/en/Chikmagalur"
            ],
            "locType": "village",
            "longitude": "75.7520082",
            "latitude": "13.5463048",
            "address": "Kemmannagundi, Tarikere taluku, Chikkamagaluru district, Karnataka, India",
            "closest_to": "belur"
        },
        "shravanabelagola": {
            "blogLinks": [
                "http://www.team-bhp.com/forum/route-travel-queries/87710-bangalore-shravanabelagola-halebidu-belur-route-queries.html"
            ],
            "locType": "town",
            "longitude": "76.4869997",
            "latitude": "12.8581305",
            "address": "Shravanabelagola, Channarayapattana taluk, Hassan district, Karnataka, 573135, India",
            "closest_to": "belur"
        },
        "aralaguppe": {
            "blogLinks": [
                "http://www.nivalink.com/destination/hassan"
            ],
            "locType": "village",
            "longitude": "76.6165598",
            "latitude": "13.2517886",
            "address": "Aralaguppe, Tipaturu taluk, Tumkur district, Karnataka, India",
            "closest_to": "belur"
        },
        "magadi": {
            "blogLinks": [
                "http://www.team-bhp.com/forum/route-travel-queries/87710-bangalore-shravanabelagola-halebidu-belur-route-queries.html"
            ],
            "locType": "town",
            "longitude": "77.2242281",
            "latitude": "12.9567353",
            "address": "Magadi, Magadi taluku, Ramanagara district, Karnataka, 562120, India",
            "closest_to": "belur"
        },
        "chennakeshava temple": {
            "blogLinks": [
                "http://www.holidayiq.com/Halebid-and-Belur-Sightseeing-651.html"
            ],
            "locType": "place_of_worship",
            "longitude": "76.1294164",
            "latitude": "13.3748908",
            "address": "Chennakeshava Temple, NH73, Arakere, Arasikere taluku, Hassan district, Karnataka, 573112, India",
            "closest_to": "belur"
        },
        "bangalore": {
            "blogLinks": [
                "http://www.nivalink.com/destination/hassan",
                "http://wikitravel.org/en/Chikmagalur",
                "http://www.nivalink.com/destination/belur",
                "https://www.tripadvisor.in/ShowUserReviews-g1676037-d325163-r22844980-Chennakesava_Temple-Belur_Karnataka.html",
                "http://travel.harish-mohan.com/",
                "http://www.team-bhp.com/forum/route-travel-queries/87710-bangalore-shravanabelagola-halebidu-belur-route-queries.html",
                "https://www.tripoto.com/weekend-getaways/from-belur",
                "https://www.tripoto.com/trip/belur-halebidu-5896"
            ],
            "locType": "city",
            "longitude": "77.5912997",
            "latitude": "12.9791198",
            "address": "Bengaluru, Bangalore Urban, Karnataka, 560001, India",
            "closest_to": "belur"
        },
        "vedavati": {
            "blogLinks": [
                "http://wikitravel.org/en/Chikmagalur"
            ],
            "locType": "river",
            "longitude": "76.1347937",
            "latitude": "13.6048777",
            "address": "Vedavati, Kaduru taluk, Chikkamagaluru district, Karnataka, India",
            "closest_to": "belur"
        },
        "nelamangala": {
            "blogLinks": [
                "http://www.team-bhp.com/forum/route-travel-queries/87710-bangalore-shravanabelagola-halebidu-belur-route-queries.html",
                "https://www.tripoto.com/weekend-getaways/from-belur"
            ],
            "locType": "town",
            "longitude": "77.3963586",
            "latitude": "13.0953024",
            "address": "Nelamangala, Nelamangala taluk, Bangalore Rural, Karnataka, India",
            "closest_to": "belur"
        },
        "iruppu falls": {
            "blogLinks": [
                "https://www.tripoto.com/weekend-getaways/from-belur"
            ],
            "locType": "attraction",
            "longitude": "75.9839484",
            "latitude": "11.9667954",
            "address": "Iruppu Falls, SH89, Taila, Virajpet taluk, Kodagu, Karnataka, 571217, India",
            "closest_to": "belur"
        },
        "kudremukh": {
            "blogLinks": [
                "http://wikitravel.org/en/Chikmagalur"
            ],
            "locType": "village",
            "longitude": "75.2523304",
            "latitude": "13.2144007",
            "address": "Kudremukha, Mudigere taluk, Chikkamagaluru district, Karnataka, India",
            "closest_to": "belur"
        },
        "hassan district of karnataka": {
            "blogLinks": [
                "http://www.holidayiq.com/Halebid-and-Belur-Sightseeing-651.html"
            ],
            "locType": "administrative",
            "longitude": "76.1745460751981",
            "latitude": "13.0315068",
            "address": "Hassan district, Karnataka, India",
            "closest_to": "belur"
        },
        "karnataka": {
            "blogLinks": [
                "http://www.nivalink.com/destination/hassan",
                "http://wikitravel.org/en/Chikmagalur",
                "http://www.nivalink.com/destination/belur",
                "http://travel.harish-mohan.com/",
                "https://www.tripoto.com/weekend-getaways/from-belur",
                "https://www.tripoto.com/trip/belur-halebidu-5896",
                "http://www.karnatakatourism.org/"
            ],
            "locType": "atm",
            "longitude": "76.6639936",
            "latitude": "12.3084901",
            "address": "Karnataka, Shalivahana Road, Nazarbad, Mysuru, Mysuru taluk, Mysuru district, Karnataka, 570001, India",
            "closest_to": "belur"
        },
        "chikmagalur": {
            "blogLinks": [
                "http://wikitravel.org/en/Chikmagalur"
            ],
            "locType": "county",
            "longitude": "75.5",
            "latitude": "13.5",
            "address": "Chikmagalur, Chikkamagaluru district, Karnataka, India",
            "closest_to": "belur"
        },
        "mangalore": {
            "blogLinks": [
                "https://www.tripoto.com/weekend-getaways/from-belur",
                "https://www.tripoto.com/trip/belur-halebidu-5896",
                "http://www.nivalink.com/destination/hassan",
                "http://wikitravel.org/en/Chikmagalur"
            ],
            "locType": "city",
            "longitude": "74.8430082",
            "latitude": "12.8698101",
            "address": "Mangaluru, Mangaluru taluk, Dakshina Kannada, Karnataka, 575001, India",
            "closest_to": "belur"
        },
        "ranganathittu bird sanctuary": {
            "blogLinks": [
                "http://www.holidayiq.com/Mysore-Sightseeing-472.html"
            ],
            "locType": "attraction",
            "longitude": "76.6553081",
            "latitude": "12.4238524",
            "address": "Ranganathittu Bird Sanctuary, SH154, Palahalli, Srirangapattana taluk, Mandya district, Karnataka, 571438, India",
            "closest_to": "belur"
        },
        "bangalore tumkur": {
            "blogLinks": [
                "http://travel.harish-mohan.com/"
            ],
            "locType": "primary",
            "longitude": "77.0940052",
            "latitude": "13.3434319",
            "address": "Bangalore Honnavar Road, Tumakuru, Tumkur taluk, Tumkur district, Karnataka, 572101, India",
            "closest_to": "belur"
        },
        "nilgiri range": {
            "blogLinks": [
                "https://www.tripoto.com/weekend-getaways/from-belur"
            ],
            "locType": "primary",
            "longitude": "76.658639",
            "latitude": "12.304105",
            "address": "Bangalore Nilgiri Road, Ittigegudu, Mysuru, Mysuru taluk, Mysuru district, Karnataka, 570001, India",
            "closest_to": "belur"
        },
        "madras": {
            "blogLinks": [
                "http://travel.harish-mohan.com/",
                "https://www.tripoto.com/weekend-getaways/from-belur"
            ],
            "locType": "station",
            "longitude": "77.6449595",
            "latitude": "12.9859442",
            "address": "Swami Vivekananda Road, Swamy Vivekananda Road (Old Madras Road), Sudgunte Palya, Baiyyappanahalli, Benniganahalli, Bangalore Urban, Karnataka, 560016, India",
            "closest_to": "bangalore"
        },
        "karanji kere lake": {
            "blogLinks": [
                "http://www.holidayiq.com/Mysore-Sightseeing-472.html"
            ],
            "locType": "water",
            "longitude": "76.6732096487956",
            "latitude": "12.30204655",
            "address": "Karanji Kere, Kozhikode - Kollegal Highway, Alanahalli, Race Course, Mysuru, Mysuru taluk, Mysuru district, Karnataka, 570001, India",
            "closest_to": "belur"
        },
        "mysore palace": {
            "blogLinks": [
                "http://www.holidayiq.com/Mysore-Sightseeing-472.html"
            ],
            "locType": "yes",
            "longitude": "76.6539249338108",
            "latitude": "12.3052915",
            "address": "Mysore Palace, Sayyaji Rao Road, Vani Vilas, Mysuru, Mysuru taluk, Mysuru district, Karnataka, 570001, India",
            "closest_to": "belur"
        },
        "cauvery ) river": {
            "blogLinks": [
                "http://travel.harish-mohan.com/"
            ],
            "locType": "unclassified",
            "longitude": "77.635647",
            "latitude": "12.9327668",
            "address": "Temple Trees Rd, Cauvery Colony, ST Bed Layout, Koramangala, Bengaluru, Bangalore Urban, Karnataka, 560001, India",
            "closest_to": "bangalore"
        },
        "venugopala swamy temple": {
            "blogLinks": [
                "http://www.holidayiq.com/Mysore-Sightseeing-472.html"
            ],
            "locType": "attraction",
            "longitude": "76.5669483499581",
            "latitude": "12.4441615",
            "address": "Venugopala Swamy Temple, Krishnaraja Sagara Road, Krushnarajasagara, Srirangapattana taluk, Mandya district, Karnataka, India",
            "closest_to": "belur"
        },
        "kadur": {
            "blogLinks": [
                "http://wikitravel.org/en/Chikmagalur"
            ],
            "locType": "trunk",
            "longitude": "75.7820095",
            "latitude": "13.3283654",
            "address": "Mudigere-Kadur Road, Basavannahalli, Chikkamagaluru, Chikkamagaluru taluku, Chikkamagaluru district, Karnataka, 577101, India",
            "closest_to": "belur"
        },
        "manikyadhara": {
            "blogLinks": [
                "http://wikitravel.org/en/Chikmagalur"
            ],
            "locType": "attraction",
            "longitude": "75.7701434",
            "latitude": "13.4220248",
            "address": "Manikyadhara, Bababudangiri Road, Inam Dattatreya Pitha, Chikkamagaluru taluku, Chikkamagaluru district, Karnataka, India",
            "closest_to": "belur"
        },
        "madikeri fort": {
            "blogLinks": [
                "https://www.tripoto.com/weekend-getaways/from-belur"
            ],
            "locType": "museum",
            "longitude": "75.7392494",
            "latitude": "12.4203606",
            "address": "Madikeri Museum, Fort Internal Road, Madikeri, Madikeri taluku, Kodagu, Karnataka, India",
            "closest_to": "belur"
        },
        "kappe chennigaraya": {
            "blogLinks": [
                "https://www.tripoto.com/weekend-getaways/from-belur"
            ],
            "locType": "archaeological_site",
            "longitude": "75.8603867",
            "latitude": "13.1624691",
            "address": "Kappe Chennigaraya Temple, NH73, Navilahalli, Beluru taluk, Hassan district, Karnataka, India",
            "closest_to": "belur"
        },
        "bangalore-pune": {
            "blogLinks": [
                "http://travel.harish-mohan.com/"
            ],
            "locType": "trunk",
            "longitude": "75.4974847",
            "latitude": "14.7156528",
            "address": "Pune-Bangalore Road, Motebennur, Byadagi taluk, Haveri district, Karnataka, 581106, India",
            "closest_to": "belur"
        },
        "brahmagiri peak": {
            "blogLinks": [
                "https://www.tripoto.com/weekend-getaways/from-belur"
            ],
            "locType": "peak",
            "longitude": "75.490746",
            "latitude": "12.3868578",
            "address": "Brahmagiri, Madikeri taluku, Kodagu, Karnataka, India",
            "closest_to": "belur"
        },
        "kalaseshwara temple": {
            "blogLinks": [
                "http://www.nivalink.com/destination/belur",
                "http://www.nivalink.com/destination/hassan"
            ],
            "locType": "place_of_worship",
            "longitude": "75.363446975",
            "latitude": "13.23228505",
            "address": "Kalaseshwara Temple, SH66, Kalasa, Mudigere taluk, Chikkamagaluru district, Karnataka, 577124, India",
            "closest_to": "belur"
        },
        "devi kanyakumari": {
            "blogLinks": [
                "http://travel.harish-mohan.com/"
            ],
            "locType": "hospital",
            "longitude": "77.6374069",
            "latitude": "12.9162576",
            "address": "Devi Eye Hospital, Outer Ring Road, Sector 5, HSR Layout, Bengaluru, Bangalore Urban, Karnataka, 560001, India",
            "closest_to": "bangalore"
        },
        "doddamakali": {
            "blogLinks": [
                "http://www.nivalink.com/destination/hassan"
            ],
            "locType": "locality",
            "longitude": "77.2173416",
            "latitude": "12.3096676",
            "address": "Doddamakali, Dalanakatte, Malavalli taluk, Mandya district, Karnataka, India",
            "closest_to": "belur"
        },
        "krishnarajendra terrace garden": {
            "blogLinks": [
                "http://www.holidayiq.com/Mysore-Sightseeing-472.html"
            ],
            "locType": "park",
            "longitude": "77.583027619944",
            "latitude": "12.96370475",
            "address": "Silver Jubilee Park, Narasimharaja Road, Ganigarpet, Kalasipalya, Bengaluru, Bangalore Urban, Karnataka, 560001, India",
            "closest_to": "belur"
        },
        "yagachi": {
            "blogLinks": [
                "http://wikitravel.org/en/Chikmagalur"
            ],
            "locType": "river",
            "longitude": "75.950911",
            "latitude": "13.0658494",
            "address": "Yagachi, Beluru taluk, Hassan district, Karnataka, India",
            "closest_to": "belur"
        },
        "belur-hassan road": {
            "blogLinks": [
                "http://www.team-bhp.com/forum/route-travel-queries/87710-bangalore-shravanabelagola-halebidu-belur-route-queries.html"
            ],
            "locType": "town",
            "longitude": "75.8634851",
            "latitude": "13.1645671",
            "address": "Belur, Beluru taluk, Hassan district, Karnataka, 573115, India",
            "closest_to": "belur"
        },
        "omkareshwara temple": {
            "blogLinks": [
                "https://www.tripoto.com/weekend-getaways/from-belur"
            ],
            "locType": "place_of_worship",
            "longitude": "75.741304",
            "latitude": "12.420546",
            "address": "Omkareshwara Temple, Main Road, Madikeri, Madikeri taluku, Kodagu, Karnataka, India",
            "closest_to": "belur"
        },
        "varanasi": {
            "blogLinks": [
                "http://travel.harish-mohan.com/"
            ],
            "locType": "village",
            "longitude": "77.6860657",
            "latitude": "13.0304962",
            "address": "Varanasi, Bangalore Urban, Karnataka, India",
            "closest_to": "bangalore"
        },
        "kannada": {
            "blogLinks": [
                "http://travel.harish-mohan.com/"
            ],
            "locType": "administrative",
            "longitude": "75.1008028650794",
            "latitude": "12.8114089",
            "address": "Dakshina Kannada, Karnataka, India",
            "closest_to": "belur"
        },
        "rameshwara": {
            "blogLinks": [
                "http://www.nivalink.com/destination/belur",
                "http://www.nivalink.com/destination/hassan"
            ],
            "locType": "place_of_worship",
            "longitude": "77.5678621969321",
            "latitude": "12.99365815",
            "address": "Rameshwara Temple, Kranthikavi Sarvagnya Road, Rajajinagar 4th Block, Sriramapura, Bengaluru, Bangalore Urban, Karnataka, 560001, India",
            "closest_to": "belur"
        },
        "ooty": {
            "blogLinks": [
                "https://www.tripoto.com/weekend-getaways/from-belur"
            ],
            "locType": "primary",
            "longitude": "76.6586807",
            "latitude": "12.2774807",
            "address": "Ooty Road, Vidyaranyapuram, Mysuru, Mysuru taluk, Mysuru district, Karnataka, 570001, India",
            "closest_to": "belur"
        },
        "mysore": {
            "blogLinks": [
                "http://travel.harish-mohan.com/",
                "http://www.holidayiq.com/Mysore-Sightseeing-472.html"
            ],
            "locType": "city",
            "longitude": "76.6553609",
            "latitude": "12.3051828",
            "address": "Mysuru, Mysuru taluk, Mysuru district, Karnataka, 570001, India",
            "closest_to": "belur"
        }
    },
    "belur": {
        "icon": "https://nominatim.openstreetmap.org/images/mapicons/poi_place_town.p.20.png",
        "osm_type": "node",
        "boundingbox": [
            "13.1245671",
            "13.2045671",
            "75.8234851",
            "75.9034851"
        ],
        "display_name": "Belur, Beluru taluk, Hassan district, Karnataka, 573115, India",
        "class": "place",
        "osm_id": "245618812",
        "type": "town",
        "licence": "Data \u00a9 OpenStreetMap contributors, ODbL 1.0. http://www.openstreetmap.org/copyright",
        "lon": "75.8634851",
        "lat": "13.1645671",
        "place_id": "633330",
        "importance": 0.5
    }
}