{
    "bangalore": {
        "icon": "https://nominatim.openstreetmap.org/images/mapicons/poi_place_city.p.20.png",
        "osm_type": "node",
        "boundingbox": [
            "12.8191198",
            "13.1391198",
            "77.4312997",
            "77.7512997"
        ],
        "display_name": "Bengaluru, Bangalore Urban, Karnataka, 560001, India",
        "class": "place",
        "osm_id": "3401391999",
        "type": "city",
        "licence": "Data \u00a9 OpenStreetMap contributors, ODbL 1.0. http://www.openstreetmap.org/copyright",
        "lon": "77.5912997",
        "lat": "12.9791198",
        "place_id": "46592958",
        "importance": 0.8183333454045
    },
    "mentions": {
        "sri lakshmi venkataramana": {
            "blogLinks": [
                "http://www.hoparoundindia.com/karnataka/city-guides/thirthahalli.aspx"
            ],
            "locType": "place_of_worship",
            "longitude": "76.0966987662231",
            "latitude": "13.01730675",
            "address": "Sri Shiva Parvathi Sri Lakshmi Venkataramana Swami Temple, Ganapathi Temple Street, Ravindra Nagar, Hemavathi Nagara, Tamlapura, Hasana taluk, Hassan district, Karnataka, 573201, India",
            "closest_to": "thirthahalli"
        },
        "malgudi": {
            "blogLinks": [
                "http://travel.india.com/agumbe/"
            ],
            "locType": "restaurant",
            "longitude": "77.7017267",
            "latitude": "12.9651193",
            "address": "Malgudi Southern Cuisine, 3, Outer Ring Road, Ananda Nagara, Doddanekundi, Garudacharpalya, Bangalore Urban, Karnataka, 560037, India",
            "closest_to": "bangalore"
        },
        "thirthahalli taluk of shimoga": {
            "blogLinks": [
                "https://en.wikipedia.org/wiki/Thirthahalli"
            ],
            "locType": "trunk",
            "longitude": "75.1326104",
            "latitude": "13.5865156",
            "address": "Agumbe Road, Nalur, Tirthahalli taluk, Shimoga district, Karnataka, India",
            "closest_to": "thirthahalli"
        },
        "kundapur": {
            "blogLinks": [
                "http://travel.india.com/agumbe/"
            ],
            "locType": "school",
            "longitude": "74.6906749",
            "latitude": "13.6343509",
            "address": "United Basel mission church Higher Primary School, Kundapur, Chikkansal Road, Vaderahobali, Kundapura, \u0c95\u0cc1\u0c82\u0ca6\u0cbe\u0caa\u0cc1\u0cb0 \u0ca4\u0cbe\u0cb2\u0cc2\u0c95\u0cc1, Udupi district, Karnataka, 576200, India",
            "closest_to": "thirthahalli"
        },
        "jamalabad": {
            "blogLinks": [
                "https://www.thrillophilia.com/places-to-visit-near-mangalore"
            ],
            "locType": "attraction",
            "longitude": "75.2958407",
            "latitude": "13.0273698",
            "address": "Jamalabad Fort, NH73, Halepete, Beltangadi taluk, Dakshina Kannada, Karnataka, 574214, India",
            "closest_to": "thirthahalli"
        },
        "sowparnika": {
            "blogLinks": [
                "https://www.triphobo.com/blog/8-river-rafting-destinations-near-bangalore"
            ],
            "locType": "guest_house",
            "longitude": "74.8121600727933",
            "latitude": "13.86533575",
            "address": "Sowparnika Guest House, NH766C;SH26, Kollur, \u0c95\u0cc1\u0c82\u0ca6\u0cbe\u0caa\u0cc1\u0cb0 \u0ca4\u0cbe\u0cb2\u0cc2\u0c95\u0cc1, Udupi district, Karnataka, 576220, India",
            "closest_to": "thirthahalli"
        },
        "agumbe": {
            "blogLinks": [
                "https://www.triphobo.com/blog/8-river-rafting-destinations-near-bangalore"
            ],
            "locType": "village",
            "longitude": "75.0965525",
            "latitude": "13.5094998",
            "address": "Agumbe, Tirthahalli taluk, Shimoga district, Karnataka, 577411, India",
            "closest_to": "thirthahalli"
        },
        "tunga bridge": {
            "blogLinks": [
                "https://en.wikipedia.org/wiki/Thirthahalli"
            ],
            "locType": "trunk",
            "longitude": "75.2485174",
            "latitude": "13.6855315",
            "address": "Tunga Bridge, Kuruvalli, Tirthahalli, Tirthahalli taluk, Shimoga district, Karnataka, 577432, India",
            "closest_to": "thirthahalli"
        },
        "kalasa": {
            "blogLinks": [
                "https://www.thrillophilia.com/places-to-visit-near-mangalore"
            ],
            "locType": "town",
            "longitude": "75.3582366",
            "latitude": "13.2322235",
            "address": "Kalasa, Mudigere taluk, Chikkamagaluru district, Karnataka, 577124, India",
            "closest_to": "thirthahalli"
        },
        "sagar road": {
            "blogLinks": [
                "http://www.holidayiq.com/Shimoga-Sightseeing-748.html"
            ],
            "locType": "trunk",
            "longitude": "75.2002048",
            "latitude": "14.0904271",
            "address": "Sagar Road, Anandapura, Sagara taluk, Shimoga district, Karnataka, 577412, India",
            "closest_to": "thirthahalli"
        },
        "thirthahalli route": {
            "blogLinks": [
                "http://www.distancesfrom.com/in/travel-time-from-Bangalore-to-Thirthahalli/TravelTimeHistory/63611.aspx",
                "http://www.distancesfrom.com/in/travel-from-Bangalore-to-Thirthahalli/TravelFromHistory/63611.aspx"
            ],
            "locType": "trunk",
            "longitude": "74.9626368",
            "latitude": "13.4265327",
            "address": "Thirthahalli - Udupi Highway, Shivapura, Karkala taluk, Udupi district, Karnataka, India",
            "closest_to": "thirthahalli"
        },
        "guddekeri": {
            "blogLinks": [
                "http://www.team-bhp.com/forum/travelogues/143846-road-trip-bangalore-thirthahalli-sringeri-jog-falls-kodachadri.html"
            ],
            "locType": "village",
            "longitude": "75.1287897",
            "latitude": "13.5665892",
            "address": "Guddekeri, Tirthahalli taluk, Shimoga district, Karnataka, India",
            "closest_to": "thirthahalli"
        },
        "st. aloysius chapel": {
            "blogLinks": [
                "https://www.thrillophilia.com/places-to-visit-near-mangalore"
            ],
            "locType": "place_of_worship",
            "longitude": "74.8453615",
            "latitude": "12.8737995",
            "address": "St. Aloysius Chapel, St Aloysius Internal Road, Dongerkeri, Mallikatte, Mangaluru, Mangaluru taluk, Dakshina Kannada, Karnataka, 575001, India",
            "closest_to": "thirthahalli"
        },
        "u.s.": {
            "blogLinks": [
                "http://www.nivalink.com/destination/thirthahalli"
            ],
            "locType": "administrative",
            "longitude": "75.7223521",
            "latitude": "14.5203896",
            "address": "Karnataka, India",
            "closest_to": "thirthahalli"
        },
        "goa": {
            "blogLinks": [
                "https://www.triphobo.com/blog/8-river-rafting-destinations-near-bangalore",
                "https://www.tripoto.com/weekend-getaways/from-thirthahalli"
            ],
            "locType": "restaurant",
            "longitude": "77.6200027",
            "latitude": "12.9750047",
            "address": "Carnival De Goa, Bhaskaran Road, Gupta Layout, Halasuru, Bengaluru, Bangalore Urban, Karnataka, 560001, India",
            "closest_to": "bangalore"
        },
        "lal bagh": {
            "blogLinks": [
                "https://www.tripoto.com/weekend-getaways/from-thirthahalli"
            ],
            "locType": "bus_stop",
            "longitude": "74.8386152",
            "latitude": "12.8859223",
            "address": "Lal Bagh Bus Stop, Mahatma Gandhi Road, Lalbagh, Ladyhill, Mangaluru, Mangaluru taluk, Dakshina Kannada, Karnataka, 575001, India",
            "closest_to": "thirthahalli"
        },
        "shimoga road": {
            "blogLinks": [
                "https://en.wikipedia.org/wiki/Thirthahalli"
            ],
            "locType": "primary",
            "longitude": "75.8065185",
            "latitude": "14.5059004",
            "address": "Shimoga Road, Vidyanagar 'A' block, Harihara, Harihara taluku, Davanagere district, Karnataka, 577600, India",
            "closest_to": "thirthahalli"
        },
        "sita river": {
            "blogLinks": [
                "https://www.triphobo.com/blog/8-river-rafting-destinations-near-bangalore"
            ],
            "locType": "river",
            "longitude": "74.9348242",
            "latitude": "13.4787567",
            "address": "Sita, Karkala taluk, Udupi district, Karnataka, India",
            "closest_to": "thirthahalli"
        },
        "talaguppa": {
            "blogLinks": [
                "http://wikitravel.org/en/Shimoga"
            ],
            "locType": "town",
            "longitude": "74.911064",
            "latitude": "14.2148828",
            "address": "Talaguppa, Sagara taluk, Shimoga district, Karnataka, 577430, India",
            "closest_to": "thirthahalli"
        },
        "humcha": {
            "blogLinks": [
                "http://www.nivalink.com/destination/thirthahalli"
            ],
            "locType": "secondary",
            "longitude": "75.2098487",
            "latitude": "13.862013",
            "address": "Humcha Main Road, Huncha, Hosanagara taluk, Shimoga district, Karnataka, India",
            "closest_to": "thirthahalli"
        },
        "dharmasthala": {
            "blogLinks": [
                "https://www.thrillophilia.com/places-to-visit-near-mangalore"
            ],
            "locType": "village",
            "longitude": "75.3813122",
            "latitude": "12.9519571",
            "address": "Dharmasthala, Beltangadi taluk, Dakshina Kannada, Karnataka, 574216, India",
            "closest_to": "thirthahalli"
        },
        "river sharavathi": {
            "blogLinks": [
                "http://www.hoparoundindia.com/karnataka/city-guides/thirthahalli.aspx"
            ],
            "locType": "river",
            "longitude": "77.5476521",
            "latitude": "12.967526",
            "address": "Vrishabavathi, Bengaluru, Bangalore Urban, Karnataka, 560001, India",
            "closest_to": "thirthahalli"
        },
        "tunga river": {
            "blogLinks": [
                "https://en.wikipedia.org/wiki/Thirthahalli",
                "http://www.hoparoundindia.com/karnataka/city-guides/thirthahalli.aspx"
            ],
            "locType": "river",
            "longitude": "75.3221835",
            "latitude": "13.6632221",
            "address": "Tunga, Tirthahalli taluk, Shimoga district, Karnataka, India",
            "closest_to": "thirthahalli"
        },
        "kanakpura": {
            "blogLinks": [
                "https://www.tripigator.com/blog/photogenic-places-around-bangalore/"
            ],
            "locType": "yes",
            "longitude": "77.5438085908703",
            "latitude": "12.8866679",
            "address": "H 902, Mantri Tranquil, Gubbalala, Off Kanakpura Road, Bengaluru - 61, Subramanyapura Main Road, Singapore Gardens, Uttarahalli, Gubbalala, Bangalore Urban, Karnataka, 560086, India",
            "closest_to": "thirthahalli"
        },
        "bangalore": {
            "blogLinks": [
                "http://travel.india.com/agumbe/",
                "https://www.thrillophilia.com/places-to-visit-near-mangalore",
                "http://www.distancesfrom.com/in/travel-from-Bangalore-to-Thirthahalli/TravelFromHistory/63611.aspx",
                "http://www.distancesfrom.com/in/travel-time-from-Bangalore-to-Thirthahalli-via-Karnataka-573201/TravelTimeHistory/33582677.aspx",
                "http://www.distancesfrom.com/in/travel-time-from-Bangalore-to-Thirthahalli-via-Hassan/TravelTimeHistory/33582676.aspx",
                "http://wikitravel.org/en/Shimoga",
                "https://en.wikipedia.org/wiki/Thirthahalli",
                "https://www.tripoto.com/weekend-getaways/from-thirthahalli",
                "https://www.triphobo.com/blog/8-river-rafting-destinations-near-bangalore",
                "http://www.distancesfrom.com/in/travel-time-from-Bangalore-to-Thirthahalli/TravelTimeHistory/63611.aspx",
                "http://www.nivalink.com/destination/thirthahalli",
                "http://www.team-bhp.com/forum/travelogues/143846-road-trip-bangalore-thirthahalli-sringeri-jog-falls-kodachadri.html",
                "https://www.tripigator.com/blog/photogenic-places-around-bangalore/"
            ],
            "locType": "city",
            "longitude": "77.5912997",
            "latitude": "12.9791198",
            "address": "Bengaluru, Bangalore Urban, Karnataka, 560001, India",
            "closest_to": "thirthahalli"
        },
        "subramanya": {
            "blogLinks": [
                "https://www.thrillophilia.com/places-to-visit-near-mangalore"
            ],
            "locType": "commercial",
            "longitude": "77.6015800913134",
            "latitude": "12.9251206",
            "address": "Subramanya Arcade, Marenahalli, Bengaluru, Bangalore Urban, Karnataka, 560001, India",
            "closest_to": "bangalore"
        },
        "kundapura": {
            "blogLinks": [
                "http://www.nivalink.com/destination/thirthahalli"
            ],
            "locType": "town",
            "longitude": "74.6915722",
            "latitude": "13.6250993",
            "address": "Kundapura, \u0c95\u0cc1\u0c82\u0ca6\u0cbe\u0caa\u0cc1\u0cb0 \u0ca4\u0cbe\u0cb2\u0cc2\u0c95\u0cc1, Udupi district, Karnataka, 576200, India",
            "closest_to": "thirthahalli"
        },
        "tagore park": {
            "blogLinks": [
                "https://www.thrillophilia.com/places-to-visit-near-mangalore"
            ],
            "locType": "suburb",
            "longitude": "77.595715",
            "latitude": "13.0227204",
            "address": "Rabindranath Tagore Nagar, Bengaluru, Bangalore Urban, Karnataka, 560001, India",
            "closest_to": "thirthahalli"
        },
        "talguppa": {
            "blogLinks": [
                "http://wikitravel.org/en/Shimoga"
            ],
            "locType": "station",
            "longitude": "74.9144728",
            "latitude": "14.2140954",
            "address": "Talguppa, NH69, Kanle, Sagara taluk, Shimoga district, Karnataka, 577430, India",
            "closest_to": "thirthahalli"
        },
        "kannur": {
            "blogLinks": [
                "http://www.nivalink.com/destination/thirthahalli"
            ],
            "locType": "construction",
            "longitude": "74.8858161",
            "latitude": "12.8487602",
            "address": "Netravati bridge - Kannur Bypass Road (Proposed), Padil, Bajal, Mangaluru taluk, Dakshina Kannada, Karnataka, 575007, India",
            "closest_to": "thirthahalli"
        },
        "shankaranarayana": {
            "blogLinks": [
                "http://travel.india.com/agumbe/"
            ],
            "locType": "village",
            "longitude": "74.8600862",
            "latitude": "13.6058955",
            "address": "Shankaranarayana, \u0c95\u0cc1\u0c82\u0ca6\u0cbe\u0caa\u0cc1\u0cb0 \u0ca4\u0cbe\u0cb2\u0cc2\u0c95\u0cc1, Udupi district, Karnataka, 576227, India",
            "closest_to": "thirthahalli"
        },
        "river tunga": {
            "blogLinks": [
                "http://www.holidayiq.com/Shimoga-Sightseeing-748.html"
            ],
            "locType": "river",
            "longitude": "75.3221835",
            "latitude": "13.6632221",
            "address": "Tunga, Tirthahalli taluk, Shimoga district, Karnataka, India",
            "closest_to": "thirthahalli"
        },
        "valley": {
            "blogLinks": [
                "https://www.triphobo.com/blog/8-river-rafting-destinations-near-bangalore"
            ],
            "locType": "administrative",
            "longitude": "75.7223521",
            "latitude": "14.5203896",
            "address": "Karnataka, India",
            "closest_to": "thirthahalli"
        },
        "mogaveera": {
            "blogLinks": [
                "https://www.thrillophilia.com/places-to-visit-near-mangalore"
            ],
            "locType": "yes",
            "longitude": "74.8262750607477",
            "latitude": "13.45454075",
            "address": "Primary school, Mogaveera pete, Kokkarne Santekatte Road, Suralu, Udupi taluku, Udupi district, Karnataka, India",
            "closest_to": "thirthahalli"
        },
        "mangalore international airport": {
            "blogLinks": [
                "https://en.wikipedia.org/wiki/Thirthahalli"
            ],
            "locType": "aerodrome",
            "longitude": "74.887492668144",
            "latitude": "12.95518575",
            "address": "Mangalore International Airport, Airport Entry Road, Gandhinagar, Kenjar, Mangaluru taluk, Dakshina Kannada, Karnataka, 575015, India",
            "closest_to": "thirthahalli"
        },
        "garden city": {
            "blogLinks": [
                "https://www.tripoto.com/weekend-getaways/from-thirthahalli"
            ],
            "locType": "bank",
            "longitude": "80.2197941",
            "latitude": "13.0365141",
            "address": "Karnataka Bank, Postal Colony 2nd Street, Postal Colony, Ashok Nagar, Chennai City Corporation Limits, Chennai district, Tamil Nadu, 600033, India",
            "closest_to": "bangalore"
        },
        "keladi": {
            "blogLinks": [
                "http://wikitravel.org/en/Shimoga",
                "http://www.holidayiq.com/Shimoga-Sightseeing-748.html"
            ],
            "locType": "village",
            "longitude": "75.0165753",
            "latitude": "14.2214761",
            "address": "Keladi, Sagara taluk, Shimoga district, Karnataka, India",
            "closest_to": "thirthahalli"
        },
        "palani": {
            "blogLinks": [
                "https://www.tripoto.com/weekend-getaways/from-thirthahalli"
            ],
            "locType": "recycling",
            "longitude": "77.6168951",
            "latitude": "12.9537341",
            "address": "Palani, Neelasandra Bazaar Street, Austin Town BDA Layout, Neelasandra, Bengaluru, Bangalore Urban, Karnataka, 560001, India",
            "closest_to": "bangalore"
        },
        "mangalore airport": {
            "blogLinks": [
                "https://www.thrillophilia.com/places-to-visit-near-mangalore"
            ],
            "locType": "aerodrome",
            "longitude": "74.887492668144",
            "latitude": "12.95518575",
            "address": "Mangalore International Airport, Airport Entry Road, Gandhinagar, Kenjar, Mangaluru taluk, Dakshina Kannada, Karnataka, 575015, India",
            "closest_to": "thirthahalli"
        },
        "udipi": {
            "blogLinks": [
                "http://www.nivalink.com/destination/thirthahalli"
            ],
            "locType": "restaurant",
            "longitude": "77.652888",
            "latitude": "12.9530588",
            "address": "Udipi Park, 2nd Cross Road, Muniyappa Layout, Murugeshpalaya, Belure Ambedkar Nagar, Bangalore Urban, Karnataka, 560067, India",
            "closest_to": "bangalore"
        },
        "coimbatore": {
            "blogLinks": [
                "https://www.tripoto.com/weekend-getaways/from-thirthahalli"
            ],
            "locType": "trunk",
            "longitude": "76.6318246",
            "latitude": "11.6793976",
            "address": "Gundlupet - Coimbatore Highway, Bandipur, Gundlupet taluk, Chamarajanagar district, Karnataka, India",
            "closest_to": "thirthahalli"
        },
        "gomateshwara": {
            "blogLinks": [
                "https://www.thrillophilia.com/places-to-visit-near-mangalore"
            ],
            "locType": "place_of_worship",
            "longitude": "76.4846128",
            "latitude": "12.8540505",
            "address": "Bahubali Statue, SH8, Shravanabelagola, Channarayapattana taluk, Hassan district, Karnataka, 573135, India",
            "closest_to": "thirthahalli"
        },
        "ulsoor": {
            "blogLinks": [
                "https://www.tripigator.com/blog/photogenic-places-around-bangalore/"
            ],
            "locType": "suburb",
            "longitude": "77.6246697",
            "latitude": "12.9778793",
            "address": "Halasuru, Bengaluru, Bangalore Urban, Karnataka, 560001, India",
            "closest_to": "bangalore"
        },
        "kavaledurga": {
            "blogLinks": [
                "https://en.wikipedia.org/wiki/Thirthahalli"
            ],
            "locType": "village",
            "longitude": "75.1269652",
            "latitude": "13.7177176",
            "address": "Kavaledurga, Tirthahalli taluk, Shimoga district, Karnataka, India",
            "closest_to": "thirthahalli"
        },
        "sorab": {
            "blogLinks": [
                "http://www.holidayiq.com/Shimoga-Sightseeing-748.html"
            ],
            "locType": "secondary",
            "longitude": "75.1114212",
            "latitude": "14.2779168",
            "address": "Sorab Ulavi Rd, Ulavi, Soraba taluk, Shimoga district, Karnataka, 577434, India",
            "closest_to": "thirthahalli"
        },
        "karkala": {
            "blogLinks": [
                "https://www.thrillophilia.com/places-to-visit-near-mangalore"
            ],
            "locType": "town",
            "longitude": "74.9959586",
            "latitude": "13.2112826",
            "address": "Karkala, Karkala taluk, Udupi district, Karnataka, 574104, India",
            "closest_to": "thirthahalli"
        },
        "hubli": {
            "blogLinks": [
                "http://www.nivalink.com/destination/thirthahalli"
            ],
            "locType": "city",
            "longitude": "75.1379848",
            "latitude": "15.3518378",
            "address": "Hubballi - \u0cb9\u0cc1\u0cac\u0ccd\u0cac\u0cb3\u0ccd\u0cb3\u0cbf, Hubballi taluku, Dharwad district, Karnataka, 580020, India",
            "closest_to": "thirthahalli"
        },
        "moodabidri": {
            "blogLinks": [
                "https://www.thrillophilia.com/places-to-visit-near-mangalore"
            ],
            "locType": "town",
            "longitude": "74.9977469",
            "latitude": "13.0699218",
            "address": "Moodabidri, Mangaluru taluk, Dakshina Kannada, Karnataka, 574227, India",
            "closest_to": "thirthahalli"
        },
        "lakya dam": {
            "blogLinks": [
                "https://www.thrillophilia.com/places-to-visit-near-mangalore"
            ],
            "locType": "dam",
            "longitude": "75.2271128",
            "latitude": "13.2189611",
            "address": "Lakya Dam, Mudigere taluk, Chikkamagaluru district, Karnataka, India",
            "closest_to": "thirthahalli"
        },
        "kerala": {
            "blogLinks": [
                "https://www.triphobo.com/blog/8-river-rafting-destinations-near-bangalore"
            ],
            "locType": "restaurant",
            "longitude": "77.6382683",
            "latitude": "12.9726449",
            "address": "New Life Kerala Mess, Sai Baba Mandira Road, Mottappanapalaya, Indiranagar, Bengaluru, Bangalore Urban, Karnataka, 560001, India",
            "closest_to": "bangalore"
        },
        "kali river": {
            "blogLinks": [
                "https://www.triphobo.com/blog/8-river-rafting-destinations-near-bangalore"
            ],
            "locType": "river",
            "longitude": "74.5802901",
            "latitude": "15.0145378",
            "address": "Kali, Joida taluk, Uttara Kannada, Karnataka, India",
            "closest_to": "thirthahalli"
        },
        "brahmagiri": {
            "blogLinks": [
                "https://www.triphobo.com/blog/8-river-rafting-destinations-near-bangalore"
            ],
            "locType": "peak",
            "longitude": "75.490746",
            "latitude": "12.3868578",
            "address": "Brahmagiri, Madikeri taluku, Kodagu, Karnataka, India",
            "closest_to": "thirthahalli"
        },
        "malpe": {
            "blogLinks": [
                "https://www.thrillophilia.com/places-to-visit-near-mangalore"
            ],
            "locType": "village",
            "longitude": "74.7036914",
            "latitude": "13.3507423",
            "address": "Malpe, Udupi taluku, Udupi district, Karnataka, India",
            "closest_to": "thirthahalli"
        },
        "india": {
            "blogLinks": [
                "http://travel.india.com/agumbe/",
                "https://www.thrillophilia.com/places-to-visit-near-mangalore",
                "http://www.distancesfrom.com/in/travel-from-Bangalore-to-Thirthahalli/TravelFromHistory/63611.aspx",
                "http://www.distancesfrom.com/in/travel-time-from-Bangalore-to-Thirthahalli-via-Karnataka-573201/TravelTimeHistory/33582677.aspx",
                "http://www.distancesfrom.com/in/travel-time-from-Bangalore-to-Thirthahalli-via-Hassan/TravelTimeHistory/33582676.aspx",
                "http://wikitravel.org/en/Shimoga",
                "https://en.wikipedia.org/wiki/Thirthahalli",
                "https://www.tripoto.com/weekend-getaways/from-thirthahalli",
                "http://www.distancesfrom.com/in/travel-time-from-Bangalore-to-Thirthahalli/TravelTimeHistory/63611.aspx",
                "http://www.holidayiq.com/Shimoga-Sightseeing-748.html"
            ],
            "locType": "administrative",
            "longitude": "75.7223521",
            "latitude": "14.5203896",
            "address": "Karnataka, India",
            "closest_to": "thirthahalli"
        },
        "panaji": {
            "blogLinks": [
                "https://www.tripoto.com/weekend-getaways/from-thirthahalli"
            ],
            "locType": "trunk",
            "longitude": "74.4876784",
            "latitude": "15.4422981",
            "address": "Belgaum - Panaji Highway, Londa, Khanapura taluku, Belgaum district, Karnataka, India",
            "closest_to": "thirthahalli"
        },
        "malnad": {
            "blogLinks": [
                "http://www.nivalink.com/destination/thirthahalli"
            ],
            "locType": "hospital",
            "longitude": "75.7715495",
            "latitude": "13.3160351",
            "address": "Malnad Hospital, Mudigere-Kadur Road, Chikkamagaluru, Chikkamagaluru taluku, Chikkamagaluru district, Karnataka, 577101, India",
            "closest_to": "thirthahalli"
        },
        "national park": {
            "blogLinks": [
                "https://www.thrillophilia.com/places-to-visit-near-mangalore"
            ],
            "locType": "national_park",
            "longitude": "77.5722783830694",
            "latitude": "12.77900335",
            "address": "Bannerghatta National Park, Anekal Road, Begihalli, Bangalore Urban, Karnataka, 560076, India",
            "closest_to": "bangalore"
        },
        "bhagavathi": {
            "blogLinks": [
                "https://www.thrillophilia.com/places-to-visit-near-mangalore"
            ],
            "locType": "tertiary",
            "longitude": "74.8372435",
            "latitude": "12.8788638",
            "address": "Bhagavathi Nagar, 2nd Main Rd, Dongerkeri, Kudroli, Mangaluru, Mangaluru taluk, Dakshina Kannada, Karnataka, 575001, India",
            "closest_to": "thirthahalli"
        },
        "gurupura river": {
            "blogLinks": [
                "https://www.thrillophilia.com/places-to-visit-near-mangalore"
            ],
            "locType": "river",
            "longitude": "75.0304308",
            "latitude": "13.005679",
            "address": "Gurupura - Phalguni, Bantwal taluk, Dakshina Kannada, Karnataka, India",
            "closest_to": "thirthahalli"
        },
        "japanese garden": {
            "blogLinks": [
                "https://www.tripoto.com/weekend-getaways/from-thirthahalli"
            ],
            "locType": "restaurant",
            "longitude": "77.6055915",
            "latitude": "12.9655328",
            "address": "Hae Kum Gang (Korean/Japanese), 20, Castle Street, Shantala Nagar, Ashok Nagar, Bengaluru, Bangalore Urban, Karnataka, 560001, India",
            "closest_to": "bangalore"
        },
        "sharavathi": {
            "blogLinks": [
                "http://wikitravel.org/en/Shimoga"
            ],
            "locType": "yes",
            "longitude": "77.6216184337102",
            "latitude": "12.9464709",
            "address": "Sharavathi Block, National Games Village Road, Ambedkar Nagar, Ejipura, Bengaluru, Bangalore Urban, Karnataka, 560001, India",
            "closest_to": "bangalore"
        },
        "kuppalli": {
            "blogLinks": [
                "https://en.wikipedia.org/wiki/Thirthahalli"
            ],
            "locType": "village",
            "longitude": "75.3161341",
            "latitude": "13.5981399",
            "address": "Kuppalli, Tirthahalli taluk, Shimoga district, Karnataka, India",
            "closest_to": "thirthahalli"
        },
        "bahubali": {
            "blogLinks": [
                "https://www.thrillophilia.com/places-to-visit-near-mangalore"
            ],
            "locType": "place_of_worship",
            "longitude": "76.4846128",
            "latitude": "12.8540505",
            "address": "Bahubali Statue, SH8, Shravanabelagola, Channarayapattana taluk, Hassan district, Karnataka, 573135, India",
            "closest_to": "thirthahalli"
        },
        "udupi": {
            "blogLinks": [
                "https://www.thrillophilia.com/places-to-visit-near-mangalore",
                "http://www.hoparoundindia.com/karnataka/city-guides/thirthahalli.aspx"
            ],
            "locType": "city",
            "longitude": "74.7473232",
            "latitude": "13.3419169",
            "address": "Udupi, Udupi taluku, Udupi district, Karnataka, 576101, India",
            "closest_to": "thirthahalli"
        },
        "kabini": {
            "blogLinks": [
                "https://www.triphobo.com/blog/8-river-rafting-destinations-near-bangalore"
            ],
            "locType": "river",
            "longitude": "76.4152088",
            "latitude": "12.0140065",
            "address": "Kabini, Heggadadevanakote taluk, Mysuru district, Karnataka, India",
            "closest_to": "thirthahalli"
        },
        "belagutti": {
            "blogLinks": [
                "https://en.wikipedia.org/wiki/Thirthahalli"
            ],
            "locType": "village",
            "longitude": "75.5197968",
            "latitude": "14.1891174",
            "address": "Belagutti, Honnali taluku, Davanagere district, Karnataka, India",
            "closest_to": "thirthahalli"
        },
        "dakshina kannada": {
            "blogLinks": [
                "https://www.thrillophilia.com/places-to-visit-near-mangalore"
            ],
            "locType": "administrative",
            "longitude": "75.1008028650794",
            "latitude": "12.8114089",
            "address": "Dakshina Kannada, Karnataka, India",
            "closest_to": "thirthahalli"
        },
        "mangaladevi": {
            "blogLinks": [
                "https://www.thrillophilia.com/places-to-visit-near-mangalore"
            ],
            "locType": "place_of_worship",
            "longitude": "74.8452646984836",
            "latitude": "12.84923455",
            "address": "Shri Mangaladevi Temple, Mangala Devi Temple Road, Mulihitlu, Bolar, Mangaluru, Mangaluru taluk, Dakshina Kannada, Karnataka, 575001, India",
            "closest_to": "thirthahalli"
        },
        "thirthahalli road": {
            "blogLinks": [
                "http://wikitravel.org/en/Shimoga"
            ],
            "locType": "trunk",
            "longitude": "74.7829657",
            "latitude": "13.3476314",
            "address": "Malpe - Manipal Road, Indrali, Manipal, Udupi taluku, Udupi district, Karnataka, 576 104, India",
            "closest_to": "thirthahalli"
        },
        "river phalguni": {
            "blogLinks": [
                "https://www.thrillophilia.com/places-to-visit-near-mangalore"
            ],
            "locType": "river",
            "longitude": "75.0304308",
            "latitude": "13.005679",
            "address": "Gurupura - Phalguni, Bantwal taluk, Dakshina Kannada, Karnataka, India",
            "closest_to": "thirthahalli"
        },
        "nagara": {
            "blogLinks": [
                "http://wikitravel.org/en/Shimoga"
            ],
            "locType": "village",
            "longitude": "75.0328554",
            "latitude": "13.8236828",
            "address": "Nagara, Hosanagara taluk, Shimoga district, Karnataka, India",
            "closest_to": "thirthahalli"
        },
        "siddarabetta": {
            "blogLinks": [
                "https://www.tripigator.com/blog/photogenic-places-around-bangalore/"
            ],
            "locType": "peak",
            "longitude": "77.1311593",
            "latitude": "13.5530647",
            "address": "Siddarabetta, Koratagere taluku, Tumkur district, Karnataka, India",
            "closest_to": "thirthahalli"
        },
        "harakere": {
            "blogLinks": [
                "http://wikitravel.org/en/Shimoga"
            ],
            "locType": "village",
            "longitude": "75.5619307",
            "latitude": "13.9014234",
            "address": "Harakere, Shivamogga taluku, Shimoga district, Karnataka, India",
            "closest_to": "thirthahalli"
        },
        "mangalore railway station": {
            "blogLinks": [
                "https://www.thrillophilia.com/places-to-visit-near-mangalore"
            ],
            "locType": "travel_agent",
            "longitude": "74.8680725",
            "latitude": "12.9519663",
            "address": "Hotels in Mangalore Near Railway Station  (Reiseb\u00fcro ), SH67, Gandhinagar, Kenjar, Mangaluru taluk, Dakshina Kannada, Karnataka, 575015, India",
            "closest_to": "thirthahalli"
        },
        "east bangalore": {
            "blogLinks": [
                "https://www.tripigator.com/blog/photogenic-places-around-bangalore/"
            ],
            "locType": "restaurant",
            "longitude": "77.6601401",
            "latitude": "12.8504319",
            "address": "East, 43, Velankani Drive, Electronics City Phase 1, Doddathoguru, Bangalore Urban, Karnataka, 560100, India",
            "closest_to": "bangalore"
        },
        "varadahalli": {
            "blogLinks": [
                "http://wikitravel.org/en/Shimoga"
            ],
            "locType": "village",
            "longitude": "75.3323142",
            "latitude": "14.8568018",
            "address": "Varadahalli, Haveri taluku, Haveri district, Karnataka, India",
            "closest_to": "thirthahalli"
        },
        "chandramouleshwara": {
            "blogLinks": [
                "https://www.thrillophilia.com/places-to-visit-near-mangalore"
            ],
            "locType": "place_of_worship",
            "longitude": "74.8024264",
            "latitude": "13.0636768",
            "address": "Chandramouleshwara Temple, Edapally - Panvel Highway, Kolnad, Karnad, Padu Panambur, Mangaluru taluk, Dakshina Kannada, Karnataka, 575025, India",
            "closest_to": "thirthahalli"
        },
        "nittur": {
            "blogLinks": [
                "http://wikitravel.org/en/Shimoga"
            ],
            "locType": "tertiary",
            "longitude": "75.7595937",
            "latitude": "14.3579814",
            "address": "Malebennur Nittur Road, Nitturu, Harihara taluku, Davanagere district, Karnataka, 577530, India",
            "closest_to": "thirthahalli"
        },
        "tamil nadu": {
            "blogLinks": [
                "https://www.tripoto.com/weekend-getaways/from-thirthahalli"
            ],
            "locType": "bank",
            "longitude": "76.9514152",
            "latitude": "11.0025894",
            "address": "KARNATAKA BANK, Diwan Bhadur Road, Five Corner, RS Puram, Coimbatore, Coimbatore district, Tamil Nadu, 641001, India",
            "closest_to": "bangalore"
        },
        "sagara taluk": {
            "blogLinks": [
                "http://wikitravel.org/en/Shimoga"
            ],
            "locType": "administrative",
            "longitude": "74.9610874491152",
            "latitude": "14.09993045",
            "address": "Sagara taluk, Shimoga district, Karnataka, India",
            "closest_to": "thirthahalli"
        },
        "sringeri": {
            "blogLinks": [
                "http://www.nivalink.com/destination/thirthahalli"
            ],
            "locType": "town",
            "longitude": "75.2553718",
            "latitude": "13.4261724",
            "address": "Sringeri, Sringeri taluku, Chikkamagaluru district, Karnataka, 577592, India",
            "closest_to": "thirthahalli"
        },
        "kaimara": {
            "blogLinks": [
                "https://en.wikipedia.org/wiki/Thirthahalli"
            ],
            "locType": "village",
            "longitude": "75.7448654",
            "latitude": "13.3713857",
            "address": "Kaimara, Chikkamagaluru taluku, Chikkamagaluru district, Karnataka, India",
            "closest_to": "thirthahalli"
        },
        "north kerala": {
            "blogLinks": [
                "http://www.nivalink.com/destination/thirthahalli"
            ],
            "locType": "restaurant",
            "longitude": "77.6382683",
            "latitude": "12.9726449",
            "address": "New Life Kerala Mess, Sai Baba Mandira Road, Mottappanapalaya, Indiranagar, Bengaluru, Bangalore Urban, Karnataka, 560001, India",
            "closest_to": "bangalore"
        },
        "kumaradhara river": {
            "blogLinks": [
                "https://www.thrillophilia.com/places-to-visit-near-mangalore"
            ],
            "locType": "river",
            "longitude": "75.4390597",
            "latitude": "12.7370168",
            "address": "Kumaradhara, Putturu taluk, Dakshina Kannada, Karnataka, India",
            "closest_to": "thirthahalli"
        },
        "belvai": {
            "blogLinks": [
                "https://www.thrillophilia.com/places-to-visit-near-mangalore"
            ],
            "locType": "village",
            "longitude": "74.9961914",
            "latitude": "13.1281264",
            "address": "Belvai, Mangaluru taluk, Dakshina Kannada, Karnataka, India",
            "closest_to": "thirthahalli"
        },
        "manjunatha temple": {
            "blogLinks": [
                "https://www.thrillophilia.com/places-to-visit-near-mangalore"
            ],
            "locType": "place_of_worship",
            "longitude": "77.5640116772773",
            "latitude": "12.9211928",
            "address": "Devagiri Manjunatha Swamy Temple, 30th Cross, Jayanagar 8th Block, Banashankari 2nd Stage, Bengaluru, Bangalore Urban, Karnataka, 560001, India",
            "closest_to": "thirthahalli"
        },
        "jamalabad fort": {
            "blogLinks": [
                "https://www.thrillophilia.com/places-to-visit-near-mangalore"
            ],
            "locType": "attraction",
            "longitude": "75.2958407",
            "latitude": "13.0273698",
            "address": "Jamalabad Fort, NH73, Halepete, Beltangadi taluk, Dakshina Kannada, Karnataka, 574214, India",
            "closest_to": "thirthahalli"
        },
        "davangere": {
            "blogLinks": [
                "https://www.triphobo.com/blog/8-river-rafting-destinations-near-bangalore"
            ],
            "locType": "commercial",
            "longitude": "75.9197507909343",
            "latitude": "14.4664457",
            "address": "Davangere City Corporation Offices, K.B. Extension, Davanagere, Davanagere taluku, Davanagere district, Karnataka, 577000, India",
            "closest_to": "thirthahalli"
        },
        "sagar": {
            "blogLinks": [
                "http://wikitravel.org/en/Shimoga"
            ],
            "locType": "town",
            "longitude": "75.0262551",
            "latitude": "14.1666594",
            "address": "Sagara, Sagara taluk, Shimoga district, Karnataka, 577400, India",
            "closest_to": "thirthahalli"
        },
        "mandagadde": {
            "blogLinks": [
                "http://www.hoparoundindia.com/karnataka/city-guides/thirthahalli.aspx"
            ],
            "locType": "village",
            "longitude": "75.4558942",
            "latitude": "13.742552",
            "address": "Mandagadde, Tirthahalli taluk, Shimoga district, Karnataka, India",
            "closest_to": "thirthahalli"
        },
        "punjab": {
            "blogLinks": [
                "https://www.triphobo.com/blog/8-river-rafting-destinations-near-bangalore"
            ],
            "locType": "restaurant",
            "longitude": "77.6607309",
            "latitude": "12.9937763",
            "address": "Punjab, Swamy Vivekananda Road, Darga Mohalla, Udaya Nagar, Benniganahalli, Bangalore Urban, Karnataka, 560016, India",
            "closest_to": "bangalore"
        },
        "kudremukh": {
            "blogLinks": [
                "https://www.thrillophilia.com/places-to-visit-near-mangalore"
            ],
            "locType": "village",
            "longitude": "75.2523304",
            "latitude": "13.2144007",
            "address": "Kudremukha, Mudigere taluk, Chikkamagaluru district, Karnataka, India",
            "closest_to": "thirthahalli"
        },
        "ananthapadmanabha temple": {
            "blogLinks": [
                "https://www.thrillophilia.com/places-to-visit-near-mangalore"
            ],
            "locType": "place_of_worship",
            "longitude": "74.8937899082456",
            "latitude": "12.9039019",
            "address": "Kudupu Ananthapadmanabha Temple, Solapur-Mangalore Highway, Shakthinagar, Kulashekara, Kudupu, Mangaluru taluk, Dakshina Kannada, Karnataka, 575007, India",
            "closest_to": "thirthahalli"
        },
        "jog falls": {
            "blogLinks": [
                "http://www.holidayiq.com/Shimoga-Sightseeing-748.html"
            ],
            "locType": "locality",
            "longitude": "74.8128715",
            "latitude": "14.2276106",
            "address": "Jog Falls, Joga - Kargal, Sagara taluk, Shimoga district, Karnataka, India",
            "closest_to": "thirthahalli"
        },
        "north udupi": {
            "blogLinks": [
                "https://en.wikipedia.org/wiki/Thirthahalli"
            ],
            "locType": "city",
            "longitude": "74.7473232",
            "latitude": "13.3419169",
            "address": "Udupi, Udupi taluku, Udupi district, Karnataka, 576101, India",
            "closest_to": "thirthahalli"
        },
        "mastikatte": {
            "blogLinks": [
                "https://en.wikipedia.org/wiki/Thirthahalli"
            ],
            "locType": "village",
            "longitude": "74.4604101",
            "latitude": "14.6857168",
            "address": "Mastikatte, Ankola taluk, Uttara Kannada, Karnataka, India",
            "closest_to": "thirthahalli"
        },
        "west": {
            "blogLinks": [
                "https://www.thrillophilia.com/places-to-visit-near-mangalore"
            ],
            "locType": "clothes",
            "longitude": "77.5960999",
            "latitude": "12.8759384",
            "address": "w, Balmuri Main Road, Hulimavu,, Bannerghatta Road, Mico Arekere Layout 1st Stage, Hulimavu, Bengaluru, Bangalore Urban, Karnataka, 560076, India",
            "closest_to": "bangalore"
        },
        "north goa": {
            "blogLinks": [
                "https://www.tripoto.com/weekend-getaways/from-thirthahalli"
            ],
            "locType": "restaurant",
            "longitude": "77.6200027",
            "latitude": "12.9750047",
            "address": "Carnival De Goa, Bhaskaran Road, Gupta Layout, Halasuru, Bengaluru, Bangalore Urban, Karnataka, 560001, India",
            "closest_to": "bangalore"
        },
        "agumbe road": {
            "blogLinks": [
                "https://en.wikipedia.org/wiki/Thirthahalli"
            ],
            "locType": "trunk",
            "longitude": "75.2422204",
            "latitude": "13.6914356",
            "address": "Agumbe Road, Soppugudde, Tirthahalli, Tirthahalli taluk, Shimoga district, Karnataka, 577432, India",
            "closest_to": "thirthahalli"
        },
        "cauvery": {
            "blogLinks": [
                "https://www.triphobo.com/blog/8-river-rafting-destinations-near-bangalore"
            ],
            "locType": "cinema",
            "longitude": "77.5832796015599",
            "latitude": "13.00262215",
            "address": "Cauvery, 1st Main Road, Lower Palace Orchard, Guttahalli, Bengaluru, Bangalore Urban, Karnataka, 560001, India",
            "closest_to": "thirthahalli"
        },
        "dakshin kannada": {
            "blogLinks": [
                "https://www.thrillophilia.com/places-to-visit-near-mangalore"
            ],
            "locType": "restaurant",
            "longitude": "75.0309089",
            "latitude": "12.8827367",
            "address": "Dakshin Court, NH73, Kaikunje, Bantwal Cross Road, Bantwal taluk, Dakshina Kannada, Karnataka, India",
            "closest_to": "thirthahalli"
        },
        "kollur": {
            "blogLinks": [
                "http://wikitravel.org/en/Shimoga",
                "http://www.team-bhp.com/forum/travelogues/143846-road-trip-bangalore-thirthahalli-sringeri-jog-falls-kodachadri.html"
            ],
            "locType": "village",
            "longitude": "74.8137959",
            "latitude": "13.8634049",
            "address": "Kollur, \u0c95\u0cc1\u0c82\u0ca6\u0cbe\u0caa\u0cc1\u0cb0 \u0ca4\u0cbe\u0cb2\u0cc2\u0c95\u0cc1, Udupi district, Karnataka, 576220, India",
            "closest_to": "thirthahalli"
        },
        "shivalli": {
            "blogLinks": [
                "https://www.thrillophilia.com/places-to-visit-near-mangalore"
            ],
            "locType": "village",
            "longitude": "76.8226719",
            "latitude": "12.5863355",
            "address": "Shivalli, Mandya taluk, Mandya district, Karnataka, India",
            "closest_to": "thirthahalli"
        },
        "shravanabelagola": {
            "blogLinks": [
                "https://www.thrillophilia.com/places-to-visit-near-mangalore"
            ],
            "locType": "town",
            "longitude": "76.4869997",
            "latitude": "12.8581305",
            "address": "Shravanabelagola, Channarayapattana taluk, Hassan district, Karnataka, 573135, India",
            "closest_to": "thirthahalli"
        },
        "margao": {
            "blogLinks": [
                "https://www.tripoto.com/weekend-getaways/from-thirthahalli"
            ],
            "locType": "bank",
            "longitude": "73.9583411",
            "latitude": "15.2740083",
            "address": "Karnataka bank, NH66, Aquem, Fatorda, Margao, South Goa, Goa, 403600, India",
            "closest_to": "thirthahalli"
        },
        "sagar taluk": {
            "blogLinks": [
                "http://wikitravel.org/en/Shimoga"
            ],
            "locType": "town",
            "longitude": "75.0262551",
            "latitude": "14.1666594",
            "address": "Sagara, Sagara taluk, Shimoga district, Karnataka, 577400, India",
            "closest_to": "thirthahalli"
        },
        "calcutta": {
            "blogLinks": [
                "https://www.tripigator.com/blog/photogenic-places-around-bangalore/"
            ],
            "locType": "restaurant",
            "longitude": "77.6031547",
            "latitude": "12.9753406",
            "address": "Oh! Calcutta, Church Street, Tasker Town, Ashok Nagar, Bengaluru, Bangalore Urban, Karnataka, 560001, India",
            "closest_to": "bangalore"
        },
        "mangalore city": {
            "blogLinks": [
                "https://www.thrillophilia.com/places-to-visit-near-mangalore"
            ],
            "locType": "city",
            "longitude": "74.8430082",
            "latitude": "12.8698101",
            "address": "Mangaluru, Mangaluru taluk, Dakshina Kannada, Karnataka, 575001, India",
            "closest_to": "thirthahalli"
        },
        "madurai": {
            "blogLinks": [
                "https://www.tripoto.com/weekend-getaways/from-thirthahalli"
            ],
            "locType": "restaurant",
            "longitude": "77.6320535",
            "latitude": "12.9185419",
            "address": "Madurai Idly Shop, 5th Main Road, Teachers Colony, HSR Layout, Bengaluru, Bangalore Urban, Karnataka, 560001, India",
            "closest_to": "bangalore"
        },
        "kodachadri": {
            "blogLinks": [
                "http://www.team-bhp.com/forum/travelogues/143846-road-trip-bangalore-thirthahalli-sringeri-jog-falls-kodachadri.html"
            ],
            "locType": "peak",
            "longitude": "74.8705395",
            "latitude": "13.8565758",
            "address": "Kodachadri, \u0c95\u0cc1\u0c82\u0ca6\u0cbe\u0caa\u0cc1\u0cb0 \u0ca4\u0cbe\u0cb2\u0cc2\u0c95\u0cc1, Udupi district, Karnataka, India",
            "closest_to": "thirthahalli"
        },
        "karnataka state": {
            "blogLinks": [
                "http://wikitravel.org/en/Shimoga"
            ],
            "locType": "university",
            "longitude": "76.6236231",
            "latitude": "12.315382",
            "address": "Karnataka State Open University, \u0cb9\u0cc1\u0ca3\u0cb8\u0cc2\u0cb0\u0cc1 \u0cb0\u0cb8\u0ccd\u0ca4\u0cc6, Gokulam, Mysuru, Mysuru taluk, Mysuru district, Karnataka, 570001, India",
            "closest_to": "thirthahalli"
        },
        "old bangalore": {
            "blogLinks": [
                "https://www.tripigator.com/blog/photogenic-places-around-bangalore/"
            ],
            "locType": "city",
            "longitude": "77.5912997",
            "latitude": "12.9791198",
            "address": "Bengaluru, Bangalore Urban, Karnataka, 560001, India",
            "closest_to": "thirthahalli"
        },
        "karnataka": {
            "blogLinks": [
                "http://travel.india.com/agumbe/",
                "https://www.thrillophilia.com/places-to-visit-near-mangalore",
                "http://www.distancesfrom.com/in/travel-from-Bangalore-to-Thirthahalli/TravelFromHistory/63611.aspx",
                "http://www.distancesfrom.com/in/travel-time-from-Bangalore-to-Thirthahalli-via-Karnataka-573201/TravelTimeHistory/33582677.aspx",
                "http://www.distancesfrom.com/in/travel-time-from-Bangalore-to-Thirthahalli-via-Hassan/TravelTimeHistory/33582676.aspx",
                "http://wikitravel.org/en/Shimoga",
                "https://en.wikipedia.org/wiki/Thirthahalli",
                "https://www.tripoto.com/weekend-getaways/from-thirthahalli",
                "https://www.triphobo.com/blog/8-river-rafting-destinations-near-bangalore",
                "http://www.distancesfrom.com/in/travel-time-from-Bangalore-to-Thirthahalli/TravelTimeHistory/63611.aspx",
                "http://www.hoparoundindia.com/karnataka/city-guides/thirthahalli.aspx",
                "http://www.nivalink.com/destination/thirthahalli",
                "http://www.team-bhp.com/forum/travelogues/143846-road-trip-bangalore-thirthahalli-sringeri-jog-falls-kodachadri.html"
            ],
            "locType": "atm",
            "longitude": "76.6639936",
            "latitude": "12.3084901",
            "address": "Karnataka, Shalivahana Road, Nazarbad, Mysuru, Mysuru taluk, Mysuru district, Karnataka, 570001, India",
            "closest_to": "thirthahalli"
        },
        "chikmagalur": {
            "blogLinks": [
                "https://www.thrillophilia.com/places-to-visit-near-mangalore"
            ],
            "locType": "county",
            "longitude": "75.5",
            "latitude": "13.5",
            "address": "Chikmagalur, Chikkamagaluru district, Karnataka, India",
            "closest_to": "thirthahalli"
        },
        "mangalore": {
            "blogLinks": [
                "http://wikitravel.org/en/Shimoga",
                "https://www.thrillophilia.com/places-to-visit-near-mangalore"
            ],
            "locType": "city",
            "longitude": "74.8430082",
            "latitude": "12.8698101",
            "address": "Mangaluru, Mangaluru taluk, Dakshina Kannada, Karnataka, 575001, India",
            "closest_to": "thirthahalli"
        },
        "gayatri mandira": {
            "blogLinks": [
                "https://www.thrillophilia.com/places-to-visit-near-mangalore"
            ],
            "locType": "recreation_ground",
            "longitude": "75.3634166",
            "latitude": "13.5297078",
            "address": "Gayatri Mandira Play ground, Thyagaraja Road, Somlapura, Koppa taluk, Chikkamagaluru district, Karnataka, 577126, India",
            "closest_to": "thirthahalli"
        },
        "kadri": {
            "blogLinks": [
                "https://www.thrillophilia.com/places-to-visit-near-mangalore"
            ],
            "locType": "suburb",
            "longitude": "74.8501424",
            "latitude": "12.8897288",
            "address": "Kadri, Mangaluru, Mangaluru taluk, Dakshina Kannada, Karnataka, 575001, India",
            "closest_to": "thirthahalli"
        },
        "venur": {
            "blogLinks": [
                "https://www.thrillophilia.com/places-to-visit-near-mangalore"
            ],
            "locType": "village",
            "longitude": "75.1443252",
            "latitude": "13.0122097",
            "address": "Venoor, Beltangadi taluk, Dakshina Kannada, Karnataka, 574242, India",
            "closest_to": "thirthahalli"
        },
        "sharavathi valley": {
            "blogLinks": [
                "https://www.triphobo.com/blog/8-river-rafting-destinations-near-bangalore"
            ],
            "locType": "yes",
            "longitude": "77.6216184337102",
            "latitude": "12.9464709",
            "address": "Sharavathi Block, National Games Village Road, Ambedkar Nagar, Ejipura, Bengaluru, Bangalore Urban, Karnataka, 560001, India",
            "closest_to": "bangalore"
        },
        "sagara": {
            "blogLinks": [
                "http://www.holidayiq.com/Shimoga-Sightseeing-748.html"
            ],
            "locType": "town",
            "longitude": "75.0262551",
            "latitude": "14.1666594",
            "address": "Sagara, Sagara taluk, Shimoga district, Karnataka, 577400, India",
            "closest_to": "thirthahalli"
        },
        "tirthahalli": {
            "blogLinks": [
                "http://www.nivalink.com/destination/thirthahalli"
            ],
            "locType": "town",
            "longitude": "75.2463699",
            "latitude": "13.6901992",
            "address": "Tirthahalli, Tirthahalli taluk, Shimoga district, Karnataka, 577432, India",
            "closest_to": "thirthahalli"
        },
        "rameshwara temple": {
            "blogLinks": [
                "http://www.hoparoundindia.com/karnataka/city-guides/thirthahalli.aspx"
            ],
            "locType": "place_of_worship",
            "longitude": "77.5678621969321",
            "latitude": "12.99365815",
            "address": "Rameshwara Temple, Kranthikavi Sarvagnya Road, Rajajinagar 4th Block, Sriramapura, Bengaluru, Bangalore Urban, Karnataka, 560001, India",
            "closest_to": "thirthahalli"
        },
        "malpe beach": {
            "blogLinks": [
                "https://www.thrillophilia.com/places-to-visit-near-mangalore"
            ],
            "locType": "marina",
            "longitude": "74.6977767",
            "latitude": "13.3610748",
            "address": "Malpe Beach, Malpe Road, Adi Udupi, Malpe, Udupi taluku, Udupi district, Karnataka, 576101, India",
            "closest_to": "thirthahalli"
        },
        "shimoga district of karnataka": {
            "blogLinks": [
                "http://www.holidayiq.com/Shimoga-Sightseeing-748.html"
            ],
            "locType": "administrative",
            "longitude": "75.1312533993886",
            "latitude": "14.0558284",
            "address": "Shimoga district, Karnataka, India",
            "closest_to": "thirthahalli"
        },
        "kudremukh national park": {
            "blogLinks": [
                "https://www.thrillophilia.com/places-to-visit-near-mangalore"
            ],
            "locType": "national_park",
            "longitude": "75.1828713712862",
            "latitude": "13.25397485",
            "address": "Kudremukh National Park, SH66, Sringeri taluku, Chikkamagaluru district, Karnataka, India",
            "closest_to": "thirthahalli"
        },
        "jain": {
            "blogLinks": [
                "https://en.wikipedia.org/wiki/Thirthahalli"
            ],
            "locType": "town",
            "longitude": "74.9977469",
            "latitude": "13.0699218",
            "address": "Moodabidri, Mangaluru taluk, Dakshina Kannada, Karnataka, 574227, India",
            "closest_to": "thirthahalli"
        },
        "sharavathi river": {
            "blogLinks": [
                "https://www.triphobo.com/blog/8-river-rafting-destinations-near-bangalore"
            ],
            "locType": "yes",
            "longitude": "77.6216184337102",
            "latitude": "12.9464709",
            "address": "Sharavathi Block, National Games Village Road, Ambedkar Nagar, Ejipura, Bengaluru, Bangalore Urban, Karnataka, 560001, India",
            "closest_to": "bangalore"
        },
        "thirthahalli": {
            "blogLinks": [
                "http://www.distancesfrom.com/in/travel-from-Bangalore-to-Thirthahalli/TravelFromHistory/63611.aspx",
                "http://www.distancesfrom.com/in/travel-time-from-Bangalore-to-Thirthahalli-via-Karnataka-573201/TravelTimeHistory/33582677.aspx",
                "http://www.distancesfrom.com/in/travel-time-from-Bangalore-to-Thirthahalli-via-Hassan/TravelTimeHistory/33582676.aspx",
                "http://wikitravel.org/en/Shimoga",
                "https://en.wikipedia.org/wiki/Thirthahalli",
                "https://www.tripoto.com/weekend-getaways/from-thirthahalli",
                "https://www.triphobo.com/blog/8-river-rafting-destinations-near-bangalore",
                "http://www.distancesfrom.com/in/travel-time-from-Bangalore-to-Thirthahalli/TravelTimeHistory/63611.aspx",
                "http://www.hoparoundindia.com/karnataka/city-guides/thirthahalli.aspx",
                "http://www.nivalink.com/destination/thirthahalli",
                "https://www.tripigator.com/blog/photogenic-places-around-bangalore/"
            ],
            "locType": "trunk",
            "longitude": "74.9626368",
            "latitude": "13.4265327",
            "address": "Thirthahalli - Udupi Highway, Shivapura, Karkala taluk, Udupi district, Karnataka, India",
            "closest_to": "thirthahalli"
        },
        "sagar town": {
            "blogLinks": [
                "http://wikitravel.org/en/Shimoga"
            ],
            "locType": "town",
            "longitude": "75.0262551",
            "latitude": "14.1666594",
            "address": "Sagara, Sagara taluk, Shimoga district, Karnataka, 577400, India",
            "closest_to": "thirthahalli"
        },
        "koppa": {
            "blogLinks": [
                "https://en.wikipedia.org/wiki/Thirthahalli",
                "http://www.hoparoundindia.com/karnataka/city-guides/thirthahalli.aspx"
            ],
            "locType": "town",
            "longitude": "75.3633986",
            "latitude": "13.533207",
            "address": "Koppa, Koppa taluk, Chikkamagaluru district, Karnataka, India",
            "closest_to": "thirthahalli"
        },
        "soraba": {
            "blogLinks": [
                "http://wikitravel.org/en/Shimoga"
            ],
            "locType": "village",
            "longitude": "75.0921749",
            "latitude": "14.3794806",
            "address": "Soraba, Soraba taluk, Shimoga district, Karnataka, 577429, India",
            "closest_to": "thirthahalli"
        },
        "udupi railway station": {
            "blogLinks": [
                "https://www.thrillophilia.com/places-to-visit-near-mangalore"
            ],
            "locType": "station",
            "longitude": "74.7710217",
            "latitude": "13.3360878",
            "address": "Udupi Railway Station, Railway Godown Road, Indrali, Udupi, Udupi taluku, Udupi district, Karnataka, 576101, India",
            "closest_to": "thirthahalli"
        },
        "nrityagram": {
            "blogLinks": [
                "https://www.tripigator.com/blog/photogenic-places-around-bangalore/"
            ],
            "locType": "school",
            "longitude": "77.459702635358",
            "latitude": "13.1634001",
            "address": "Nrityagram, Hesaraghetta Main Road, Hesaraghatta, Bangalore Urban, Karnataka, India",
            "closest_to": "thirthahalli"
        },
        "kalaseshwara temple": {
            "blogLinks": [
                "http://www.nivalink.com/destination/thirthahalli"
            ],
            "locType": "place_of_worship",
            "longitude": "75.363446975",
            "latitude": "13.23228505",
            "address": "Kalaseshwara Temple, SH66, Kalasa, Mudigere taluk, Chikkamagaluru district, Karnataka, 577124, India",
            "closest_to": "thirthahalli"
        },
        "shimoga district": {
            "blogLinks": [
                "https://en.wikipedia.org/wiki/Thirthahalli"
            ],
            "locType": "administrative",
            "longitude": "75.1312533993886",
            "latitude": "14.0558284",
            "address": "Shimoga district, Karnataka, India",
            "closest_to": "thirthahalli"
        },
        "kabini river": {
            "blogLinks": [
                "https://www.triphobo.com/blog/8-river-rafting-destinations-near-bangalore"
            ],
            "locType": "canal",
            "longitude": "76.6477184",
            "latitude": "12.0780998",
            "address": "Kabini right bank canal, Nanjanagudu taluk, Mysuru district, Karnataka, India",
            "closest_to": "thirthahalli"
        },
        "tannirbhavi": {
            "blogLinks": [
                "https://www.thrillophilia.com/places-to-visit-near-mangalore"
            ],
            "locType": "beach",
            "longitude": "74.8132559697314",
            "latitude": "12.8953559",
            "address": "Tannirbhavi Beach, Matadakani Road, Bokkapatna, Kudroli, Mangaluru, Mangaluru taluk, Dakshina Kannada, Karnataka, 575001, India",
            "closest_to": "thirthahalli"
        },
        "east": {
            "blogLinks": [
                "https://www.thrillophilia.com/places-to-visit-near-mangalore"
            ],
            "locType": "restaurant",
            "longitude": "77.6601401",
            "latitude": "12.8504319",
            "address": "East, 43, Velankani Drive, Electronics City Phase 1, Doddathoguru, Bangalore Urban, Karnataka, 560100, India",
            "closest_to": "bangalore"
        },
        "moodu": {
            "blogLinks": [
                "https://www.thrillophilia.com/places-to-visit-near-mangalore"
            ],
            "locType": "school",
            "longitude": "74.6880462",
            "latitude": "13.5753824",
            "address": "Government Higher Primary School, Beejadi Moodu, NH66, Thekkatte, \u0c95\u0cc1\u0c82\u0ca6\u0cbe\u0caa\u0cc1\u0cb0 \u0ca4\u0cbe\u0cb2\u0cc2\u0c95\u0cc1, Udupi district, Karnataka, 576231, India",
            "closest_to": "thirthahalli"
        },
        "kumta": {
            "blogLinks": [
                "https://www.tripigator.com/blog/photogenic-places-around-bangalore/"
            ],
            "locType": "town",
            "longitude": "74.4107617",
            "latitude": "14.4261647",
            "address": "Kumta, Kumata taluk, Uttara Kannada, Karnataka, India",
            "closest_to": "thirthahalli"
        },
        "kadri manjunatha temple": {
            "blogLinks": [
                "https://www.thrillophilia.com/places-to-visit-near-mangalore"
            ],
            "locType": "place_of_worship",
            "longitude": "74.85560021854",
            "latitude": "12.88588535",
            "address": "Kadri Manjunatha Temple, Manjunatha Colony Road, Bikarnakatte, Nanthoor, Mangaluru, Mangaluru taluk, Dakshina Kannada, Karnataka, 575001, India",
            "closest_to": "thirthahalli"
        },
        "kannada": {
            "blogLinks": [
                "https://www.thrillophilia.com/places-to-visit-near-mangalore"
            ],
            "locType": "administrative",
            "longitude": "75.1008028650794",
            "latitude": "12.8114089",
            "address": "Dakshina Kannada, Karnataka, India",
            "closest_to": "thirthahalli"
        },
        "thirthahalli taluk": {
            "blogLinks": [
                "https://en.wikipedia.org/wiki/Thirthahalli"
            ],
            "locType": "trunk",
            "longitude": "75.0382054",
            "latitude": "13.4738839",
            "address": "Thirthahalli - Udupi Highway, Someshwara, Karkala taluk, Udupi district, Karnataka, 576129, India",
            "closest_to": "thirthahalli"
        }
    },
    "thirthahalli": {
        "display_name": "Thirthahalli - Udupi Highway, Shivapura, Karkala taluk, Udupi district, Karnataka, India",
        "class": "highway",
        "osm_id": "374064965",
        "importance": 0.3,
        "osm_type": "way",
        "boundingbox": [
            "13.4262888",
            "13.4265327",
            "74.9623428",
            "74.9626368"
        ],
        "licence": "Data \u00a9 OpenStreetMap contributors, ODbL 1.0. http://www.openstreetmap.org/copyright",
        "lon": "74.9626368",
        "lat": "13.4265327",
        "place_id": "146734997",
        "type": "trunk"
    }
}