{
    "mentions": {
        "hanagal": {
            "locType": "village",
            "blogLinks": [
                "https://en.wikipedia.org/wiki/Sagara,_Karnataka"
            ],
            "longitude": "76.7039857",
            "closest_to": "shimoga",
            "latitude": "14.7383723",
            "address": "Hanagal, Molakalmuru taluku, Chitradurga district, Karnataka, 577535, India"
        },
        "baroda": {
            "locType": "neighbourhood",
            "blogLinks": [
                "http://wikitravel.org/en/Shimoga",
                "http://www.ticketgoose.com/bus-tickets/belgaum-to-shimoga"
            ],
            "longitude": "77.5837404",
            "closest_to": "shimoga",
            "latitude": "12.893481",
            "address": "Bank of Baroda Colony, Puttenahalli, Bengaluru, Bangalore Urban, Karnataka, 560001, India"
        },
        "belgaum fort": {
            "locType": "locality",
            "blogLinks": [
                "http://www.nivalink.com/destination/belgaum"
            ],
            "longitude": "74.5255651",
            "closest_to": "shimoga",
            "latitude": "15.8581696",
            "address": "Belgaum Fort, Belagavi, Belagavi taluku, Belgaum district, Karnataka, 590001, India"
        },
        "margao": {
            "locType": "bank",
            "blogLinks": [
                "https://www.tripoto.com/weekend-getaways/from-shimoga"
            ],
            "longitude": "73.9583411",
            "closest_to": "shimoga",
            "latitude": "15.2740083",
            "address": "Karnataka bank, NH66, Aquem, Fatorda, Margao, South Goa, Goa, 403600, India"
        },
        "sagar town": {
            "locType": "town",
            "blogLinks": [
                "http://wikitravel.org/en/Shimoga"
            ],
            "longitude": "75.0262551",
            "closest_to": "shimoga",
            "latitude": "14.1666594",
            "address": "Sagara, Sagara taluk, Shimoga district, Karnataka, 577400, India"
        },
        "varadahalli": {
            "locType": "village",
            "blogLinks": [
                "http://wikitravel.org/en/Shimoga"
            ],
            "longitude": "75.3323142",
            "closest_to": "shimoga",
            "latitude": "14.8568018",
            "address": "Varadahalli, Haveri taluku, Haveri district, Karnataka, India"
        },
        "jog falls": {
            "locType": "locality",
            "blogLinks": [
                "http://www.holidayiq.com/Shimoga-Sightseeing-748.html",
                "https://en.wikipedia.org/wiki/Sagara,_Karnataka"
            ],
            "longitude": "74.8128715",
            "closest_to": "shimoga",
            "latitude": "14.2276106",
            "address": "Jog Falls, Joga - Kargal, Sagara taluk, Shimoga district, Karnataka, India"
        },
        "malnad": {
            "locType": "hospital",
            "blogLinks": [
                "https://en.wikipedia.org/wiki/Shimoga_district"
            ],
            "longitude": "75.7715495",
            "closest_to": "shimoga",
            "latitude": "13.3160351",
            "address": "Malnad Hospital, Mudigere-Kadur Road, Chikkamagaluru, Chikkamagaluru taluku, Chikkamagaluru district, Karnataka, 577101, India"
        },
        "mastikatte": {
            "locType": "village",
            "blogLinks": [
                "https://en.wikipedia.org/wiki/Shimoga_district"
            ],
            "longitude": "74.4604101",
            "closest_to": "shimoga",
            "latitude": "14.6857168",
            "address": "Mastikatte, Ankola taluk, Uttara Kannada, Karnataka, India"
        },
        "haveri district": {
            "locType": "administrative",
            "blogLinks": [
                "https://en.wikipedia.org/wiki/Shimoga_district"
            ],
            "longitude": "75.3845674304742",
            "closest_to": "shimoga",
            "latitude": "14.714635",
            "address": "Haveri district, Karnataka, India"
        },
        "marikamba temple": {
            "locType": "place_of_worship",
            "blogLinks": [
                "https://en.wikipedia.org/wiki/Sagara,_Karnataka"
            ],
            "longitude": "74.8103631279317",
            "closest_to": "shimoga",
            "latitude": "13.8626958",
            "address": "Marikamba Temple, NH766C;SH26, Halkal, \u0c95\u0cc1\u0c82\u0ca6\u0cbe\u0caa\u0cc1\u0cb0 \u0ca4\u0cbe\u0cb2\u0cc2\u0c95\u0cc1, Udupi district, Karnataka, 576220, India"
        },
        "honnali": {
            "locType": "town",
            "blogLinks": [
                "https://en.wikipedia.org/wiki/Sagara,_Karnataka"
            ],
            "longitude": "75.6457434",
            "closest_to": "shimoga",
            "latitude": "14.2389785",
            "address": "Honnali, Honnali taluku, Davanagere district, Karnataka, 577217, India"
        },
        "karnataka state": {
            "locType": "university",
            "blogLinks": [
                "http://wikitravel.org/en/Shimoga"
            ],
            "longitude": "76.6236231",
            "closest_to": "shimoga",
            "latitude": "12.315382",
            "address": "Karnataka State Open University, \u0cb9\u0cc1\u0ca3\u0cb8\u0cc2\u0cb0\u0cc1 \u0cb0\u0cb8\u0ccd\u0ca4\u0cc6, Gokulam, Mysuru, Mysuru taluk, Mysuru district, Karnataka, 570001, India"
        },
        "bangalore": {
            "locType": "city",
            "blogLinks": [
                "http://wikitravel.org/en/Shimoga",
                "https://www.tripoto.com/weekend-getaways/from-shimoga",
                "http://www.nivalink.com/destination/belgaum",
                "http://www.nivalink.com/destination/shimoga",
                "https://en.wikipedia.org/wiki/Sagara,_Karnataka"
            ],
            "longitude": "77.5912997",
            "closest_to": "shimoga",
            "latitude": "12.9791198",
            "address": "Bengaluru, Bangalore Urban, Karnataka, 560001, India"
        },
        "jagara": {
            "locType": "village",
            "blogLinks": [
                "https://en.wikipedia.org/wiki/Shimoga_district"
            ],
            "longitude": "75.6731446",
            "closest_to": "shimoga",
            "latitude": "13.4436522",
            "address": "Jagara, Chikkamagaluru taluku, Chikkamagaluru district, Karnataka, India"
        },
        "ubrani": {
            "locType": "village",
            "blogLinks": [
                "https://en.wikipedia.org/wiki/Shimoga_district"
            ],
            "longitude": "75.9159097",
            "closest_to": "shimoga",
            "latitude": "13.8519585",
            "address": "Ubrani, Channagiri taluku, Davanagere district, Karnataka, India"
        },
        "ratnagiri highway": {
            "locType": "secondary",
            "blogLinks": [
                "http://www.nivalink.com/destination/belgaum"
            ],
            "longitude": "75.7727724",
            "closest_to": "shimoga",
            "latitude": "13.3292344",
            "address": "Ratnagiri Road, Basavannahalli, Chikkamagaluru, Chikkamagaluru taluku, Chikkamagaluru district, Karnataka, 577101, India"
        },
        "udupi": {
            "locType": "city",
            "blogLinks": [
                "https://en.wikipedia.org/wiki/Sagara,_Karnataka"
            ],
            "longitude": "74.7473232",
            "closest_to": "shimoga",
            "latitude": "13.3419169",
            "address": "Udupi, Udupi taluku, Udupi district, Karnataka, 576101, India"
        },
        "kannada": {
            "locType": "administrative",
            "blogLinks": [
                "http://www.ticketgoose.com/bus-tickets/shimoga-to-belgaum",
                "http://www.ticketgoose.com/bus-tickets/belgaum-to-shimoga"
            ],
            "longitude": "75.1008028650794",
            "closest_to": "shimoga",
            "latitude": "12.8114089",
            "address": "Dakshina Kannada, Karnataka, India"
        },
        "lal bagh": {
            "locType": "bus_stop",
            "blogLinks": [
                "https://www.tripoto.com/weekend-getaways/from-shimoga"
            ],
            "longitude": "74.8386152",
            "closest_to": "shimoga",
            "latitude": "12.8859223",
            "address": "Lal Bagh Bus Stop, Mahatma Gandhi Road, Lalbagh, Ladyhill, Mangaluru, Mangaluru taluk, Dakshina Kannada, Karnataka, 575001, India"
        },
        "marikamba": {
            "locType": "place_of_worship",
            "blogLinks": [
                "https://en.wikipedia.org/wiki/Shimoga_district",
                "http://www.ticketgoose.com/bus-tickets/shimoga-to-belgaum",
                "http://www.ticketgoose.com/bus-tickets/belgaum-to-shimoga"
            ],
            "longitude": "74.8103631279317",
            "closest_to": "shimoga",
            "latitude": "13.8626958",
            "address": "Marikamba Temple, NH766C;SH26, Halkal, \u0c95\u0cc1\u0c82\u0ca6\u0cbe\u0caa\u0cc1\u0cb0 \u0ca4\u0cbe\u0cb2\u0cc2\u0c95\u0cc1, Udupi district, Karnataka, 576220, India"
        },
        "madurai": {
            "locType": "restaurant",
            "blogLinks": [
                "https://www.tripoto.com/weekend-getaways/from-shimoga"
            ],
            "longitude": "77.6320535",
            "closest_to": "shimoga",
            "latitude": "12.9185419",
            "address": "Madurai Idly Shop, 5th Main Road, Teachers Colony, HSR Layout, Bengaluru, Bangalore Urban, Karnataka, 560001, India"
        },
        "tumkur": {
            "locType": "county",
            "blogLinks": [
                "https://en.wikipedia.org/wiki/Sagara,_Karnataka"
            ],
            "longitude": "77.0002445",
            "closest_to": "shimoga",
            "latitude": "13.4999406",
            "address": "Tumakuru, Tumkur district, Karnataka, India"
        },
        "gujarat": {
            "locType": "yes",
            "blogLinks": [
                "https://en.wikipedia.org/wiki/Shimoga_district"
            ],
            "longitude": "75.1370469",
            "closest_to": "shimoga",
            "latitude": "15.3595169",
            "address": "Gujarat Bhavan, Casualty and Emergency, Ashok Nagar, Vidyanagar, Hubballi - \u0cb9\u0cc1\u0cac\u0ccd\u0cac\u0cb3\u0ccd\u0cb3\u0cbf, Hubballi taluku, Dharwad district, Karnataka, 580020, India"
        },
        "kudalasangama": {
            "locType": "village",
            "blogLinks": [
                "http://wikitravel.org/en/Shimoga"
            ],
            "longitude": "76.0604244",
            "closest_to": "shimoga",
            "latitude": "16.2033992",
            "address": "Kudala Sangama, Hunagunda taluku, Bagalkote district, Karnataka, India"
        },
        "bhatkal": {
            "locType": "town",
            "blogLinks": [
                "https://en.wikipedia.org/wiki/Shimoga_district",
                "https://en.wikipedia.org/wiki/Sagara,_Karnataka"
            ],
            "longitude": "74.5485295",
            "closest_to": "shimoga",
            "latitude": "13.9952114",
            "address": "Bhatkal, Bhatkala taluk, Uttara Kannada, Karnataka, 581320, India"
        },
        "riversidedam28kundadrikundagiri hills": {
            "locType": "suburb",
            "blogLinks": [
                "http://www.nivalink.com/destination/shimoga"
            ],
            "longitude": "74.860152",
            "closest_to": "shimoga",
            "latitude": "12.8935998",
            "address": "Kadri Hills, Mangaluru, Mangaluru taluk, Dakshina Kannada, Karnataka, 575001, India"
        },
        "melige": {
            "locType": "village",
            "blogLinks": [
                "https://en.wikipedia.org/wiki/Shimoga_district"
            ],
            "longitude": "75.2868444",
            "closest_to": "shimoga",
            "latitude": "13.6660298",
            "address": "Melige, Tirthahalli taluk, Shimoga district, Karnataka, India"
        },
        "mumbai": {
            "locType": "restaurant",
            "blogLinks": [
                "http://www.nivalink.com/destination/belgaum"
            ],
            "longitude": "77.5718472",
            "closest_to": "shimoga",
            "latitude": "13.0002869",
            "address": "Mumbai Spice, 18/2, 10th Cross, Malleswaram, Vyalikaval, Malleswaram, Bengaluru, Bangalore Urban, Karnataka, 560003, India"
        },
        "kubja": {
            "locType": "river",
            "blogLinks": [
                "https://en.wikipedia.org/wiki/Shimoga_district"
            ],
            "longitude": "74.8772445",
            "closest_to": "shimoga",
            "latitude": "13.6694233",
            "address": "Kubja, \u0c95\u0cc1\u0c82\u0ca6\u0cbe\u0caa\u0cc1\u0cb0 \u0ca4\u0cbe\u0cb2\u0cc2\u0c95\u0cc1, Udupi district, Karnataka, India"
        },
        "nittur": {
            "locType": "tertiary",
            "blogLinks": [
                "https://en.wikipedia.org/wiki/Shimoga_district",
                "http://wikitravel.org/en/Shimoga"
            ],
            "longitude": "75.7595937",
            "closest_to": "shimoga",
            "latitude": "14.3579814",
            "address": "Malebennur Nittur Road, Nitturu, Harihara taluku, Davanagere district, Karnataka, 577530, India"
        },
        "varaha": {
            "locType": "village",
            "blogLinks": [
                "https://en.wikipedia.org/wiki/Shimoga_district"
            ],
            "longitude": "75.3718812",
            "closest_to": "shimoga",
            "latitude": "14.390777",
            "address": "Varaha, Hirekeruru taluk, Haveri district, Karnataka, India"
        },
        "parvati": {
            "locType": "village",
            "blogLinks": [
                "https://en.wikipedia.org/wiki/Shimoga_district"
            ],
            "longitude": "75.7898501",
            "closest_to": "shimoga",
            "latitude": "16.0395701",
            "address": "Parvati, Badami taluku, Bagalkote district, Karnataka, India"
        },
        "bhadra": {
            "locType": "river",
            "blogLinks": [
                "https://en.wikipedia.org/wiki/Shimoga_district"
            ],
            "longitude": "75.527118",
            "closest_to": "shimoga",
            "latitude": "13.4888356",
            "address": "Bhadra, Chikkamagaluru taluku, Chikkamagaluru district, Karnataka, India"
        },
        "print.": {
            "locType": "internet_cafe",
            "blogLinks": [
                "https://en.wikipedia.org/wiki/Shimoga_district"
            ],
            "longitude": "77.6053275",
            "closest_to": "shimoga",
            "latitude": "12.9746803",
            "address": "Internet & Print Out Xerox, Church Street, Tasker Town, Ashok Nagar, Bengaluru, Bangalore Urban, Karnataka, 560001, India"
        },
        "banavasi": {
            "locType": "town",
            "blogLinks": [
                "https://en.wikipedia.org/wiki/Shimoga_district",
                "https://en.wikipedia.org/wiki/Sagara,_Karnataka"
            ],
            "longitude": "75.0129845",
            "closest_to": "shimoga",
            "latitude": "14.5389738",
            "address": "Banavasi, Shirasi taluk, Uttara Kannada, Karnataka, India"
        },
        "goa": {
            "locType": "restaurant",
            "blogLinks": [
                "https://www.tripoto.com/weekend-getaways/from-shimoga",
                "http://www.nivalink.com/destination/belgaum"
            ],
            "longitude": "77.6200027",
            "closest_to": "shimoga",
            "latitude": "12.9750047",
            "address": "Carnival De Goa, Bhaskaran Road, Gupta Layout, Halasuru, Bengaluru, Bangalore Urban, Karnataka, 560001, India"
        },
        "tyavarekoppa": {
            "locType": "hamlet",
            "blogLinks": [
                "https://en.wikipedia.org/wiki/Shimoga_district"
            ],
            "longitude": "75.504593",
            "closest_to": "shimoga",
            "latitude": "13.9749019",
            "address": "Tyavarekoppa, Shivamogga taluku, Shimoga district, Karnataka, India"
        },
        "river sharavathi": {
            "locType": "river",
            "blogLinks": [
                "http://www.nivalink.com/destination/shimoga"
            ],
            "longitude": "77.5476521",
            "closest_to": "shimoga",
            "latitude": "12.967526",
            "address": "Vrishabavathi, Bengaluru, Bangalore Urban, Karnataka, 560001, India"
        },
        "belgaum airport": {
            "locType": "aerodrome",
            "blogLinks": [
                "http://www.ticketgoose.com/bus-tickets/shimoga-to-belgaum",
                "http://www.ticketgoose.com/bus-tickets/belgaum-to-shimoga"
            ],
            "longitude": "74.6189763983851",
            "closest_to": "shimoga",
            "latitude": "15.8602827",
            "address": "Belgaum Airport, SH20, Balekundri, Belagavi taluku, Belgaum district, Karnataka, 591124, India"
        },
        "nehru": {
            "locType": "stadium",
            "blogLinks": [
                "https://en.wikipedia.org/wiki/Shimoga_district"
            ],
            "longitude": "75.1428430366112",
            "closest_to": "shimoga",
            "latitude": "15.3504494",
            "address": "Nehru Stadium, Koppikar Road, J C Nagar, Kamaripet, Hubballi - \u0cb9\u0cc1\u0cac\u0ccd\u0cac\u0cb3\u0ccd\u0cb3\u0cbf, Hubballi taluku, Dharwad district, Karnataka, 580020, India"
        },
        "river tunga": {
            "locType": "river",
            "blogLinks": [
                "http://www.holidayiq.com/Shimoga-Sightseeing-748.html"
            ],
            "longitude": "75.3221835",
            "closest_to": "shimoga",
            "latitude": "13.6632221",
            "address": "Tunga, Tirthahalli taluk, Shimoga district, Karnataka, India"
        },
        "hosanagara taluk": {
            "locType": "administrative",
            "blogLinks": [
                "https://en.wikipedia.org/wiki/Shimoga_district"
            ],
            "longitude": "75.0686275463311",
            "closest_to": "shimoga",
            "latitude": "13.8498942",
            "address": "Hosanagara taluk, Shimoga district, Karnataka, India"
        },
        "tunga": {
            "locType": "river",
            "blogLinks": [
                "https://en.wikipedia.org/wiki/Shimoga_district",
                "http://www.nivalink.com/destination/shimoga"
            ],
            "longitude": "75.3221835",
            "closest_to": "shimoga",
            "latitude": "13.6632221",
            "address": "Tunga, Tirthahalli taluk, Shimoga district, Karnataka, India"
        },
        "shani": {
            "locType": "tertiary",
            "blogLinks": [
                "https://en.wikipedia.org/wiki/Sagara,_Karnataka"
            ],
            "longitude": "77.6823558",
            "closest_to": "shimoga",
            "latitude": "13.0192534",
            "address": "Shani Mahatma Temple Road, Ramamurthy Nagar, Varanasi, Bangalore Urban, Karnataka, 600042, India"
        },
        "jog road": {
            "locType": "locality",
            "blogLinks": [
                "https://en.wikipedia.org/wiki/Sagara,_Karnataka"
            ],
            "longitude": "74.8128715",
            "closest_to": "shimoga",
            "latitude": "14.2276106",
            "address": "Jog Falls, Joga - Kargal, Sagara taluk, Shimoga district, Karnataka, India"
        },
        "sogane": {
            "locType": "village",
            "blogLinks": [
                "https://en.wikipedia.org/wiki/Shimoga_district",
                "http://www.ticketgoose.com/bus-tickets/shimoga-to-belgaum",
                "http://www.ticketgoose.com/bus-tickets/belgaum-to-shimoga"
            ],
            "longitude": "75.6154786",
            "closest_to": "shimoga",
            "latitude": "13.871288",
            "address": "Sogane, Shivamogga taluku, Shimoga district, Karnataka, India"
        },
        "kadur": {
            "locType": "trunk",
            "blogLinks": [
                "https://en.wikipedia.org/wiki/Sagara,_Karnataka"
            ],
            "longitude": "75.7820095",
            "closest_to": "shimoga",
            "latitude": "13.3283654",
            "address": "Mudigere-Kadur Road, Basavannahalli, Chikkamagaluru, Chikkamagaluru taluku, Chikkamagaluru district, Karnataka, 577101, India"
        },
        "venkataramana": {
            "locType": "tertiary",
            "blogLinks": [
                "https://en.wikipedia.org/wiki/Shimoga_district"
            ],
            "longitude": "76.6254678",
            "closest_to": "shimoga",
            "latitude": "12.2823847",
            "address": "P. Venkataramana Road, Kuvempunagara, Mysuru, Mysuru taluk, Mysuru district, Karnataka, 570001, India"
        },
        "tunga river": {
            "locType": "river",
            "blogLinks": [
                "https://en.wikipedia.org/wiki/Shimoga_district"
            ],
            "longitude": "75.3221835",
            "closest_to": "shimoga",
            "latitude": "13.6632221",
            "address": "Tunga, Tirthahalli taluk, Shimoga district, Karnataka, India"
        },
        "nagara": {
            "locType": "village",
            "blogLinks": [
                "https://en.wikipedia.org/wiki/Shimoga_district",
                "http://wikitravel.org/en/Shimoga"
            ],
            "longitude": "75.0328554",
            "closest_to": "shimoga",
            "latitude": "13.8236828",
            "address": "Nagara, Hosanagara taluk, Shimoga district, Karnataka, India"
        },
        "sagar taluk": {
            "locType": "town",
            "blogLinks": [
                "https://en.wikipedia.org/wiki/Shimoga_district",
                "http://wikitravel.org/en/Shimoga",
                "https://en.wikipedia.org/wiki/Sagara,_Karnataka"
            ],
            "longitude": "75.0262551",
            "closest_to": "shimoga",
            "latitude": "14.1666594",
            "address": "Sagara, Sagara taluk, Shimoga district, Karnataka, 577400, India"
        },
        "hosanagar": {
            "locType": "marketplace",
            "blogLinks": [
                "https://en.wikipedia.org/wiki/Shimoga_district",
                "https://en.wikipedia.org/wiki/Sagara,_Karnataka"
            ],
            "longitude": "75.0631116",
            "closest_to": "shimoga",
            "latitude": "13.9166601",
            "address": "Hosanagar Santhe Market, Nehru Road, Kaluru, Hosanagara taluk, Shimoga district, Karnataka, 577418, India"
        },
        "mangalore": {
            "locType": "city",
            "blogLinks": [
                "http://www.ticketgoose.com/bus-tickets/shimoga-to-belgaum",
                "http://www.nivalink.com/destination/belgaum",
                "https://en.wikipedia.org/wiki/Sagara,_Karnataka",
                "http://www.ticketgoose.com/bus-tickets/belgaum-to-shimoga"
            ],
            "longitude": "74.8430082",
            "closest_to": "shimoga",
            "latitude": "12.8698101",
            "address": "Mangaluru, Mangaluru taluk, Dakshina Kannada, Karnataka, 575001, India"
        },
        "amboli": {
            "locType": "village",
            "blogLinks": [
                "http://www.nivalink.com/destination/belgaum"
            ],
            "longitude": "74.4340839",
            "closest_to": "shimoga",
            "latitude": "15.6456171",
            "address": "Amboli, Khanapura taluku, Belgaum district, Karnataka, India"
        },
        "gokak": {
            "locType": "town",
            "blogLinks": [
                "http://www.nivalink.com/destination/belgaum"
            ],
            "longitude": "74.8224338",
            "closest_to": "shimoga",
            "latitude": "16.1693033",
            "address": "Gokak, Gokak taluku, Belgaum district, Karnataka, 591307, India"
        },
        "humcha": {
            "locType": "secondary",
            "blogLinks": [
                "http://www.nivalink.com/destination/shimoga"
            ],
            "longitude": "75.2098487",
            "closest_to": "shimoga",
            "latitude": "13.862013",
            "address": "Humcha Main Road, Huncha, Hosanagara taluk, Shimoga district, Karnataka, India"
        },
        "' river sharavathi": {
            "locType": "river",
            "blogLinks": [
                "https://en.wikipedia.org/wiki/Shimoga_district"
            ],
            "longitude": "77.5476521",
            "closest_to": "shimoga",
            "latitude": "12.967526",
            "address": "Vrishabavathi, Bengaluru, Bangalore Urban, Karnataka, 560001, India"
        },
        "malgudi": {
            "locType": "restaurant",
            "blogLinks": [
                "https://en.wikipedia.org/wiki/Shimoga_district"
            ],
            "longitude": "77.7017267",
            "closest_to": "shimoga",
            "latitude": "12.9651193",
            "address": "Malgudi Southern Cuisine, 3, Outer Ring Road, Ananda Nagara, Doddanekundi, Garudacharpalya, Bangalore Urban, Karnataka, 560037, India"
        },
        "mrugavadhe": {
            "locType": "village",
            "blogLinks": [
                "https://en.wikipedia.org/wiki/Shimoga_district"
            ],
            "longitude": "75.3895327",
            "closest_to": "shimoga",
            "latitude": "13.6519388",
            "address": "Mrugavadhe, Tirthahalli taluk, Shimoga district, Karnataka, India"
        },
        "lakkavalli": {
            "locType": "village",
            "blogLinks": [
                "https://en.wikipedia.org/wiki/Shimoga_district"
            ],
            "longitude": "75.1078097",
            "closest_to": "shimoga",
            "latitude": "14.5841018",
            "address": "Lakkavalli, Soraba taluk, Shimoga district, Karnataka, India"
        },
        "shivamogga district": {
            "locType": "city",
            "blogLinks": [
                "http://www.ticketgoose.com/bus-tickets/shimoga-to-belgaum",
                "http://www.ticketgoose.com/bus-tickets/belgaum-to-shimoga"
            ],
            "longitude": "75.569737",
            "closest_to": "shimoga",
            "latitude": "13.9311723",
            "address": "Shivamogga, Shivamogga taluku, Shimoga district, Karnataka, 577200, India"
        },
        "ganapathi lake": {
            "locType": "water",
            "blogLinks": [
                "https://en.wikipedia.org/wiki/Sagara,_Karnataka"
            ],
            "longitude": "75.0337898302367",
            "closest_to": "shimoga",
            "latitude": "14.1660665",
            "address": "Ganapathi Lake, J. C. Road, Sagara, Sagara taluk, Shimoga district, Karnataka, 577400, India"
        },
        "davanagere district": {
            "locType": "administrative",
            "blogLinks": [
                "https://en.wikipedia.org/wiki/Shimoga_district"
            ],
            "longitude": "75.8904782659728",
            "closest_to": "shimoga",
            "latitude": "14.37090835",
            "address": "Davanagere district, Karnataka, India"
        },
        "sagara taluk": {
            "locType": "administrative",
            "blogLinks": [
                "http://wikitravel.org/en/Shimoga"
            ],
            "longitude": "74.9610874491152",
            "closest_to": "shimoga",
            "latitude": "14.09993045",
            "address": "Sagara taluk, Shimoga district, Karnataka, India"
        },
        "honnavar": {
            "locType": "town",
            "blogLinks": [
                "https://en.wikipedia.org/wiki/Sagara,_Karnataka"
            ],
            "longitude": "74.4446716",
            "closest_to": "shimoga",
            "latitude": "14.2810827",
            "address": "Honnavar, Honnavara taluku, Uttara Kannada, Karnataka, 581334, India"
        },
        "sorab taluk": {
            "locType": "secondary",
            "blogLinks": [
                "https://en.wikipedia.org/wiki/Shimoga_district"
            ],
            "longitude": "75.1114212",
            "closest_to": "shimoga",
            "latitude": "14.2779168",
            "address": "Sorab Ulavi Rd, Ulavi, Soraba taluk, Shimoga district, Karnataka, 577434, India"
        },
        "sala": {
            "locType": "hospital",
            "blogLinks": [
                "https://en.wikipedia.org/wiki/Sagara,_Karnataka"
            ],
            "longitude": "77.5850591",
            "closest_to": "shimoga",
            "latitude": "12.9411061",
            "address": "Kottakkal Arya Vaidya Sala, 4th Cross Road, Mavalli, Basavanagudi, Bengaluru, Bangalore Urban, Karnataka, 560001, India"
        },
        "keladi": {
            "locType": "village",
            "blogLinks": [
                "http://www.holidayiq.com/Shimoga-Sightseeing-748.html",
                "http://wikitravel.org/en/Shimoga",
                "https://en.wikipedia.org/wiki/Sagara,_Karnataka"
            ],
            "longitude": "75.0165753",
            "closest_to": "shimoga",
            "latitude": "14.2214761",
            "address": "Keladi, Sagara taluk, Shimoga district, Karnataka, India"
        },
        "panaji": {
            "locType": "trunk",
            "blogLinks": [
                "https://www.tripoto.com/weekend-getaways/from-shimoga"
            ],
            "longitude": "74.4876784",
            "closest_to": "shimoga",
            "latitude": "15.4422981",
            "address": "Belgaum - Panaji Highway, Londa, Khanapura taluku, Belgaum district, Karnataka, India"
        },
        "grevillea": {
            "locType": "tree",
            "blogLinks": [
                "https://en.wikipedia.org/wiki/Shimoga_district"
            ],
            "longitude": "77.5845738",
            "closest_to": "shimoga",
            "latitude": "12.9539614",
            "address": "Grevillea Robusta A.Cunn - Australian Silver Oak, Krumbiegal Road, Mavalli, VV Puram, Bengaluru, Bangalore Urban, Karnataka, 560001, India"
        },
        "tungabhadra": {
            "locType": "river",
            "blogLinks": [
                "https://en.wikipedia.org/wiki/Shimoga_district"
            ],
            "longitude": "76.4931607",
            "closest_to": "shimoga",
            "latitude": "15.3446123",
            "address": "Tungabhadra, Gangavati taluku, Koppal district, Karnataka, India"
        },
        "belgaum": {
            "locType": "county",
            "blogLinks": [
                "http://www.nivalink.com/destination/belgaum"
            ],
            "longitude": "74.75",
            "closest_to": "shimoga",
            "latitude": "16.333333",
            "address": "Belgaum, Belgaum district, Karnataka, India"
        },
        "shimoga district of karnataka": {
            "locType": "administrative",
            "blogLinks": [
                "http://www.holidayiq.com/Shimoga-Sightseeing-748.html"
            ],
            "longitude": "75.1312533993886",
            "closest_to": "shimoga",
            "latitude": "14.0558284",
            "address": "Shimoga district, Karnataka, India"
        },
        "kalaseshwara temple": {
            "locType": "place_of_worship",
            "blogLinks": [
                "http://www.nivalink.com/destination/shimoga"
            ],
            "longitude": "75.363446975",
            "closest_to": "shimoga",
            "latitude": "13.23228505",
            "address": "Kalaseshwara Temple, SH66, Kalasa, Mudigere taluk, Chikkamagaluru district, Karnataka, 577124, India"
        },
        "udipi": {
            "locType": "restaurant",
            "blogLinks": [
                "http://www.nivalink.com/destination/shimoga"
            ],
            "longitude": "77.652888",
            "closest_to": "shimoga",
            "latitude": "12.9530588",
            "address": "Udipi Park, 2nd Cross Road, Muniyappa Layout, Murugeshpalaya, Belure Ambedkar Nagar, Bangalore Urban, Karnataka, 560067, India"
        },
        "linganamakki": {
            "locType": "village",
            "blogLinks": [
                "https://en.wikipedia.org/wiki/Shimoga_district",
                "https://en.wikipedia.org/wiki/Sagara,_Karnataka"
            ],
            "longitude": "74.8292508",
            "closest_to": "shimoga",
            "latitude": "14.1731954",
            "address": "Linganamakki, Sagara taluk, Shimoga district, Karnataka, India"
        },
        "bhadra river": {
            "locType": "river",
            "blogLinks": [
                "http://www.nivalink.com/destination/shimoga"
            ],
            "longitude": "75.527118",
            "closest_to": "shimoga",
            "latitude": "13.4888356",
            "address": "Bhadra, Chikkamagaluru taluku, Chikkamagaluru district, Karnataka, India"
        },
        "varahi river": {
            "locType": "river",
            "blogLinks": [
                "https://en.wikipedia.org/wiki/Shimoga_district"
            ],
            "longitude": "74.9489117",
            "closest_to": "shimoga",
            "latitude": "13.6582668",
            "address": "Varahi, \u0c95\u0cc1\u0c82\u0ca6\u0cbe\u0caa\u0cc1\u0cb0 \u0ca4\u0cbe\u0cb2\u0cc2\u0c95\u0cc1, Udupi district, Karnataka, India"
        },
        "talaguppa": {
            "locType": "town",
            "blogLinks": [
                "http://wikitravel.org/en/Shimoga"
            ],
            "longitude": "74.911064",
            "closest_to": "shimoga",
            "latitude": "14.2148828",
            "address": "Talaguppa, Sagara taluk, Shimoga district, Karnataka, 577430, India"
        },
        "sharavathi": {
            "locType": "yes",
            "blogLinks": [
                "https://en.wikipedia.org/wiki/Shimoga_district",
                "http://wikitravel.org/en/Shimoga"
            ],
            "longitude": "77.6216184337102",
            "closest_to": "shimoga",
            "latitude": "12.9464709",
            "address": "Sharavathi Block, National Games Village Road, Ambedkar Nagar, Ejipura, Bengaluru, Bangalore Urban, Karnataka, 560001, India"
        },
        "chikkamagaluru": {
            "locType": "city",
            "blogLinks": [
                "https://en.wikipedia.org/wiki/Shimoga_district"
            ],
            "longitude": "75.7738743",
            "closest_to": "shimoga",
            "latitude": "13.318014",
            "address": "Chikkamagaluru, Chikkamagaluru taluku, Chikkamagaluru district, Karnataka, 577101, India"
        },
        "shivamogga": {
            "locType": "city",
            "blogLinks": [
                "https://en.wikipedia.org/wiki/Shimoga_district",
                "https://en.wikipedia.org/wiki/Sagara,_Karnataka"
            ],
            "longitude": "75.569737",
            "closest_to": "shimoga",
            "latitude": "13.9311723",
            "address": "Shivamogga, Shivamogga taluku, Shimoga district, Karnataka, 577200, India"
        },
        "kundapura": {
            "locType": "town",
            "blogLinks": [
                "http://www.nivalink.com/destination/shimoga"
            ],
            "longitude": "74.6915722",
            "closest_to": "shimoga",
            "latitude": "13.6250993",
            "address": "Kundapura, \u0c95\u0cc1\u0c82\u0ca6\u0cbe\u0caa\u0cc1\u0cb0 \u0ca4\u0cbe\u0cb2\u0cc2\u0c95\u0cc1, Udupi district, Karnataka, 576200, India"
        },
        "japanese garden": {
            "locType": "restaurant",
            "blogLinks": [
                "https://www.tripoto.com/weekend-getaways/from-shimoga"
            ],
            "longitude": "77.6055915",
            "closest_to": "shimoga",
            "latitude": "12.9655328",
            "address": "Hae Kum Gang (Korean/Japanese), 20, Castle Street, Shantala Nagar, Ashok Nagar, Bengaluru, Bangalore Urban, Karnataka, 560001, India"
        },
        "coimbatore": {
            "locType": "trunk",
            "blogLinks": [
                "https://www.tripoto.com/weekend-getaways/from-shimoga"
            ],
            "longitude": "76.6318246",
            "closest_to": "shimoga",
            "latitude": "11.6793976",
            "address": "Gundlupet - Coimbatore Highway, Bandipur, Gundlupet taluk, Chamarajanagar district, Karnataka, India"
        },
        "north goa": {
            "locType": "restaurant",
            "blogLinks": [
                "https://www.tripoto.com/weekend-getaways/from-shimoga"
            ],
            "longitude": "77.6200027",
            "closest_to": "shimoga",
            "latitude": "12.9750047",
            "address": "Carnival De Goa, Bhaskaran Road, Gupta Layout, Halasuru, Bengaluru, Bangalore Urban, Karnataka, 560001, India"
        },
        "thirthahalli road": {
            "locType": "trunk",
            "blogLinks": [
                "http://wikitravel.org/en/Shimoga"
            ],
            "longitude": "74.7829657",
            "closest_to": "shimoga",
            "latitude": "13.3476314",
            "address": "Malpe - Manipal Road, Indrali, Manipal, Udupi taluku, Udupi district, Karnataka, 576 104, India"
        },
        "agumbe": {
            "locType": "village",
            "blogLinks": [
                "https://en.wikipedia.org/wiki/Shimoga_district"
            ],
            "longitude": "75.0965525",
            "closest_to": "shimoga",
            "latitude": "13.5094998",
            "address": "Agumbe, Tirthahalli taluk, Shimoga district, Karnataka, 577411, India"
        },
        "belgaum railway station": {
            "locType": "station",
            "blogLinks": [
                "https://en.wikipedia.org/wiki/Sagara,_Karnataka"
            ],
            "longitude": "74.509065",
            "closest_to": "shimoga",
            "latitude": "15.8489677",
            "address": "Belgaum, Belgaum - Panaji Highway, Cantonment, Belagavi, Belagavi taluku, Belgaum district, Karnataka, 590001, India"
        },
        "koodli": {
            "locType": "tertiary",
            "blogLinks": [
                "https://en.wikipedia.org/wiki/Shimoga_district",
                "http://www.nivalink.com/destination/shimoga"
            ],
            "longitude": "74.7671",
            "closest_to": "shimoga",
            "latitude": "13.4868433",
            "address": "Koodli Road, Yadtadi, Udupi taluku, Udupi district, Karnataka, India"
        },
        "india": {
            "locType": "administrative",
            "blogLinks": [
                "http://www.nivalink.com/destination/shimoga",
                "http://distancecalculator.globefeed.com/India_Distance_Calculator.asp?state=19",
                "https://en.wikipedia.org/wiki/Sagara,_Karnataka",
                "http://wikitravel.org/en/Shimoga",
                "https://www.tripoto.com/weekend-getaways/from-shimoga",
                "https://en.wikipedia.org/wiki/Shimoga_district",
                "http://www.karnatakatourism.org/",
                "http://www.holidayiq.com/Shimoga-Sightseeing-748.html",
                "https://www.goibibo.com/routeplanner/belgaum-shimoga/",
                "http://www.ticketgoose.com/bus-tickets/shimoga-to-belgaum"
            ],
            "longitude": "75.7223521",
            "closest_to": "shimoga",
            "latitude": "14.5203896",
            "address": "Karnataka, India"
        },
        "hoysala": {
            "locType": "administrative",
            "blogLinks": [
                "https://en.wikipedia.org/wiki/Sagara,_Karnataka",
                "http://www.nivalink.com/destination/shimoga"
            ],
            "longitude": "77.6375990817051",
            "closest_to": "shimoga",
            "latitude": "12.97813815",
            "address": "Hoysala Nagar, Bengaluru, Bangalore Urban, Karnataka, 560001, India"
        },
        "channagiri": {
            "locType": "town",
            "blogLinks": [
                "https://en.wikipedia.org/wiki/Shimoga_district"
            ],
            "longitude": "75.925",
            "closest_to": "shimoga",
            "latitude": "14.0252",
            "address": "Channagiri, Channagiri taluku, Davanagere district, Karnataka, 577213, India"
        },
        "tungabhadra river": {
            "locType": "river",
            "blogLinks": [
                "http://www.nivalink.com/destination/shimoga"
            ],
            "longitude": "76.4931607",
            "closest_to": "shimoga",
            "latitude": "15.3446123",
            "address": "Tungabhadra, Gangavati taluku, Koppal district, Karnataka, India"
        },
        "kadamba nagara": {
            "locType": "restaurant",
            "blogLinks": [
                "https://en.wikipedia.org/wiki/Sagara,_Karnataka"
            ],
            "longitude": "77.5928828",
            "closest_to": "shimoga",
            "latitude": "12.9545906",
            "address": "Kadamba Veg, BTS Main Road, Mavalli, Shanti Nagar, Bengaluru, Bangalore Urban, Karnataka, 560001, India"
        },
        "mandovi river": {
            "locType": "car",
            "blogLinks": [
                "http://www.nivalink.com/destination/belgaum"
            ],
            "longitude": "77.6190505",
            "closest_to": "shimoga",
            "latitude": "12.9965335",
            "address": "Mandovi Motors, Wheeler Road Flyover, MSO Colony, Cox Town, Bengaluru, Bangalore Urban, Karnataka, 560001, India"
        },
        "new delhi": {
            "locType": "college",
            "blogLinks": [
                "https://en.wikipedia.org/wiki/Shimoga_district"
            ],
            "longitude": "76.6142178649055",
            "closest_to": "shimoga",
            "latitude": "12.30911465",
            "address": "Regional Institute of Education, Chaduranga Road, Jayalakshmipuram, Mysuru, Mysuru taluk, Mysuru district, Karnataka, 570001, India"
        },
        "kargal": {
            "locType": "village",
            "blogLinks": [
                "https://en.wikipedia.org/wiki/Shimoga_district",
                "https://en.wikipedia.org/wiki/Sagara,_Karnataka"
            ],
            "longitude": "75.9613152",
            "closest_to": "shimoga",
            "latitude": "12.627292",
            "address": "Kargal, Arakalagudu taluk, Hassan district, Karnataka, India"
        },
        "bhadravathi": {
            "locType": "town",
            "blogLinks": [
                "https://en.wikipedia.org/wiki/Shimoga_district",
                "http://wikitravel.org/en/Shimoga"
            ],
            "longitude": "75.7030138",
            "closest_to": "shimoga",
            "latitude": "13.8474574",
            "address": "Bhadravathi, Bhadravati taluk, Shimoga district, Karnataka, 577300, India"
        },
        "maharashtra": {
            "locType": "bank",
            "blogLinks": [
                "http://www.nivalink.com/destination/belgaum"
            ],
            "longitude": "77.5856013",
            "closest_to": "shimoga",
            "latitude": "12.9049455",
            "address": "Bank of Maharashtra, 24th Main, K R Layout, Puttenahalli, Bengaluru, Bangalore Urban, Karnataka, 560001, India"
        },
        "sagara": {
            "locType": "town",
            "blogLinks": [
                "http://www.holidayiq.com/Shimoga-Sightseeing-748.html",
                "https://en.wikipedia.org/wiki/Sagara,_Karnataka"
            ],
            "longitude": "75.0262551",
            "closest_to": "shimoga",
            "latitude": "14.1666594",
            "address": "Sagara, Sagara taluk, Shimoga district, Karnataka, 577400, India"
        },
        "devbagh": {
            "locType": "village",
            "blogLinks": [
                "https://www.goibibo.com/routeplanner/belgaum-shimoga/"
            ],
            "longitude": "74.1117838",
            "closest_to": "shimoga",
            "latitude": "14.8569148",
            "address": "Devbagh, Karavara taluk, Uttara Kannada, Karnataka, India"
        },
        "sharavathi dental": {
            "locType": "hostel",
            "blogLinks": [
                "https://en.wikipedia.org/wiki/Shimoga_district"
            ],
            "longitude": "75.9147675104246",
            "closest_to": "shimoga",
            "latitude": "14.45499085",
            "address": "Sharavathi Ladies Hostel, Dental College Road, K.T. Jambanna Nagara, Davanagere, Davanagere taluku, Davanagere district, Karnataka, 577000, India"
        },
        "urdu": {
            "locType": "recreation_ground",
            "blogLinks": [
                "https://en.wikipedia.org/wiki/Shimoga_district"
            ],
            "longitude": "75.636575371858",
            "closest_to": "shimoga",
            "latitude": "14.6180369",
            "address": "Urdu Ground, Ranebennur, Ranebennuru taluk, Haveri district, Karnataka, 581115, India"
        },
        "hosanagara": {
            "locType": "town",
            "blogLinks": [
                "https://en.wikipedia.org/wiki/Shimoga_district"
            ],
            "longitude": "75.0657952",
            "closest_to": "shimoga",
            "latitude": "13.916789",
            "address": "Hosanagara, Hosanagara taluk, Shimoga district, Karnataka, 577418, India"
        },
        "sagar": {
            "locType": "town",
            "blogLinks": [
                "https://en.wikipedia.org/wiki/Shimoga_district",
                "http://wikitravel.org/en/Shimoga",
                "http://www.ticketgoose.com/bus-tickets/shimoga-to-belgaum",
                "https://en.wikipedia.org/wiki/Sagara,_Karnataka",
                "http://www.ticketgoose.com/bus-tickets/belgaum-to-shimoga"
            ],
            "longitude": "75.0262551",
            "closest_to": "shimoga",
            "latitude": "14.1666594",
            "address": "Sagara, Sagara taluk, Shimoga district, Karnataka, 577400, India"
        },
        "sagar road": {
            "locType": "trunk",
            "blogLinks": [
                "http://www.holidayiq.com/Shimoga-Sightseeing-748.html"
            ],
            "longitude": "75.2002048",
            "closest_to": "shimoga",
            "latitude": "14.0904271",
            "address": "Sagar Road, Anandapura, Sagara taluk, Shimoga district, Karnataka, 577412, India"
        },
        "kollur": {
            "locType": "village",
            "blogLinks": [
                "http://wikitravel.org/en/Shimoga"
            ],
            "longitude": "74.8137959",
            "closest_to": "shimoga",
            "latitude": "13.8634049",
            "address": "Kollur, \u0c95\u0cc1\u0c82\u0ca6\u0cbe\u0caa\u0cc1\u0cb0 \u0ca4\u0cbe\u0cb2\u0cc2\u0c95\u0cc1, Udupi district, Karnataka, 576220, India"
        },
        "sharavati": {
            "locType": "river",
            "blogLinks": [
                "https://en.wikipedia.org/wiki/Shimoga_district",
                "https://en.wikipedia.org/wiki/Sagara,_Karnataka"
            ],
            "longitude": "74.7647294",
            "closest_to": "shimoga",
            "latitude": "14.2360979",
            "address": "Sharavati, Sagara taluk, Shimoga district, Karnataka, India"
        },
        "hubli": {
            "locType": "city",
            "blogLinks": [
                "http://www.nivalink.com/destination/belgaum",
                "http://www.nivalink.com/destination/shimoga",
                "https://en.wikipedia.org/wiki/Sagara,_Karnataka"
            ],
            "longitude": "75.1379848",
            "closest_to": "shimoga",
            "latitude": "15.3518378",
            "address": "Hubballi - \u0cb9\u0cc1\u0cac\u0ccd\u0cac\u0cb3\u0ccd\u0cb3\u0cbf, Hubballi taluku, Dharwad district, Karnataka, 580020, India"
        },
        "navule": {
            "locType": "village",
            "blogLinks": [
                "https://en.wikipedia.org/wiki/Shimoga_district"
            ],
            "longitude": "75.575263",
            "closest_to": "shimoga",
            "latitude": "13.9549729",
            "address": "Navule, Shivamogga taluku, Shimoga district, Karnataka, India"
        },
        "sharavathi river": {
            "locType": "yes",
            "blogLinks": [
                "https://en.wikipedia.org/wiki/Sagara,_Karnataka"
            ],
            "longitude": "77.6216184337102",
            "closest_to": "shimoga",
            "latitude": "12.9464709",
            "address": "Sharavathi Block, National Games Village Road, Ambedkar Nagar, Ejipura, Bengaluru, Bangalore Urban, Karnataka, 560001, India"
        },
        "subrahmanya temple": {
            "locType": "residential",
            "blogLinks": [
                "http://www.nivalink.com/destination/shimoga"
            ],
            "longitude": "76.2499985",
            "closest_to": "shimoga",
            "latitude": "13.3105901",
            "address": "Subrahmanya Temple Road, Lakshmi Puram, Arasikere, Arasikere taluku, Hassan district, Karnataka, 573103, India"
        },
        "soraba": {
            "locType": "village",
            "blogLinks": [
                "http://wikitravel.org/en/Shimoga",
                "https://en.wikipedia.org/wiki/Sagara,_Karnataka"
            ],
            "longitude": "75.0921749",
            "closest_to": "shimoga",
            "latitude": "14.3794806",
            "address": "Soraba, Soraba taluk, Shimoga district, Karnataka, 577429, India"
        },
        "chikmagalur district": {
            "locType": "county",
            "blogLinks": [
                "https://en.wikipedia.org/wiki/Shimoga_district"
            ],
            "longitude": "75.5",
            "closest_to": "shimoga",
            "latitude": "13.5",
            "address": "Chikmagalur, Chikkamagaluru district, Karnataka, India"
        },
        "sharavati river": {
            "locType": "river",
            "blogLinks": [
                "https://en.wikipedia.org/wiki/Sagara,_Karnataka"
            ],
            "longitude": "74.7647294",
            "closest_to": "shimoga",
            "latitude": "14.2360979",
            "address": "Sharavati, Sagara taluk, Shimoga district, Karnataka, India"
        },
        "prabhudeva": {
            "locType": "fuel",
            "blogLinks": [
                "https://en.wikipedia.org/wiki/Shimoga_district"
            ],
            "longitude": "76.6669578",
            "closest_to": "shimoga",
            "latitude": "12.3927526",
            "address": "Sri Prabhudeva Service Station, Bangalore-Mysore Road, Mayannana Koppalu, Srirangapattana taluk, Mandya district, Karnataka, 571438, India"
        },
        "karnataka": {
            "locType": "atm",
            "blogLinks": [
                "http://www.nivalink.com/destination/belgaum",
                "http://distancecalculator.globefeed.com/India_Distance_Calculator.asp?state=19",
                "http://www.nivalink.com/destination/shimoga",
                "https://en.wikipedia.org/wiki/Sagara,_Karnataka",
                "http://www.ticketgoose.com/bus-tickets/belgaum-to-shimoga",
                "http://wikitravel.org/en/Shimoga",
                "https://www.tripoto.com/weekend-getaways/from-shimoga",
                "https://en.wikipedia.org/wiki/Shimoga_district",
                "http://www.karnatakatourism.org/",
                "https://www.goibibo.com/routeplanner/belgaum-shimoga/",
                "http://www.ticketgoose.com/bus-tickets/shimoga-to-belgaum"
            ],
            "longitude": "76.6639936",
            "closest_to": "shimoga",
            "latitude": "12.3084901",
            "address": "Karnataka, Shalivahana Road, Nazarbad, Mysuru, Mysuru taluk, Mysuru district, Karnataka, 570001, India"
        },
        "gangavati": {
            "locType": "administrative",
            "blogLinks": [
                "https://en.wikipedia.org/wiki/Shimoga_district"
            ],
            "longitude": "76.558686294086",
            "closest_to": "shimoga",
            "latitude": "15.52741825",
            "address": "Gangavati taluku, Koppal district, Karnataka, India"
        },
        "palani": {
            "locType": "recycling",
            "blogLinks": [
                "https://www.tripoto.com/weekend-getaways/from-shimoga"
            ],
            "longitude": "77.6168951",
            "closest_to": "shimoga",
            "latitude": "12.9537341",
            "address": "Palani, Neelasandra Bazaar Street, Austin Town BDA Layout, Neelasandra, Bengaluru, Bangalore Urban, Karnataka, 560001, India"
        },
        "davangere": {
            "locType": "commercial",
            "blogLinks": [
                "https://en.wikipedia.org/wiki/Shimoga_district"
            ],
            "longitude": "75.9197507909343",
            "closest_to": "shimoga",
            "latitude": "14.4664457",
            "address": "Davangere City Corporation Offices, K.B. Extension, Davanagere, Davanagere taluku, Davanagere district, Karnataka, 577000, India"
        },
        "renukamba": {
            "locType": "restaurant",
            "blogLinks": [
                "https://en.wikipedia.org/wiki/Shimoga_district"
            ],
            "longitude": "75.932718",
            "closest_to": "shimoga",
            "latitude": "14.4583725",
            "address": "Renukamba Family Dabha, SH76, K.B. Extension, Davanagere, Davanagere taluku, Davanagere district, Karnataka, 577005, India"
        },
        "thirthahalli": {
            "locType": "trunk",
            "blogLinks": [
                "https://en.wikipedia.org/wiki/Shimoga_district"
            ],
            "longitude": "74.9626368",
            "closest_to": "shimoga",
            "latitude": "13.4265327",
            "address": "Thirthahalli - Udupi Highway, Shivapura, Karkala taluk, Udupi district, Karnataka, India"
        },
        "hosagadde": {
            "locType": "locality",
            "blogLinks": [
                "https://en.wikipedia.org/wiki/Shimoga_district",
                "https://en.wikipedia.org/wiki/Sagara,_Karnataka"
            ],
            "longitude": "74.7527463",
            "closest_to": "shimoga",
            "latitude": "14.3274092",
            "address": "Hosagadde, Kelaginamane, Siddapura taluk, Uttara Kannada, Karnataka, India"
        },
        "baga": {
            "locType": "village",
            "blogLinks": [
                "https://www.tripoto.com/weekend-getaways/from-shimoga"
            ],
            "longitude": "76.9300452",
            "closest_to": "belgaum",
            "latitude": "17.6148763",
            "address": "Baga Hipparaga, Basavakalyana taluku, Bidar district, Karnataka, India"
        },
        "sambra": {
            "locType": "village",
            "blogLinks": [
                "http://www.ticketgoose.com/bus-tickets/shimoga-to-belgaum",
                "http://www.ticketgoose.com/bus-tickets/belgaum-to-shimoga"
            ],
            "longitude": "77.3492254",
            "closest_to": "belgaum",
            "latitude": "16.6128965",
            "address": "Sambra, Yadagiri taluku, Yadagiri district, Karnataka, India"
        },
        "thirthahalli taluk": {
            "locType": "trunk",
            "blogLinks": [
                "https://en.wikipedia.org/wiki/Shimoga_district"
            ],
            "longitude": "75.0382054",
            "closest_to": "shimoga",
            "latitude": "13.4738839",
            "address": "Thirthahalli - Udupi Highway, Someshwara, Karkala taluk, Udupi district, Karnataka, 576129, India"
        },
        "ranebennur": {
            "locType": "town",
            "blogLinks": [
                "https://en.wikipedia.org/wiki/Sagara,_Karnataka"
            ],
            "longitude": "75.6341529",
            "closest_to": "shimoga",
            "latitude": "14.6165795",
            "address": "Ranebennur, Ranebennuru taluk, Haveri district, Karnataka, 581115, India"
        },
        "samskara": {
            "locType": "place_of_worship",
            "blogLinks": [
                "https://en.wikipedia.org/wiki/Shimoga_district"
            ],
            "longitude": "75.6177217",
            "closest_to": "shimoga",
            "latitude": "12.6652402",
            "address": "Sarppa Samskara Yaga Shaala, Car Street, Kukke Subrahmanya, Sulya taluk, Dakshina Kannada, Karnataka, 574238, India"
        },
        "bhadravati river": {
            "locType": "administrative",
            "blogLinks": [
                "https://www.tripoto.com/weekend-getaways/from-shimoga"
            ],
            "longitude": "75.7674369420634",
            "closest_to": "shimoga",
            "latitude": "13.90493755",
            "address": "Bhadravati taluk, Shimoga district, Karnataka, India"
        },
        "sorab": {
            "locType": "secondary",
            "blogLinks": [
                "https://en.wikipedia.org/wiki/Shimoga_district",
                "http://www.holidayiq.com/Shimoga-Sightseeing-748.html"
            ],
            "longitude": "75.1114212",
            "closest_to": "shimoga",
            "latitude": "14.2779168",
            "address": "Sorab Ulavi Rd, Ulavi, Soraba taluk, Shimoga district, Karnataka, 577434, India"
        },
        "south": {
            "locType": "residential",
            "blogLinks": [
                "http://www.nivalink.com/destination/shimoga"
            ],
            "longitude": "77.8040874",
            "closest_to": "shimoga",
            "latitude": "13.2942848",
            "address": "s, Vijayapura, Devanahalli taluk, Bangalore Rural, Karnataka, 562135, India"
        },
        "shimoga city": {
            "locType": "city",
            "blogLinks": [
                "https://en.wikipedia.org/wiki/Shimoga_district"
            ],
            "longitude": "75.569737",
            "closest_to": "shimoga",
            "latitude": "13.9311723",
            "address": "Shivamogga, Shivamogga taluku, Shimoga district, Karnataka, 577200, India"
        },
        "mandya": {
            "locType": "town",
            "blogLinks": [
                "https://en.wikipedia.org/wiki/Shimoga_district"
            ],
            "longitude": "76.8937392",
            "closest_to": "shimoga",
            "latitude": "12.5217836",
            "address": "Mandya, Mandya taluk, Mandya district, Karnataka, 571401, India"
        },
        "kuvempu": {
            "locType": "artwork",
            "blogLinks": [
                "https://en.wikipedia.org/wiki/Shimoga_district"
            ],
            "longitude": "77.5064032",
            "closest_to": "shimoga",
            "latitude": "12.9560369",
            "address": "Kuvempu, Kengeri Main Road, ITI Layout, Jnana Bharathi, Nagadevanahalli, Bangalore Urban, Karnataka, 560056, India"
        },
        "sorab road": {
            "locType": "unclassified",
            "blogLinks": [
                "https://en.wikipedia.org/wiki/Sagara,_Karnataka"
            ],
            "longitude": "75.0293897",
            "closest_to": "shimoga",
            "latitude": "14.1747341",
            "address": "Sorab Road, Sagara, Sagara taluk, Shimoga district, Karnataka, 577400, India"
        }
    },
    "belgaum": {
        "osm_id": "316417174",
        "display_name": "Belgaum, Belgaum district, Karnataka, India",
        "importance": 0.65,
        "place_id": "1393576",
        "class": "place",
        "boundingbox": [
            "15.693333",
            "16.973333",
            "74.11",
            "75.39"
        ],
        "type": "county",
        "lon": "74.75",
        "licence": "Data \u00a9 OpenStreetMap contributors, ODbL 1.0. http://www.openstreetmap.org/copyright",
        "osm_type": "node",
        "lat": "16.333333",
        "icon": "https://nominatim.openstreetmap.org/images/mapicons/poi_boundary_administrative.p.20.png"
    },
    "shimoga": {
        "osm_id": "245625473",
        "display_name": "Shivamogga, Shivamogga taluku, Shimoga district, Karnataka, 577200, India",
        "importance": 0.55,
        "place_id": "639702",
        "class": "place",
        "boundingbox": [
            "13.7711723",
            "14.0911723",
            "75.409737",
            "75.729737"
        ],
        "type": "city",
        "lon": "75.569737",
        "licence": "Data \u00a9 OpenStreetMap contributors, ODbL 1.0. http://www.openstreetmap.org/copyright",
        "osm_type": "node",
        "lat": "13.9311723",
        "icon": "https://nominatim.openstreetmap.org/images/mapicons/poi_place_city.p.20.png"
    }
}