{
    "mentions": {
        "bijapur": {
            "locType": "city",
            "blogLinks": [
                "http://www.tourism-of-india.com/karnataka/"
            ],
            "longitude": "75.7175387",
            "closest_to": "belgaum",
            "latitude": "16.8269911",
            "address": "Vijayapura, Vijayapura taluk, Bijapur district, Karnataka, 586101, India"
        },
        "delhi": {
            "locType": "trunk",
            "blogLinks": [
                "https://en.wikipedia.org/wiki/Belgaum"
            ],
            "longitude": "77.6666062",
            "closest_to": "mysore",
            "latitude": "12.9212473",
            "address": "Outer Ring Road, Green Glen Layout, Iblur, Bengaluru, Bangalore Urban, Karnataka, 560001, India"
        },
        "central india": {
            "locType": "bank",
            "blogLinks": [
                "http://www.nivalink.com/destination/kolhapur"
            ],
            "longitude": "77.5375425",
            "closest_to": "mysore",
            "latitude": "12.9916895",
            "address": "Central Bank Of India, 8th Main Road, Rajajinagar 3rd Block, Kurubara Halli, Bengaluru, Bangalore Urban, Karnataka, 560001, India"
        },
        "oman": {
            "locType": "residential",
            "blogLinks": [
                "http://www.tourism-of-india.com/karnataka/"
            ],
            "longitude": "77.6521686538304",
            "closest_to": "mysore",
            "latitude": "12.92462395",
            "address": "Oman Topaz, Iblur, Bengaluru, Bangalore Urban, Karnataka, 560001, India"
        },
        "jog falls": {
            "locType": "locality",
            "blogLinks": [
                "http://wikitravel.org/en/Hubli"
            ],
            "longitude": "74.8128715",
            "closest_to": "mysore",
            "latitude": "14.2276106",
            "address": "Jog Falls, Joga - Kargal, Sagara taluk, Shimoga district, Karnataka, India"
        },
        "khanapur road": {
            "locType": "primary",
            "blogLinks": [
                "https://en.wikipedia.org/wiki/Belgaum"
            ],
            "longitude": "74.5069034",
            "closest_to": "mysore",
            "latitude": "15.8370976",
            "address": "Khanapur Road, Angol, Belagavi, Belagavi taluku, Belgaum district, Karnataka, 590001, India"
        },
        "andhra pradesh": {
            "locType": "hotel",
            "blogLinks": [
                "http://www.tourism-of-india.com/karnataka/"
            ],
            "longitude": "79.3452447",
            "closest_to": "mysore",
            "latitude": "13.6841958",
            "address": "Karnataka, West Mada Street, Srivari Temple, Tirumala, Chittoor, Andhra Pradesh, 517504, India"
        },
        "gokarna": {
            "locType": "town",
            "blogLinks": [
                "http://www.mapsofindia.com/karnataka/tourism/"
            ],
            "longitude": "74.3184418",
            "closest_to": "mysore",
            "latitude": "14.5439629",
            "address": "Gokarna, Kumata taluk, Uttara Kannada, Karnataka, 581326, India"
        },
        "north karnataka": {
            "locType": "service",
            "blogLinks": [
                "https://en.wikipedia.org/wiki/Belgaum",
                "http://wikitravel.org/en/Hubli"
            ],
            "longitude": "77.7660547",
            "closest_to": "mysore",
            "latitude": "13.0217151",
            "address": "N, Chaithanya Samarpan, Kadugodi, Kannamangala, Bangalore Urban, Karnataka, 560066, India"
        },
        "nandi hills": {
            "locType": "hotel",
            "blogLinks": [
                "http://www.mapsofindia.com/karnataka/tourism/"
            ],
            "longitude": "77.7194741670394",
            "closest_to": "mysore",
            "latitude": "13.268142",
            "address": "Nandi Upahara, Nandhi Hills Road, Kottige Thimmanahalli, Devanahalli taluk, Bangalore Rural, Karnataka, India"
        },
        "coorg": {
            "locType": "town",
            "blogLinks": [
                "http://www.tourism-of-india.com/karnataka/"
            ],
            "longitude": "75.740031",
            "closest_to": "mysore",
            "latitude": "12.4204003",
            "address": "Madikeri, Madikeri taluku, Kodagu, Karnataka, India"
        },
        "gokak falls": {
            "locType": "waterfall",
            "blogLinks": [
                "http://wikitravel.org/en/Hubli"
            ],
            "longitude": "74.7775947",
            "closest_to": "mysore",
            "latitude": "16.1918383",
            "address": "Gokak Falls, Gokak taluku, Belgaum district, Karnataka, India"
        },
        "kalghatgi": {
            "locType": "primary",
            "blogLinks": [
                "http://wikitravel.org/en/Hubli"
            ],
            "longitude": "75.0064745",
            "closest_to": "mysore",
            "latitude": "15.1756059",
            "address": "Kalghatgi Road, Hindasageri, Kalaghatagi taluku, Dharwad district, Karnataka, 581204, India"
        },
        "karnataka state": {
            "locType": "university",
            "blogLinks": [
                "https://en.wikipedia.org/wiki/Belgaum"
            ],
            "longitude": "76.6236231",
            "closest_to": "mysore",
            "latitude": "12.315382",
            "address": "Karnataka State Open University, \u0cb9\u0cc1\u0ca3\u0cb8\u0cc2\u0cb0\u0cc1 \u0cb0\u0cb8\u0ccd\u0ca4\u0cc6, Gokulam, Mysuru, Mysuru taluk, Mysuru district, Karnataka, 570001, India"
        },
        "bangalore": {
            "locType": "city",
            "blogLinks": [
                "https://en.wikipedia.org/wiki/Belgaum",
                "http://www.nivalink.com/destination/belgaum",
                "http://goindia.about.com/od/karnataka/tp/karnataka.htm",
                "http://geeksblogs.com/belgaum-city/",
                "http://www.nivalink.com/destination/kolhapur",
                "http://www.godakshin.com/travel-guides/4-exciting-places-visit-around-bangalore-732.html",
                "https://www.quora.com/What-are-some-places-to-visit-for-a-day-outing-near-Belgaum",
                "http://www.mapsofindia.com/karnataka/tourism/",
                "http://www.tourism-of-india.com/karnataka/"
            ],
            "longitude": "77.5912997",
            "closest_to": "mysore",
            "latitude": "12.9791198",
            "address": "Bengaluru, Bangalore Urban, Karnataka, 560001, India"
        },
        "karnatka": {
            "locType": "bank",
            "blogLinks": [
                "https://en.wikipedia.org/wiki/Belgaum"
            ],
            "longitude": "77.5679508",
            "closest_to": "mysore",
            "latitude": "12.9500847",
            "address": "Karnatka Rajya Kaigarika Sahakari Bank, Bull Temple Road, Mavalli, Chamarajapete, Bengaluru, Bangalore Urban, Karnataka, 560001, India"
        },
        "kalaburgi": {
            "locType": "county",
            "blogLinks": [
                "https://en.wikipedia.org/wiki/Belgaum"
            ],
            "longitude": "77.083333",
            "closest_to": "belgaum",
            "latitude": "17.166667",
            "address": "Kalaburgi, Kalaburagi district, Karnataka, India"
        },
        "ulavi": {
            "locType": "village",
            "blogLinks": [
                "http://wikitravel.org/en/Hubli"
            ],
            "longitude": "75.109001",
            "closest_to": "mysore",
            "latitude": "14.2716118",
            "address": "Ulavi, Soraba taluk, Shimoga district, Karnataka, 577434, India"
        },
        "chitradurga fort": {
            "locType": "attraction",
            "blogLinks": [
                "http://goindia.about.com/od/karnataka/tp/karnataka.htm"
            ],
            "longitude": "76.3948635401208",
            "closest_to": "mysore",
            "latitude": "14.21296355",
            "address": "Chitradurga Fort, Kote Road, Devalagiri 1st Phase, Chitradurga, Chitradurga taluku, Chitradurga district, Karnataka, 577500, India"
        },
        "state highway 20": {
            "locType": "commercial",
            "blogLinks": [
                "https://en.wikipedia.org/wiki/Belgaum"
            ],
            "longitude": "77.6136215456766",
            "closest_to": "mysore",
            "latitude": "12.9741486",
            "address": "Karnataka State Power Transmission Corporation Limited, Ashok Nagar, Bengaluru, Bangalore Urban, Karnataka, 560001, India"
        },
        "badami": {
            "locType": "town",
            "blogLinks": [
                "http://goindia.about.com/od/karnataka/tp/karnataka.htm"
            ],
            "longitude": "75.6807865",
            "closest_to": "mysore",
            "latitude": "15.9203874",
            "address": "Badami, Badami taluku, Bagalkote district, Karnataka, 587200, India"
        },
        "bangalore-chennai": {
            "locType": "trunk",
            "blogLinks": [
                "http://www.godakshin.com/travel-guides/4-exciting-places-visit-around-bangalore-732.html"
            ],
            "longitude": "78.3144556",
            "closest_to": "mysore",
            "latitude": "13.1522603",
            "address": "Bangalore Chennai Road, Bimapura, Mulubagilu taluk, Kolar district, Karnataka, 563131, India"
        },
        "halebid": {
            "locType": "village",
            "blogLinks": [
                "http://www.tourism-of-india.com/karnataka/"
            ],
            "longitude": "75.9918793",
            "closest_to": "mysore",
            "latitude": "13.2167959",
            "address": "Halebidu, Beluru taluk, Hassan district, Karnataka, 573121, India"
        },
        "ratnagiri highway": {
            "locType": "secondary",
            "blogLinks": [
                "http://www.nivalink.com/destination/kolhapur",
                "http://www.nivalink.com/destination/belgaum"
            ],
            "longitude": "75.7727724",
            "closest_to": "mysore",
            "latitude": "13.3292344",
            "address": "Ratnagiri Road, Basavannahalli, Chikkamagaluru, Chikkamagaluru taluku, Chikkamagaluru district, Karnataka, 577101, India"
        },
        "karnataka": {
            "locType": "atm",
            "blogLinks": [
                "https://en.wikipedia.org/wiki/Belgaum",
                "http://www.nivalink.com/destination/belgaum",
                "http://distancecalculator.globefeed.com/India_Distance_Calculator.asp?state=19",
                "http://goindia.about.com/od/karnataka/tp/karnataka.htm",
                "http://geeksblogs.com/belgaum-city/",
                "http://www.nivalink.com/destination/kolhapur",
                "http://www.godakshin.com/travel-guides/4-exciting-places-visit-around-bangalore-732.html",
                "https://www.quora.com/What-are-some-places-to-visit-for-a-day-outing-near-Belgaum",
                "http://www.mapsofindia.com/karnataka/tourism/",
                "http://www.tourism-of-india.com/karnataka/",
                "http://journeymart.com/de/india/karnataka/sightseeing/default.aspx",
                "http://www.karnatakatourism.org/",
                "http://www.mapsofindia.com/mysore/tourist-attractions/",
                "http://wikitravel.org/en/Hubli"
            ],
            "longitude": "76.6639936",
            "closest_to": "mysore",
            "latitude": "12.3084901",
            "address": "Karnataka, Shalivahana Road, Nazarbad, Mysuru, Mysuru taluk, Mysuru district, Karnataka, 570001, India"
        },
        "karwar": {
            "locType": "town",
            "blogLinks": [
                "https://en.wikipedia.org/wiki/Belgaum",
                "http://wikitravel.org/en/Hubli"
            ],
            "longitude": "74.1319229",
            "closest_to": "mysore",
            "latitude": "14.8120931",
            "address": "Karwar, Karavara taluk, Uttara Kannada, Karnataka, 581300, India"
        },
        "hubli": {
            "locType": "city",
            "blogLinks": [
                "http://www.nivalink.com/destination/kolhapur",
                "https://en.wikipedia.org/wiki/Belgaum",
                "http://www.nivalink.com/destination/belgaum",
                "http://wikitravel.org/en/Hubli"
            ],
            "longitude": "75.1379848",
            "closest_to": "mysore",
            "latitude": "15.3518378",
            "address": "Hubballi - \u0cb9\u0cc1\u0cac\u0ccd\u0cac\u0cb3\u0ccd\u0cb3\u0cbf, Hubballi taluku, Dharwad district, Karnataka, 580020, India"
        },
        "pattadakal": {
            "locType": "attraction",
            "blogLinks": [
                "http://www.tourism-of-india.com/karnataka/",
                "http://journeymart.com/de/india/karnataka/sightseeing/default.aspx",
                "http://www.mapsofindia.com/karnataka/tourism/"
            ],
            "longitude": "75.815884048161",
            "closest_to": "mysore",
            "latitude": "15.9506349",
            "address": "Pattadakal Temples, SH14, \u0cac\u0cbe\u0c9a\u0cbf\u0ca8\u0c97\u0cc1\u0ca1\u0ccd\u0ca1, Badami taluku, Bagalkote district, Karnataka, 587211, India"
        },
        "hyderabad": {
            "locType": "primary",
            "blogLinks": [
                "http://www.tourism-of-india.com/karnataka/",
                "https://en.wikipedia.org/wiki/Belgaum"
            ],
            "longitude": "77.5344002",
            "closest_to": "belgaum",
            "latitude": "17.9003114",
            "address": "Hyderabad Road, Old City, Bidar, Bidar taluku, Bidar district, Karnataka, 585400, India"
        },
        "kolkata": {
            "locType": "restaurant",
            "blogLinks": [
                "https://en.wikipedia.org/wiki/Belgaum"
            ],
            "longitude": "77.5478044",
            "closest_to": "mysore",
            "latitude": "12.9845159",
            "address": "Kolkata Biryani And Rolls, 1st Main Basaveshwaranagar, Rajajinagar 3rd Block, Dasarahalli, Bengaluru, Bangalore Urban, Karnataka, 560010, India"
        },
        "golden temple": {
            "locType": "place_of_worship",
            "blogLinks": [
                "http://goindia.about.com/od/karnataka/tp/karnataka.htm"
            ],
            "longitude": "75.9674656",
            "closest_to": "mysore",
            "latitude": "12.430821",
            "address": "Padmasambhava Buddhist Vihara (Golden Temple), MDR21, Koppa, Piriyapattana taluk, Mysuru district, Karnataka, India"
        },
        "bagewadi": {
            "locType": "village",
            "blogLinks": [
                "http://wikitravel.org/en/Hubli"
            ],
            "longitude": "74.721498",
            "closest_to": "mysore",
            "latitude": "16.300076",
            "address": "Bagewadi, Hukkeri taluku, Belgaum district, Karnataka, 591305, India"
        },
        "mysore": {
            "locType": "city",
            "blogLinks": [
                "http://www.mapsofindia.com/mysore/tourist-attractions/"
            ],
            "longitude": "76.6553609",
            "closest_to": "mysore",
            "latitude": "12.3051828",
            "address": "Mysuru, Mysuru taluk, Mysuru district, Karnataka, 570001, India"
        },
        "chennamma circle": {
            "locType": "trunk",
            "blogLinks": [
                "http://wikitravel.org/en/Hubli"
            ],
            "longitude": "74.511712864861",
            "closest_to": "mysore",
            "latitude": "15.86722145",
            "address": "Rani Chennamma Circle, Cantonment, Belagavi, Belagavi taluku, Belgaum district, Karnataka, 590001, India"
        },
        "hubli-dharwad road": {
            "locType": "primary",
            "blogLinks": [
                "http://wikitravel.org/en/Hubli"
            ],
            "longitude": "75.0366396",
            "closest_to": "mysore",
            "latitude": "15.4231154",
            "address": "Hubli Dharwad Road, Gandhinagar, Navalur, Dharawada taluku, Dharwad district, Karnataka, 580002, India"
        },
        "mumbai": {
            "locType": "restaurant",
            "blogLinks": [
                "http://www.nivalink.com/destination/kolhapur",
                "http://www.tourism-of-india.com/karnataka/",
                "https://en.wikipedia.org/wiki/Belgaum",
                "http://www.nivalink.com/destination/belgaum",
                "http://geeksblogs.com/belgaum-city/"
            ],
            "longitude": "77.5718472",
            "closest_to": "mysore",
            "latitude": "13.0002869",
            "address": "Mumbai Spice, 18/2, 10th Cross, Malleswaram, Vyalikaval, Malleswaram, Bengaluru, Bangalore Urban, Karnataka, 560003, India"
        },
        "nagarhole national park": {
            "locType": "national_park",
            "blogLinks": [
                "http://www.tourism-of-india.com/karnataka/",
                "http://journeymart.com/de/india/karnataka/sightseeing/default.aspx"
            ],
            "longitude": "76.1537073415874",
            "closest_to": "mysore",
            "latitude": "12.0600362",
            "address": "Nagarahole National Park, Virajpet taluk, Kodagu, Karnataka, India"
        },
        "harsha": {
            "locType": "variety_store",
            "blogLinks": [
                "http://wikitravel.org/en/Hubli"
            ],
            "longitude": "76.661213",
            "closest_to": "mysore",
            "latitude": "16.1927088",
            "address": "Harsha Ladies Corner, Hutti Main Road, Hutti Camp, Hatti, Lingasuguru taluku, Raichur district, Karnataka, 584115, India"
        },
        "markandeya": {
            "locType": "river",
            "blogLinks": [
                "https://en.wikipedia.org/wiki/Belgaum"
            ],
            "longitude": "74.5774895",
            "closest_to": "mysore",
            "latitude": "15.9707453",
            "address": "Markandeya, Belagavi taluku, Belgaum district, Karnataka, India"
        },
        "chamundi temple": {
            "locType": "place_of_worship",
            "blogLinks": [
                "http://www.mapsofindia.com/mysore/tourist-attractions/"
            ],
            "longitude": "76.6136530009183",
            "closest_to": "mysore",
            "latitude": "12.29311595",
            "address": "Ganapati and Chamundi Temple, Flat Houses (apartment) Road, Ramakrishna Nagara, Mysuru, Mysuru taluk, Mysuru district, Karnataka, 570023, India"
        },
        "aihole": {
            "locType": "village",
            "blogLinks": [
                "http://wikitravel.org/en/Hubli",
                "http://goindia.about.com/od/karnataka/tp/karnataka.htm"
            ],
            "longitude": "75.8819129",
            "closest_to": "mysore",
            "latitude": "16.0192298",
            "address": "Aihole, Hunagunda taluku, Bagalkote district, Karnataka, India"
        },
        "kerala": {
            "locType": "restaurant",
            "blogLinks": [
                "http://www.tourism-of-india.com/karnataka/",
                "http://journeymart.com/de/india/karnataka/sightseeing/default.aspx",
                "http://goindia.about.com/od/karnataka/tp/karnataka.htm"
            ],
            "longitude": "77.6382683",
            "closest_to": "mysore",
            "latitude": "12.9726449",
            "address": "New Life Kerala Mess, Sai Baba Mandira Road, Mottappanapalaya, Indiranagar, Bengaluru, Bangalore Urban, Karnataka, 560001, India"
        },
        "calcutta": {
            "locType": "restaurant",
            "blogLinks": [
                "http://www.tourism-of-india.com/karnataka/"
            ],
            "longitude": "77.6031547",
            "closest_to": "mysore",
            "latitude": "12.9753406",
            "address": "Oh! Calcutta, Church Street, Tasker Town, Ashok Nagar, Bengaluru, Bangalore Urban, Karnataka, 560001, India"
        },
        "goa": {
            "locType": "restaurant",
            "blogLinks": [
                "http://www.nivalink.com/destination/kolhapur",
                "http://www.tourism-of-india.com/karnataka/",
                "https://en.wikipedia.org/wiki/Belgaum",
                "http://www.nivalink.com/destination/belgaum"
            ],
            "longitude": "77.6200027",
            "closest_to": "mysore",
            "latitude": "12.9750047",
            "address": "Carnival De Goa, Bhaskaran Road, Gupta Layout, Halasuru, Bengaluru, Bangalore Urban, Karnataka, 560001, India"
        },
        "belgaum airport": {
            "locType": "aerodrome",
            "blogLinks": [
                "https://en.wikipedia.org/wiki/Belgaum"
            ],
            "longitude": "74.6189763983851",
            "closest_to": "mysore",
            "latitude": "15.8602827",
            "address": "Belgaum Airport, SH20, Balekundri, Belagavi taluku, Belgaum district, Karnataka, 591124, India"
        },
        "talakadu": {
            "locType": "village",
            "blogLinks": [
                "http://www.godakshin.com/travel-guides/4-exciting-places-visit-around-bangalore-732.html"
            ],
            "longitude": "77.0293979",
            "closest_to": "mysore",
            "latitude": "12.1919942",
            "address": "Talakadu, Tirumakudalu Narasipura taluk, Mysuru district, Karnataka, India"
        },
        "yagachi river": {
            "locType": "river",
            "blogLinks": [
                "http://goindia.about.com/od/karnataka/tp/karnataka.htm"
            ],
            "longitude": "75.950911",
            "closest_to": "mysore",
            "latitude": "13.0658494",
            "address": "Yagachi, Beluru taluk, Hassan district, Karnataka, India"
        },
        "mysore palace": {
            "locType": "yes",
            "blogLinks": [
                "http://www.mapsofindia.com/mysore/tourist-attractions/"
            ],
            "longitude": "76.6539249338108",
            "closest_to": "mysore",
            "latitude": "12.3052915",
            "address": "Mysore Palace, Sayyaji Rao Road, Vani Vilas, Mysuru, Mysuru taluk, Mysuru district, Karnataka, 570001, India"
        },
        "talakad": {
            "locType": "picnic_site",
            "blogLinks": [
                "http://www.tourism-of-india.com/karnataka/"
            ],
            "longitude": "77.026146",
            "closest_to": "mysore",
            "latitude": "12.1731685",
            "address": "Talakad Riverside, SH79, Mavinahalli, Tirumakudalu Narasipura taluk, Mysuru district, Karnataka, India"
        },
        "new city": {
            "locType": "supermarket",
            "blogLinks": [
                "https://en.wikipedia.org/wiki/Belgaum"
            ],
            "longitude": "77.6736268",
            "closest_to": "mysore",
            "latitude": "12.9851864",
            "address": "New City Super Market, Kaggadasspura Main Road, Putanna Garden, C V Raman Nagar, A Narayanapura, Bangalore Urban, Karnataka, 560093, India"
        },
        "hassan": {
            "locType": "town",
            "blogLinks": [
                "http://goindia.about.com/od/karnataka/tp/karnataka.htm"
            ],
            "longitude": "76.0992703",
            "closest_to": "mysore",
            "latitude": "13.0070817",
            "address": "Hassan, Hasana taluk, Hassan district, Karnataka, 573201, India"
        },
        "p.b road": {
            "locType": "primary",
            "blogLinks": [
                "http://wikitravel.org/en/Hubli"
            ],
            "longitude": "75.1368445",
            "closest_to": "mysore",
            "latitude": "15.3416245",
            "address": "Pune Bangalore Road, Chanakya Puri, Old Hubli, Hubballi - \u0cb9\u0cc1\u0cac\u0ccd\u0cac\u0cb3\u0ccd\u0cb3\u0cbf, Hubballi taluku, Dharwad district, Karnataka, 580020, India"
        },
        "bahubali": {
            "locType": "place_of_worship",
            "blogLinks": [
                "http://www.tourism-of-india.com/karnataka/"
            ],
            "longitude": "76.4846128",
            "closest_to": "mysore",
            "latitude": "12.8540505",
            "address": "Bahubali Statue, SH8, Shravanabelagola, Channarayapattana taluk, Hassan district, Karnataka, 573135, India"
        },
        "brahma": {
            "locType": "place_of_worship",
            "blogLinks": [
                "http://www.nivalink.com/destination/kolhapur"
            ],
            "longitude": "75.9026723908286",
            "closest_to": "mysore",
            "latitude": "14.4564816",
            "address": "Sadguru Brahma Chaitanya Mandira, Ring Road, Vinobanagara, Davanagere, Davanagere taluku, Davanagere district, Karnataka, 577004, India"
        },
        "udupi": {
            "locType": "city",
            "blogLinks": [
                "http://journeymart.com/de/india/karnataka/sightseeing/default.aspx",
                "http://www.mapsofindia.com/karnataka/tourism/"
            ],
            "longitude": "74.7473232",
            "closest_to": "mysore",
            "latitude": "13.3419169",
            "address": "Udupi, Udupi taluku, Udupi district, Karnataka, 576101, India"
        },
        "mahalaxmi temple": {
            "locType": "place_of_worship",
            "blogLinks": [
                "http://www.nivalink.com/destination/kolhapur"
            ],
            "longitude": "74.7568329",
            "closest_to": "mysore",
            "latitude": "13.1857774",
            "address": "Uchila Mahalaxmi Temple, NH66, Yermal, Udupi taluku, Udupi district, Karnataka, India"
        },
        "hampi": {
            "locType": "village",
            "blogLinks": [
                "http://www.tourism-of-india.com/karnataka/",
                "http://journeymart.com/de/india/karnataka/sightseeing/default.aspx",
                "http://wikitravel.org/en/Hubli",
                "http://goindia.about.com/od/karnataka/tp/karnataka.htm",
                "http://www.mapsofindia.com/karnataka/tourism/"
            ],
            "longitude": "76.4606199",
            "closest_to": "mysore",
            "latitude": "15.3359769",
            "address": "Hampe, Hosapete taluk, Bellary district, Karnataka, 583239, India"
        },
        "bandipur": {
            "locType": "village",
            "blogLinks": [
                "http://www.tourism-of-india.com/karnataka/"
            ],
            "longitude": "76.6285739",
            "closest_to": "mysore",
            "latitude": "11.6662708",
            "address": "Bandipur, Gundlupet taluk, Chamarajanagar district, Karnataka, India"
        },
        "chalukya": {
            "locType": "residential",
            "blogLinks": [
                "http://www.tourism-of-india.com/karnataka/"
            ],
            "longitude": "77.5192989605445",
            "closest_to": "mysore",
            "latitude": "12.9617207",
            "address": "Chalukya Nagar, Chandra Layout, GKW Layout, Bangalore Urban, Karnataka, 560072, India"
        },
        "badami of karnataka": {
            "locType": "administrative",
            "blogLinks": [
                "http://www.mapsofindia.com/karnataka/tourism/"
            ],
            "longitude": "75.6419100722642",
            "closest_to": "mysore",
            "latitude": "15.98301895",
            "address": "Badami taluku, Bagalkote district, Karnataka, India"
        },
        "dharwad": {
            "locType": "city",
            "blogLinks": [
                "https://en.wikipedia.org/wiki/Belgaum",
                "http://wikitravel.org/en/Hubli"
            ],
            "longitude": "75.0066516",
            "closest_to": "mysore",
            "latitude": "15.4540505",
            "address": "Dharwad, Dharawada taluku, Dharwad district, Karnataka, 580001, India"
        },
        "manipal": {
            "locType": "town",
            "blogLinks": [
                "http://www.mapsofindia.com/karnataka/tourism/"
            ],
            "longitude": "74.7870308",
            "closest_to": "mysore",
            "latitude": "13.3519723",
            "address": "Manipal, Udupi taluku, Udupi district, Karnataka, India"
        },
        "tungabhadra dam": {
            "locType": "dam",
            "blogLinks": [
                "http://wikitravel.org/en/Hubli"
            ],
            "longitude": "76.3339514796436",
            "closest_to": "mysore",
            "latitude": "15.2639032",
            "address": "Tungabhadra Dam, Hosapete taluk, Bellary district, Karnataka, India"
        },
        "venkatappa art gallery": {
            "locType": "museum",
            "blogLinks": [
                "http://www.mapsofindia.com/karnataka/tourism/"
            ],
            "longitude": "77.5952077",
            "closest_to": "mysore",
            "latitude": "12.9742592",
            "address": "Venkatappa Art Gallery, Kasturba Road, Shantala Nagar, MacIvor Town, Bengaluru, Bangalore Urban, Karnataka, 560001, India"
        },
        "garden city": {
            "locType": "bank",
            "blogLinks": [
                "http://www.tourism-of-india.com/karnataka/"
            ],
            "longitude": "80.2197941",
            "closest_to": "mysore",
            "latitude": "13.0365141",
            "address": "Karnataka Bank, Postal Colony 2nd Street, Postal Colony, Ashok Nagar, Chennai City Corporation Limits, Chennai district, Tamil Nadu, 600033, India"
        },
        "banavasi": {
            "locType": "town",
            "blogLinks": [
                "http://wikitravel.org/en/Hubli"
            ],
            "longitude": "75.0129845",
            "closest_to": "mysore",
            "latitude": "14.5389738",
            "address": "Banavasi, Shirasi taluk, Uttara Kannada, Karnataka, India"
        },
        "pune bangalore route": {
            "locType": "trunk",
            "blogLinks": [
                "http://www.nivalink.com/destination/kolhapur"
            ],
            "longitude": "75.4974847",
            "closest_to": "mysore",
            "latitude": "14.7156528",
            "address": "Pune-Bangalore Road, Motebennur, Byadagi taluk, Haveri district, Karnataka, 581106, India"
        },
        "malaprabha": {
            "locType": "river",
            "blogLinks": [
                "http://www.tourism-of-india.com/karnataka/"
            ],
            "longitude": "75.1982668",
            "closest_to": "mysore",
            "latitude": "15.8914192",
            "address": "Malaprabha, Ramadurga taluku, Belgaum district, Karnataka, India"
        },
        "kaveri": {
            "locType": "river",
            "blogLinks": [
                "http://www.godakshin.com/travel-guides/4-exciting-places-visit-around-bangalore-732.html"
            ],
            "longitude": "77.0635531",
            "closest_to": "mysore",
            "latitude": "12.1687878",
            "address": "Kaveri, Kollegala taluk, Chamarajanagar district, Karnataka, India"
        },
        "krishnagiri": {
            "locType": "neighbourhood",
            "blogLinks": [
                "http://www.godakshin.com/travel-guides/4-exciting-places-visit-around-bangalore-732.html"
            ],
            "longitude": "75.1096736",
            "closest_to": "mysore",
            "latitude": "15.3375394",
            "address": "Krishnagiri Colony, Padmaraj Nagar, Hubballi - \u0cb9\u0cc1\u0cac\u0ccd\u0cac\u0cb3\u0ccd\u0cb3\u0cbf, Hubballi taluku, Dharwad district, Karnataka, 580020, India"
        },
        "chennakesava temple": {
            "locType": "place_of_worship",
            "blogLinks": [
                "http://www.mapsofindia.com/karnataka/tourism/"
            ],
            "longitude": "75.8603311",
            "closest_to": "mysore",
            "latitude": "13.1629239",
            "address": "Chennakesava Temple, NH73, Navilahalli, Beluru taluk, Hassan district, Karnataka, India"
        },
        "chennai": {
            "locType": "bank",
            "blogLinks": [
                "http://www.tourism-of-india.com/karnataka/",
                "https://en.wikipedia.org/wiki/Belgaum",
                "http://www.godakshin.com/travel-guides/4-exciting-places-visit-around-bangalore-732.html"
            ],
            "longitude": "80.2197941",
            "closest_to": "mysore",
            "latitude": "13.0365141",
            "address": "Karnataka Bank, Postal Colony 2nd Street, Postal Colony, Ashok Nagar, Chennai City Corporation Limits, Chennai district, Tamil Nadu, 600033, India"
        },
        "karanji lake": {
            "locType": "village",
            "blogLinks": [
                "http://www.mapsofindia.com/mysore/tourist-attractions/"
            ],
            "longitude": "77.5474867",
            "closest_to": "belgaum",
            "latitude": "18.2681849",
            "address": "Karanji, Aurad taluku, Bidar district, Karnataka, India"
        },
        "kannada": {
            "locType": "administrative",
            "blogLinks": [
                "https://en.wikipedia.org/wiki/Belgaum"
            ],
            "longitude": "75.1008028650794",
            "closest_to": "mysore",
            "latitude": "12.8114089",
            "address": "Dakshina Kannada, Karnataka, India"
        },
        "shravanabelagola": {
            "locType": "town",
            "blogLinks": [
                "http://goindia.about.com/od/karnataka/tp/karnataka.htm"
            ],
            "longitude": "76.4869997",
            "closest_to": "mysore",
            "latitude": "12.8581305",
            "address": "Shravanabelagola, Channarayapattana taluk, Hassan district, Karnataka, 573135, India"
        },
        "ranganathittu": {
            "locType": "attraction",
            "blogLinks": [
                "http://www.tourism-of-india.com/karnataka/"
            ],
            "longitude": "76.6553081",
            "closest_to": "mysore",
            "latitude": "12.4238524",
            "address": "Ranganathittu Bird Sanctuary, SH154, Palahalli, Srirangapattana taluk, Mandya district, Karnataka, 571438, India"
        },
        "maddur": {
            "locType": "town",
            "blogLinks": [
                "http://www.godakshin.com/travel-guides/4-exciting-places-visit-around-bangalore-732.html"
            ],
            "longitude": "77.0456404",
            "closest_to": "mysore",
            "latitude": "12.5851916",
            "address": "Maddur, Madduru taluk, Mandya district, Karnataka, 571428, India"
        },
        "kodagu": {
            "locType": "administrative",
            "blogLinks": [
                "http://goindia.about.com/od/karnataka/tp/karnataka.htm",
                "http://www.mapsofindia.com/karnataka/tourism/"
            ],
            "longitude": "75.6677235950852",
            "closest_to": "mysore",
            "latitude": "12.38117345",
            "address": "Kodagu, Karnataka, India"
        },
        "bengaluru": {
            "locType": "city",
            "blogLinks": [
                "https://en.wikipedia.org/wiki/Belgaum",
                "https://www.quora.com/What-are-some-places-to-visit-for-a-day-outing-near-Belgaum"
            ],
            "longitude": "77.5912997",
            "closest_to": "mysore",
            "latitude": "12.9791198",
            "address": "Bengaluru, Bangalore Urban, Karnataka, 560001, India"
        },
        "hasan": {
            "locType": "town",
            "blogLinks": [
                "http://www.mapsofindia.com/karnataka/tourism/"
            ],
            "longitude": "76.0992703",
            "closest_to": "mysore",
            "latitude": "13.0070817",
            "address": "Hassan, Hasana taluk, Hassan district, Karnataka, 573201, India"
        },
        "tungabhadra": {
            "locType": "river",
            "blogLinks": [
                "http://www.tourism-of-india.com/karnataka/"
            ],
            "longitude": "76.4931607",
            "closest_to": "mysore",
            "latitude": "15.3446123",
            "address": "Tungabhadra, Gangavati taluku, Koppal district, Karnataka, India"
        },
        "belgaum fort": {
            "locType": "locality",
            "blogLinks": [
                "http://www.nivalink.com/destination/belgaum"
            ],
            "longitude": "74.5255651",
            "closest_to": "mysore",
            "latitude": "15.8581696",
            "address": "Belgaum Fort, Belagavi, Belagavi taluku, Belgaum district, Karnataka, 590001, India"
        },
        "belgaum": {
            "locType": "county",
            "blogLinks": [
                "http://www.tourism-of-india.com/karnataka/",
                "https://en.wikipedia.org/wiki/Belgaum",
                "http://www.nivalink.com/destination/belgaum",
                "http://geeksblogs.com/belgaum-city/"
            ],
            "longitude": "74.75",
            "closest_to": "belgaum",
            "latitude": "16.333333",
            "address": "Belgaum, Belgaum district, Karnataka, India"
        },
        "telangana": {
            "locType": "bank",
            "blogLinks": [
                "https://en.wikipedia.org/wiki/Belgaum"
            ],
            "longitude": "78.4605921",
            "closest_to": "belgaum",
            "latitude": "17.4233276",
            "address": "Karnataka Bank, Raj Bhavan Road, MS Makta, Somajiguda, Hyderabad, Medak, Telangana, 500082, India"
        },
        "airport road": {
            "locType": "secondary",
            "blogLinks": [
                "http://wikitravel.org/en/Hubli"
            ],
            "longitude": "76.8995671",
            "closest_to": "mysore",
            "latitude": "15.1581615",
            "address": "Airport Road, Ballari, Bellary taluk, Bellary district, Karnataka, 583104, India"
        },
        "panaji": {
            "locType": "trunk",
            "blogLinks": [
                "https://en.wikipedia.org/wiki/Belgaum",
                "http://geeksblogs.com/belgaum-city/"
            ],
            "longitude": "74.4876784",
            "closest_to": "mysore",
            "latitude": "15.4422981",
            "address": "Belgaum - Panaji Highway, Londa, Khanapura taluku, Belgaum district, Karnataka, India"
        },
        "mangalore": {
            "locType": "city",
            "blogLinks": [
                "http://www.tourism-of-india.com/karnataka/",
                "https://en.wikipedia.org/wiki/Belgaum",
                "http://journeymart.com/de/india/karnataka/sightseeing/default.aspx",
                "http://goindia.about.com/od/karnataka/tp/karnataka.htm",
                "http://www.mapsofindia.com/karnataka/tourism/"
            ],
            "longitude": "74.8430082",
            "closest_to": "mysore",
            "latitude": "12.8698101",
            "address": "Mangaluru, Mangaluru taluk, Dakshina Kannada, Karnataka, 575001, India"
        },
        "cubbon park": {
            "locType": "station",
            "blogLinks": [
                "http://www.mapsofindia.com/karnataka/tourism/"
            ],
            "longitude": "77.5977565",
            "closest_to": "mysore",
            "latitude": "12.9808487",
            "address": "Cubbon Park, Cubbon Road, Tasker Town, Shivajinagar, Bengaluru, Bangalore Urban, Karnataka, 560001, India"
        },
        "gol gumbaz": {
            "locType": "attraction",
            "blogLinks": [
                "http://www.tourism-of-india.com/karnataka/"
            ],
            "longitude": "75.7360929",
            "closest_to": "belgaum",
            "latitude": "16.8300223",
            "address": "Gol Gumbaz, Station Road, Ibrahimpura, Vijayapura, Vijayapura taluk, Bijapur district, Karnataka, 586101, India"
        },
        "hogenakkal": {
            "locType": "waterfall",
            "blogLinks": [
                "http://www.godakshin.com/travel-guides/4-exciting-places-visit-around-bangalore-732.html"
            ],
            "longitude": "77.7758632",
            "closest_to": "mysore",
            "latitude": "12.1184195",
            "address": "Hogenakkal Falls, Kollegala taluk, Chamarajanagar district, Karnataka, India"
        },
        "brindavan gardens": {
            "locType": "garden",
            "blogLinks": [
                "http://www.mapsofindia.com/mysore/tourist-attractions/"
            ],
            "longitude": "76.5741029405883",
            "closest_to": "mysore",
            "latitude": "12.4208084",
            "address": "Brindavan Gardens, Krishnaraja Sagara Road, Krushnarajasagara, Srirangapattana taluk, Mandya district, Karnataka, India"
        },
        "london": {
            "locType": "administrative",
            "blogLinks": [
                "http://www.tourism-of-india.com/karnataka/"
            ],
            "longitude": "75.7223521",
            "closest_to": "mysore",
            "latitude": "14.5203896",
            "address": "Karnataka, India"
        },
        "athani": {
            "locType": "administrative",
            "blogLinks": [
                "https://en.wikipedia.org/wiki/Belgaum"
            ],
            "longitude": "75.0610457789688",
            "closest_to": "belgaum",
            "latitude": "16.7339495",
            "address": "Athani taluku, Belgaum district, Karnataka, India"
        },
        "hong kong": {
            "locType": "restaurant",
            "blogLinks": [
                "http://www.tourism-of-india.com/karnataka/"
            ],
            "longitude": "77.6768991",
            "closest_to": "mysore",
            "latitude": "13.020749",
            "address": "Hong Kong Noodles, Kalkere Main road, Ramamurthy Nagar, Varanasi, Bangalore Urban, Karnataka, 600042, India"
        },
        "giriyas": {
            "locType": "supermarket",
            "blogLinks": [
                "http://wikitravel.org/en/Hubli"
            ],
            "longitude": "74.8422606",
            "closest_to": "mysore",
            "latitude": "12.8694149",
            "address": "Giriyas Electronics, Karnad Sadashiva Rao Road, Dongerkeri, Attavar, Mangaluru, Mangaluru taluk, Dakshina Kannada, Karnataka, 575001, India"
        },
        "sahyadri": {
            "locType": "school",
            "blogLinks": [
                "https://en.wikipedia.org/wiki/Belgaum"
            ],
            "longitude": "75.2317987800043",
            "closest_to": "mysore",
            "latitude": "13.6983273",
            "address": "Sahyadri Polytechnic, SH1, Seebinakere, Sankadahole, Tirthahalli taluk, Shimoga district, Karnataka, 577432, India"
        },
        "belagavi": {
            "locType": "county",
            "blogLinks": [
                "https://en.wikipedia.org/wiki/Belgaum",
                "http://www.nivalink.com/destination/belgaum",
                "http://journeymart.com/de/india/karnataka/sightseeing/default.aspx",
                "https://www.quora.com/What-are-some-places-to-visit-for-a-day-outing-near-Belgaum"
            ],
            "longitude": "74.75",
            "closest_to": "belgaum",
            "latitude": "16.333333",
            "address": "Belgaum, Belgaum district, Karnataka, India"
        },
        "belgaum railway station": {
            "locType": "station",
            "blogLinks": [
                "https://www.ixigo.com/search/bus/Belgaum/Mysore/"
            ],
            "longitude": "74.509065",
            "closest_to": "mysore",
            "latitude": "15.8489677",
            "address": "Belgaum, Belgaum - Panaji Highway, Cantonment, Belagavi, Belagavi taluku, Belgaum district, Karnataka, 590001, India"
        },
        "amboli": {
            "locType": "village",
            "blogLinks": [
                "https://en.wikipedia.org/wiki/Belgaum",
                "http://www.nivalink.com/destination/belgaum",
                "https://www.quora.com/What-are-some-places-to-visit-for-a-day-outing-near-Belgaum"
            ],
            "longitude": "74.4340839",
            "closest_to": "mysore",
            "latitude": "15.6456171",
            "address": "Amboli, Khanapura taluku, Belgaum district, Karnataka, India"
        },
        "dubai": {
            "locType": "gift",
            "blogLinks": [
                "http://www.tourism-of-india.com/karnataka/"
            ],
            "longitude": "77.6067717",
            "closest_to": "mysore",
            "latitude": "12.9737065",
            "address": "Dubai Plaza, Rest House Road, Shantala Nagar, Ashok Nagar, Bengaluru, Bangalore Urban, Karnataka, 560001, India"
        },
        "india": {
            "locType": "administrative",
            "blogLinks": [
                "https://en.wikipedia.org/wiki/Belgaum",
                "https://www.ixigo.com/search/bus/Belgaum/Mysore/",
                "http://distancecalculator.globefeed.com/India_Distance_Calculator.asp?state=19",
                "http://goindia.about.com/od/karnataka/tp/karnataka.htm",
                "http://www.mapsofindia.com/karnataka/tourism/",
                "http://www.tourism-of-india.com/karnataka/",
                "http://wikitravel.org/en/Hubli",
                "http://www.karnatakatourism.org/",
                "http://www.mapsofindia.com/mysore/tourist-attractions/"
            ],
            "longitude": "75.7223521",
            "closest_to": "mysore",
            "latitude": "14.5203896",
            "address": "Karnataka, India"
        },
        "green garden": {
            "locType": "orchard",
            "blogLinks": [
                "http://wikitravel.org/en/Hubli"
            ],
            "longitude": "77.9285817637065",
            "closest_to": "mysore",
            "latitude": "13.19253335",
            "address": "garden, N Hosahalli, Hosakote taluk, Bangalore Rural, Karnataka, India"
        },
        "hoysala": {
            "locType": "administrative",
            "blogLinks": [
                "http://www.mapsofindia.com/karnataka/tourism/"
            ],
            "longitude": "77.6375990817051",
            "closest_to": "mysore",
            "latitude": "12.97813815",
            "address": "Hoysala Nagar, Bengaluru, Bangalore Urban, Karnataka, 560001, India"
        },
        "machche": {
            "locType": "village",
            "blogLinks": [
                "https://en.wikipedia.org/wiki/Belgaum"
            ],
            "longitude": "74.4840647",
            "closest_to": "mysore",
            "latitude": "15.7915932",
            "address": "Machche, Belagavi taluku, Belgaum district, Karnataka, India"
        },
        "gokak": {
            "locType": "town",
            "blogLinks": [
                "http://www.nivalink.com/destination/belgaum"
            ],
            "longitude": "74.8224338",
            "closest_to": "mysore",
            "latitude": "16.1693033",
            "address": "Gokak, Gokak taluku, Belgaum district, Karnataka, 591307, India"
        },
        "vidhyanagar": {
            "locType": "tertiary",
            "blogLinks": [
                "http://wikitravel.org/en/Hubli"
            ],
            "longitude": "75.9176086",
            "closest_to": "mysore",
            "latitude": "14.4416416",
            "address": "Vidhyanagar Road, Nituvalli, Davanagere, Davanagere taluku, Davanagere district, Karnataka, 577000, India"
        },
        "mandovi river": {
            "locType": "car",
            "blogLinks": [
                "http://www.nivalink.com/destination/belgaum"
            ],
            "longitude": "77.6190505",
            "closest_to": "mysore",
            "latitude": "12.9965335",
            "address": "Mandovi Motors, Wheeler Road Flyover, MSO Colony, Cox Town, Bengaluru, Bangalore Urban, Karnataka, 560001, India"
        },
        "new delhi": {
            "locType": "college",
            "blogLinks": [
                "http://www.tourism-of-india.com/karnataka/",
                "https://en.wikipedia.org/wiki/Belgaum"
            ],
            "longitude": "76.6142178649055",
            "closest_to": "mysore",
            "latitude": "12.30911465",
            "address": "Regional Institute of Education, Chaduranga Road, Jayalakshmipuram, Mysuru, Mysuru taluk, Mysuru district, Karnataka, 570001, India"
        },
        "maharashtra": {
            "locType": "bank",
            "blogLinks": [
                "http://www.nivalink.com/destination/kolhapur",
                "http://www.tourism-of-india.com/karnataka/",
                "https://en.wikipedia.org/wiki/Belgaum",
                "http://www.nivalink.com/destination/belgaum",
                "http://geeksblogs.com/belgaum-city/"
            ],
            "longitude": "77.5856013",
            "closest_to": "mysore",
            "latitude": "12.9049455",
            "address": "Bank of Maharashtra, 24th Main, K R Layout, Puttenahalli, Bengaluru, Bangalore Urban, Karnataka, 560001, India"
        },
        "urdu": {
            "locType": "recreation_ground",
            "blogLinks": [
                "https://en.wikipedia.org/wiki/Belgaum"
            ],
            "longitude": "75.636575371858",
            "closest_to": "mysore",
            "latitude": "14.6180369",
            "address": "Urdu Ground, Ranebennur, Ranebennuru taluk, Haveri district, Karnataka, 581115, India"
        },
        "bagalkot": {
            "locType": "city",
            "blogLinks": [
                "https://en.wikipedia.org/wiki/Belgaum"
            ],
            "longitude": "75.6967919",
            "closest_to": "mysore",
            "latitude": "16.1853166",
            "address": "Bagalakote, Bagalakote taluk, Bagalkote district, Karnataka, India"
        },
        "karnataka bengaluru": {
            "locType": "courthouse",
            "blogLinks": [
                "https://www.quora.com/What-are-some-places-to-visit-for-a-day-outing-near-Belgaum"
            ],
            "longitude": "77.5925914",
            "closest_to": "mysore",
            "latitude": "12.977944",
            "address": "Karnataka High Court, Dr B R Ambedkar Veedhi, Shantala Nagar, Gandhinagar, Bengaluru, Bangalore Urban, Karnataka, 560001, India"
        },
        "singapore": {
            "locType": "neighbourhood",
            "blogLinks": [
                "http://www.tourism-of-india.com/karnataka/"
            ],
            "longitude": "77.5483703",
            "closest_to": "mysore",
            "latitude": "12.8861812",
            "address": "Singapore Gardens, Vajrahalli, Bengaluru, Bangalore Urban, Karnataka, 560001, India"
        },
        "lakkundi": {
            "locType": "village",
            "blogLinks": [
                "http://goindia.about.com/od/karnataka/tp/karnataka.htm"
            ],
            "longitude": "76.4084687",
            "closest_to": "mysore",
            "latitude": "16.5255464",
            "address": "Lakkundi, Muddebihala taluku, Bijapur district, Karnataka, India"
        },
        "chamundi": {
            "locType": "peak",
            "blogLinks": [
                "http://www.mapsofindia.com/mysore/tourist-attractions/"
            ],
            "longitude": "76.6703937",
            "closest_to": "mysore",
            "latitude": "12.2724017",
            "address": "Chamundi Hill, Mysuru, Mysuru taluk, Mysuru district, Karnataka, 570001, India"
        },
        "haveri": {
            "locType": "town",
            "blogLinks": [
                "https://en.wikipedia.org/wiki/Belgaum"
            ],
            "longitude": "75.3996731",
            "closest_to": "mysore",
            "latitude": "14.7874825",
            "address": "Haveri, Haveri taluku, Haveri district, Karnataka, 581110, India"
        },
        "gokarn": {
            "locType": "town",
            "blogLinks": [
                "http://wikitravel.org/en/Hubli"
            ],
            "longitude": "74.3184418",
            "closest_to": "mysore",
            "latitude": "14.5439629",
            "address": "Gokarna, Kumata taluk, Uttara Kannada, Karnataka, 581326, India"
        },
        "garden": {
            "locType": "orchard",
            "blogLinks": [
                "http://www.mapsofindia.com/karnataka/tourism/"
            ],
            "longitude": "77.9285817637065",
            "closest_to": "mysore",
            "latitude": "13.19253335",
            "address": "garden, N Hosahalli, Hosakote taluk, Bangalore Rural, Karnataka, India"
        },
        "tamil nadu": {
            "locType": "bank",
            "blogLinks": [
                "http://www.tourism-of-india.com/karnataka/",
                "http://goindia.about.com/od/karnataka/tp/karnataka.htm"
            ],
            "longitude": "76.9514152",
            "closest_to": "mysore",
            "latitude": "11.0025894",
            "address": "KARNATAKA BANK, Diwan Bhadur Road, Five Corner, RS Puram, Coimbatore, Coimbatore district, Tamil Nadu, 641001, India"
        },
        "kholapur": {
            "locType": "restaurant",
            "blogLinks": [
                "https://en.wikipedia.org/wiki/Belgaum"
            ],
            "longitude": "77.5734212",
            "closest_to": "mysore",
            "latitude": "13.0279465",
            "address": "Nupur Kholapur, 80 Feet Road, RMV Stage II - 1st Block, Raj Mahal Vilas, Poojary Layout, Bangalore Urban, Karnataka, 560094, India"
        },
        "kadamba": {
            "locType": "residential",
            "blogLinks": [
                "http://wikitravel.org/en/Hubli"
            ],
            "longitude": "77.7436954",
            "closest_to": "mysore",
            "latitude": "12.9703178",
            "address": "Kadamba Avenue, R. Narayanapura, Brookefields, Dodsworth Enclave, Bangalore Urban, Karnataka, 560066, India"
        },
        "mundgod": {
            "locType": "village",
            "blogLinks": [
                "http://wikitravel.org/en/Hubli"
            ],
            "longitude": "75.0371451",
            "closest_to": "mysore",
            "latitude": "14.9705105",
            "address": "Mundgod, Mundagoda taluk, Uttara Kannada, Karnataka, 581349, India"
        },
        "madras": {
            "locType": "station",
            "blogLinks": [
                "http://www.tourism-of-india.com/karnataka/"
            ],
            "longitude": "77.6449595",
            "closest_to": "mysore",
            "latitude": "12.9859442",
            "address": "Swami Vivekananda Road, Swamy Vivekananda Road (Old Madras Road), Sudgunte Palya, Baiyyappanahalli, Benniganahalli, Bangalore Urban, Karnataka, 560016, India"
        },
        "chennama circle": {
            "locType": "artwork",
            "blogLinks": [
                "http://wikitravel.org/en/Hubli"
            ],
            "longitude": "77.5855103",
            "closest_to": "mysore",
            "latitude": "12.963396",
            "address": "Kittur Rani Chennama Statue, Jayachamaraja Wodeyar Road, Ganigarpet, Kalasipalya, Bengaluru, Bangalore Urban, Karnataka, 560001, India"
        },
        "ganeshpur": {
            "locType": "secondary",
            "blogLinks": [
                "https://en.wikipedia.org/wiki/Belgaum"
            ],
            "longitude": "74.4970226",
            "closest_to": "mysore",
            "latitude": "15.8613093",
            "address": "Ganeshpur Road, Cantonment, Belagavi, Belagavi taluku, Belgaum district, Karnataka, 590001, India"
        },
        "ulsoor lake": {
            "locType": "water",
            "blogLinks": [
                "http://www.mapsofindia.com/karnataka/tourism/"
            ],
            "longitude": "77.6191669052984",
            "closest_to": "mysore",
            "latitude": "12.9823891",
            "address": "Halasuru lake, Annaswamy Mudaliar Road, Kothandram Layout, Halasuru, Bengaluru, Bangalore Urban, Karnataka, 560001, India"
        },
        "pune": {
            "locType": "trunk",
            "blogLinks": [
                "http://www.nivalink.com/destination/kolhapur",
                "https://en.wikipedia.org/wiki/Belgaum",
                "http://www.nivalink.com/destination/belgaum",
                "http://geeksblogs.com/belgaum-city/"
            ],
            "longitude": "76.9479122",
            "closest_to": "belgaum",
            "latitude": "17.8199745",
            "address": "Pune - Machilipatnam Highway, Kaudiyala, Basavakalyana taluku, Bidar district, Karnataka, India"
        },
        "bidadi": {
            "locType": "town",
            "blogLinks": [
                "http://www.godakshin.com/travel-guides/4-exciting-places-visit-around-bangalore-732.html"
            ],
            "longitude": "77.3869947",
            "closest_to": "mysore",
            "latitude": "12.7988507",
            "address": "Bidadi, Ramanagara taluk, Ramanagara district, Karnataka, India"
        },
        "mahakali": {
            "locType": "residential",
            "blogLinks": [
                "http://www.nivalink.com/destination/kolhapur"
            ],
            "longitude": "74.7253262",
            "closest_to": "mysore",
            "latitude": "13.3420788",
            "address": "Mahakali Marga, Ambalapadi, Udupi, Udupi taluku, Udupi district, Karnataka, 576101, India"
        },
        "p.b rd": {
            "locType": "primary",
            "blogLinks": [
                "http://wikitravel.org/en/Hubli"
            ],
            "longitude": "75.1368445",
            "closest_to": "mysore",
            "latitude": "15.3416245",
            "address": "Pune Bangalore Road, Chanakya Puri, Old Hubli, Hubballi - \u0cb9\u0cc1\u0cac\u0ccd\u0cac\u0cb3\u0ccd\u0cb3\u0cbf, Hubballi taluku, Dharwad district, Karnataka, 580020, India"
        },
        "kittur": {
            "locType": "town",
            "blogLinks": [
                "https://en.wikipedia.org/wiki/Belgaum",
                "http://wikitravel.org/en/Hubli"
            ],
            "longitude": "74.7876971",
            "closest_to": "mysore",
            "latitude": "15.5957166",
            "address": "Kitturu, Bailahongala taluku, Belgaum district, Karnataka, 591115, India"
        },
        "ugar": {
            "locType": "station",
            "blogLinks": [
                "https://en.wikipedia.org/wiki/Belgaum"
            ],
            "longitude": "74.8213532",
            "closest_to": "belgaum",
            "latitude": "16.6701722",
            "address": "Ugar Khurd, SH73, Pharidakhanavadi, Athani taluku, Belgaum district, Karnataka, India"
        },
        "vijayanagar": {
            "locType": "station",
            "blogLinks": [
                "http://www.tourism-of-india.com/karnataka/",
                "http://goindia.about.com/od/karnataka/tp/karnataka.htm"
            ],
            "longitude": "77.5375757",
            "closest_to": "mysore",
            "latitude": "12.9713392",
            "address": "Vijayanagar, Chord Road, Marenahalli, Vijaya Nagar, Binny Layout, Bangalore Urban, Karnataka, 560040, India"
        },
        "river cauvery": {
            "locType": "cinema",
            "blogLinks": [
                "http://www.tourism-of-india.com/karnataka/"
            ],
            "longitude": "77.5832796015599",
            "closest_to": "mysore",
            "latitude": "13.00262215",
            "address": "Cauvery, 1st Main Road, Lower Palace Orchard, Guttahalli, Bengaluru, Bangalore Urban, Karnataka, 560001, India"
        },
        "fort road": {
            "locType": "unclassified",
            "blogLinks": [
                "https://en.wikipedia.org/wiki/Belgaum"
            ],
            "longitude": "76.1512395",
            "closest_to": "mysore",
            "latitude": "15.3428261",
            "address": "Fort Road, Bhagyanagara, Koppala, Koppala taluku, Koppal district, Karnataka, 583231, India"
        },
        "kalyana mantap": {
            "locType": "community_centre",
            "blogLinks": [
                "http://www.mapsofindia.com/mysore/tourist-attractions/"
            ],
            "longitude": "77.5878226698058",
            "closest_to": "mysore",
            "latitude": "12.9410323",
            "address": "Prasanna Kalyana Mantap, 10C Main, Mavalli, Someshwaranagar, Bengaluru, Bangalore Urban, Karnataka, 560001, India"
        }
    },
    "belgaum": {
        "osm_id": "316417174",
        "display_name": "Belgaum, Belgaum district, Karnataka, India",
        "importance": 0.65,
        "place_id": "1393576",
        "class": "place",
        "boundingbox": [
            "15.693333",
            "16.973333",
            "74.11",
            "75.39"
        ],
        "type": "county",
        "lon": "74.75",
        "licence": "Data \u00a9 OpenStreetMap contributors, ODbL 1.0. http://www.openstreetmap.org/copyright",
        "osm_type": "node",
        "lat": "16.333333",
        "icon": "https://nominatim.openstreetmap.org/images/mapicons/poi_boundary_administrative.p.20.png"
    },
    "mysore": {
        "osm_id": "2068274800",
        "display_name": "Mysuru, Mysuru taluk, Mysuru district, Karnataka, 570001, India",
        "importance": 0.6487665495944,
        "place_id": "20900757",
        "class": "place",
        "boundingbox": [
            "12.1451828",
            "12.4651828",
            "76.4953609",
            "76.8153609"
        ],
        "type": "city",
        "lon": "76.6553609",
        "licence": "Data \u00a9 OpenStreetMap contributors, ODbL 1.0. http://www.openstreetmap.org/copyright",
        "osm_type": "node",
        "lat": "12.3051828",
        "icon": "https://nominatim.openstreetmap.org/images/mapicons/poi_place_city.p.20.png"
    }
}