{
    "mentions": {
        "bijapur": {
            "locType": "city",
            "blogLinks": [
                "https://en.wikipedia.org/wiki/Tourism_in_Karnataka"
            ],
            "longitude": "75.7175387",
            "closest_to": "tumkur",
            "latitude": "16.8269911",
            "address": "Vijayapura, Vijayapura taluk, Bijapur district, Karnataka, 586101, India"
        },
        "gotagodi village": {
            "locType": "village",
            "blogLinks": [
                "https://en.wikipedia.org/wiki/Tourism_in_Karnataka"
            ],
            "longitude": "75.0452834",
            "closest_to": "tumkur",
            "latitude": "14.7634556",
            "address": "Gotagodi, Hanagal taluk, Haveri district, Karnataka, India"
        },
        "nethrani island": {
            "locType": "island",
            "blogLinks": [
                "https://en.wikipedia.org/wiki/Tourism_in_Karnataka"
            ],
            "longitude": "74.3272086675849",
            "closest_to": "tumkur",
            "latitude": "14.0174924",
            "address": "Netrani, Uttara Kannada, Karnataka, India"
        },
        "ramanagara": {
            "locType": "town",
            "blogLinks": [
                "http://www.mapsofindia.com/maps/karnataka/",
                "http://www.fameofcity.com/KARNATAKA/TUMKUR/"
            ],
            "longitude": "74.4900863",
            "closest_to": "tumkur",
            "latitude": "15.422047",
            "address": "Ramanagara, Khanapura taluku, Belgaum district, Karnataka, India"
        },
        "central india": {
            "locType": "bank",
            "blogLinks": [
                "http://www.nivalink.com/destination/kolhapur"
            ],
            "longitude": "77.5375425",
            "closest_to": "tumkur",
            "latitude": "12.9916895",
            "address": "Central Bank Of India, 8th Main Road, Rajajinagar 3rd Block, Kurubara Halli, Bengaluru, Bangalore Urban, Karnataka, 560001, India"
        },
        "virupaksha temple": {
            "locType": "place_of_worship",
            "blogLinks": [
                "https://en.wikipedia.org/wiki/Tourism_in_Karnataka"
            ],
            "longitude": "76.4587777156223",
            "closest_to": "tumkur",
            "latitude": "15.3351754",
            "address": "Virupaksha Temple, Hampi Bazaar, Hampe, Hosapete taluk, Bellary district, Karnataka, 583239, India"
        },
        "kabini": {
            "locType": "river",
            "blogLinks": [
                "https://en.wikipedia.org/wiki/Tourism_in_Karnataka",
                "http://travel.india.com/explore/wildlife-sanctuaries-in-karnataka/"
            ],
            "longitude": "76.4152088",
            "closest_to": "tumkur",
            "latitude": "12.0140065",
            "address": "Kabini, Heggadadevanakote taluk, Mysuru district, Karnataka, India"
        },
        "haveri district": {
            "locType": "administrative",
            "blogLinks": [
                "https://en.wikipedia.org/wiki/Tourism_in_Karnataka"
            ],
            "longitude": "75.3845674304742",
            "closest_to": "tumkur",
            "latitude": "14.714635",
            "address": "Haveri district, Karnataka, India"
        },
        "belgaum fort": {
            "locType": "locality",
            "blogLinks": [
                "https://en.wikipedia.org/wiki/Tourism_in_Karnataka",
                "http://www.nivalink.com/destination/belgaum"
            ],
            "longitude": "74.5255651",
            "closest_to": "tumkur",
            "latitude": "15.8581696",
            "address": "Belgaum Fort, Belagavi, Belagavi taluku, Belgaum district, Karnataka, 590001, India"
        },
        "nandi hills": {
            "locType": "hotel",
            "blogLinks": [
                "http://www.ticketgoose.com/bus-tickets/belgaum-to-tumkur",
                "http://www.ticketgoose.com/bus-tickets/tumkur-to-belgaum"
            ],
            "longitude": "77.7194741670394",
            "closest_to": "tumkur",
            "latitude": "13.268142",
            "address": "Nandi Upahara, Nandhi Hills Road, Kottige Thimmanahalli, Devanahalli taluk, Bangalore Rural, Karnataka, India"
        },
        "unchalli falls": {
            "locType": "waterfall",
            "blogLinks": [
                "https://en.wikipedia.org/wiki/Tourism_in_Karnataka"
            ],
            "longitude": "74.7477592",
            "closest_to": "tumkur",
            "latitude": "14.4097755",
            "address": "\u0c89\u0c82\u0c9a\u0cb3\u0ccd\u0cb3\u0cbf \u0c9c\u0cb2\u0caa\u0cbe\u0ca4, Siddapura taluk, Uttara Kannada, Karnataka, India"
        },
        "nagarahole national park": {
            "locType": "national_park",
            "blogLinks": [
                "https://en.wikipedia.org/wiki/Tourism_in_Karnataka"
            ],
            "longitude": "76.1537073415874",
            "closest_to": "tumkur",
            "latitude": "12.0600362",
            "address": "Nagarahole National Park, Virajpet taluk, Kodagu, Karnataka, India"
        },
        "bidar district": {
            "locType": "administrative",
            "blogLinks": [
                "https://en.wikipedia.org/wiki/Tourism_in_Karnataka"
            ],
            "longitude": "77.2496344350342",
            "closest_to": "belgaum",
            "latitude": "18.0158574",
            "address": "Bidar district, Karnataka, India"
        },
        "raichur": {
            "locType": "county",
            "blogLinks": [
                "http://www.mapsofindia.com/maps/karnataka/"
            ],
            "longitude": "77.166667",
            "closest_to": "tumkur",
            "latitude": "16.083333",
            "address": "Raichur, Raichur district, Karnataka, India"
        },
        "sharavati": {
            "locType": "river",
            "blogLinks": [
                "https://en.wikipedia.org/wiki/Tourism_in_Karnataka"
            ],
            "longitude": "74.7647294",
            "closest_to": "tumkur",
            "latitude": "14.2360979",
            "address": "Sharavati, Sagara taluk, Shimoga district, Karnataka, India"
        },
        "chola": {
            "locType": "yes",
            "blogLinks": [
                "https://en.wikipedia.org/wiki/Tourism_in_Karnataka"
            ],
            "longitude": "76.098782",
            "closest_to": "tumkur",
            "latitude": "13.0023906",
            "address": "Chola Gold Loan, Bengaluru - Mangaluru Road, Ravindra Nagar, Santhe Pete, Hassan, Hasana taluk, Hassan district, Karnataka, 573201, India"
        },
        "netrani island of uttara kannada": {
            "locType": "island",
            "blogLinks": [
                "https://en.wikipedia.org/wiki/Tourism_in_Karnataka"
            ],
            "longitude": "74.3272086675849",
            "closest_to": "tumkur",
            "latitude": "14.0174924",
            "address": "Netrani, Uttara Kannada, Karnataka, India"
        },
        "ratnagiri highway": {
            "locType": "secondary",
            "blogLinks": [
                "http://www.nivalink.com/destination/kolhapur",
                "http://www.nivalink.com/destination/belgaum"
            ],
            "longitude": "75.7727724",
            "closest_to": "tumkur",
            "latitude": "13.3292344",
            "address": "Ratnagiri Road, Basavannahalli, Chikkamagaluru, Chikkamagaluru taluku, Chikkamagaluru district, Karnataka, 577101, India"
        },
        "vijayanagara": {
            "locType": "village",
            "blogLinks": [
                "https://en.wikipedia.org/wiki/Tourism_in_Karnataka"
            ],
            "longitude": "74.7380455",
            "closest_to": "belgaum",
            "latitude": "16.3270486",
            "address": "Vijayanagara, Chikodi taluk, Belgaum district, Karnataka, India"
        },
        "kuknur": {
            "locType": "village",
            "blogLinks": [
                "https://en.wikipedia.org/wiki/Tourism_in_Karnataka"
            ],
            "longitude": "75.9934934",
            "closest_to": "tumkur",
            "latitude": "15.4902753",
            "address": "Kukanura, Yelaburga taluku, Koppal district, Karnataka, 583232, India"
        },
        "bangalore rural": {
            "locType": "administrative",
            "blogLinks": [
                "http://www.fameofcity.com/KARNATAKA/TUMKUR/"
            ],
            "longitude": "77.3405587255873",
            "closest_to": "tumkur",
            "latitude": "13.17776215",
            "address": "Bangalore Rural, Karnataka, India"
        },
        "manjusha museum": {
            "locType": "museum",
            "blogLinks": [
                "https://en.wikipedia.org/wiki/Tourism_in_Karnataka"
            ],
            "longitude": "75.3821342838196",
            "closest_to": "tumkur",
            "latitude": "12.95116975",
            "address": "Manjusha Museum, SH37, Dharmasthala, Beltangadi taluk, Dakshina Kannada, Karnataka, 574216, India"
        },
        "pattadakal": {
            "locType": "attraction",
            "blogLinks": [
                "https://en.wikipedia.org/wiki/Tourism_in_Karnataka"
            ],
            "longitude": "75.815884048161",
            "closest_to": "tumkur",
            "latitude": "15.9506349",
            "address": "Pattadakal Temples, SH14, \u0cac\u0cbe\u0c9a\u0cbf\u0ca8\u0c97\u0cc1\u0ca1\u0ccd\u0ca1, Badami taluku, Bagalkote district, Karnataka, 587211, India"
        },
        "bagalkot district": {
            "locType": "city",
            "blogLinks": [
                "https://en.wikipedia.org/wiki/Tourism_in_Karnataka"
            ],
            "longitude": "75.6967919",
            "closest_to": "tumkur",
            "latitude": "16.1853166",
            "address": "Bagalakote, Bagalakote taluk, Bagalkote district, Karnataka, India"
        },
        "mandya district": {
            "locType": "administrative",
            "blogLinks": [
                "https://en.wikipedia.org/wiki/Tourism_in_Karnataka"
            ],
            "longitude": "76.7302318329607",
            "closest_to": "tumkur",
            "latitude": "12.6336348",
            "address": "Mandya district, Karnataka, India"
        },
        "river kali": {
            "locType": "river",
            "blogLinks": [
                "http://travel.india.com/explore/wildlife-sanctuaries-in-karnataka/"
            ],
            "longitude": "74.5802901",
            "closest_to": "tumkur",
            "latitude": "15.0145378",
            "address": "Kali, Joida taluk, Uttara Kannada, Karnataka, India"
        },
        "narayana": {
            "locType": "village",
            "blogLinks": [
                "https://en.wikipedia.org/wiki/Tourism_in_Karnataka"
            ],
            "longitude": "76.201037",
            "closest_to": "tumkur",
            "latitude": "13.9181889",
            "address": "Narayana Gondanahalli, Holalkere taluk, Chitradurga district, Karnataka, India"
        },
        "mahalaxmi temple": {
            "locType": "place_of_worship",
            "blogLinks": [
                "http://www.nivalink.com/destination/kolhapur"
            ],
            "longitude": "74.7568329",
            "closest_to": "tumkur",
            "latitude": "13.1857774",
            "address": "Uchila Mahalaxmi Temple, NH66, Yermal, Udupi taluku, Udupi district, Karnataka, India"
        },
        "rock garden": {
            "locType": "waterfall",
            "blogLinks": [
                "https://en.wikipedia.org/wiki/Tourism_in_Karnataka"
            ],
            "longitude": "75.6142269",
            "closest_to": "tumkur",
            "latitude": "12.2248591",
            "address": "Waterfalls by the Rock site, Madikeri taluku, Kodagu, Karnataka, India"
        },
        "gulbarga": {
            "locType": "county",
            "blogLinks": [
                "https://en.wikipedia.org/wiki/Tourism_in_Karnataka",
                "http://www.mapsofindia.com/maps/karnataka/"
            ],
            "longitude": "77.083333",
            "closest_to": "belgaum",
            "latitude": "17.166667",
            "address": "Kalaburgi, Kalaburagi district, Karnataka, India"
        },
        "bandipur national park": {
            "locType": "national_park",
            "blogLinks": [
                "https://en.wikipedia.org/wiki/Tourism_in_Karnataka",
                "http://travel.india.com/explore/wildlife-sanctuaries-in-karnataka/"
            ],
            "longitude": "76.4314968740264",
            "closest_to": "tumkur",
            "latitude": "11.76682425",
            "address": "Bandipur National Park, Kozhikode - Kollegal Highway, Gundlupet taluk, Chamarajanagar district, Karnataka, India"
        },
        "siddheshwara": {
            "locType": "pharmacy",
            "blogLinks": [
                "https://en.wikipedia.org/wiki/Tourism_in_Karnataka"
            ],
            "longitude": "77.5876527",
            "closest_to": "tumkur",
            "latitude": "13.0797146",
            "address": "Siddheshwara Medicals, Judicial Layout, Allalasandra, Bangalore, 7th Main Road, Judicial Layout, Bengaluru, Bangalore Urban, Karnataka, 560001, India"
        },
        "banavasi": {
            "locType": "town",
            "blogLinks": [
                "https://en.wikipedia.org/wiki/Tourism_in_Karnataka"
            ],
            "longitude": "75.0129845",
            "closest_to": "tumkur",
            "latitude": "14.5389738",
            "address": "Banavasi, Shirasi taluk, Uttara Kannada, Karnataka, India"
        },
        "gadag district": {
            "locType": "administrative",
            "blogLinks": [
                "https://en.wikipedia.org/wiki/Tourism_in_Karnataka"
            ],
            "longitude": "75.6807542794645",
            "closest_to": "tumkur",
            "latitude": "15.416337",
            "address": "Gadag district, Karnataka, India"
        },
        "goa": {
            "locType": "restaurant",
            "blogLinks": [
                "http://www.nivalink.com/destination/kolhapur",
                "https://en.wikipedia.org/wiki/Tourism_in_Karnataka",
                "http://www.fameofcity.com/KARNATAKA/TUMKUR/",
                "http://www.nivalink.com/destination/belgaum"
            ],
            "longitude": "77.6200027",
            "closest_to": "tumkur",
            "latitude": "12.9750047",
            "address": "Carnival De Goa, Bhaskaran Road, Gupta Layout, Halasuru, Bengaluru, Bangalore Urban, Karnataka, 560001, India"
        },
        "mookambika": {
            "locType": "place_of_worship",
            "blogLinks": [
                "https://en.wikipedia.org/wiki/Tourism_in_Karnataka"
            ],
            "longitude": "74.8145296",
            "closest_to": "tumkur",
            "latitude": "13.8638043",
            "address": "Mukambika Devasthana, NH766C;SH26, Halkal, \u0c95\u0cc1\u0c82\u0ca6\u0cbe\u0caa\u0cc1\u0cb0 \u0ca4\u0cbe\u0cb2\u0cc2\u0c95\u0cc1, Udupi district, Karnataka, 576220, India"
        },
        "bengaluru international airport": {
            "locType": "aerodrome",
            "blogLinks": [
                "http://www.fameofcity.com/KARNATAKA/TUMKUR/"
            ],
            "longitude": "77.7065674158539",
            "closest_to": "tumkur",
            "latitude": "13.2042586",
            "address": "Kempegowda International Airport (KIA), Bengaluru, Restricted Lane, Anneshvara, Devanahalli taluk, Bangalore Rural, Karnataka, 560300, India"
        },
        "belgaum airport": {
            "locType": "aerodrome",
            "blogLinks": [
                "http://www.ticketgoose.com/bus-tickets/belgaum-to-tumkur",
                "http://www.ticketgoose.com/bus-tickets/tumkur-to-belgaum"
            ],
            "longitude": "74.6189763983851",
            "closest_to": "tumkur",
            "latitude": "15.8602827",
            "address": "Belgaum Airport, SH20, Balekundri, Belagavi taluku, Belgaum district, Karnataka, 591124, India"
        },
        "varur": {
            "locType": "village",
            "blogLinks": [
                "https://en.wikipedia.org/wiki/Tourism_in_Karnataka"
            ],
            "longitude": "75.1387568",
            "closest_to": "tumkur",
            "latitude": "15.2077105",
            "address": "Varur, Hubballi taluku, Dharwad district, Karnataka, India"
        },
        "nagarhole national park": {
            "locType": "national_park",
            "blogLinks": [
                "https://en.wikipedia.org/wiki/Tourism_in_Karnataka"
            ],
            "longitude": "76.1537073415874",
            "closest_to": "tumkur",
            "latitude": "12.0600362",
            "address": "Nagarahole National Park, Virajpet taluk, Kodagu, Karnataka, India"
        },
        "varada": {
            "locType": "river",
            "blogLinks": [
                "https://en.wikipedia.org/wiki/Tourism_in_Karnataka"
            ],
            "longitude": "75.47206",
            "closest_to": "tumkur",
            "latitude": "14.8717792",
            "address": "Varada, Savanura taluk, Haveri district, Karnataka, India"
        },
        "bahubali": {
            "locType": "place_of_worship",
            "blogLinks": [
                "https://en.wikipedia.org/wiki/Tourism_in_Karnataka"
            ],
            "longitude": "76.4846128",
            "closest_to": "tumkur",
            "latitude": "12.8540505",
            "address": "Bahubali Statue, SH8, Shravanabelagola, Channarayapattana taluk, Hassan district, Karnataka, 573135, India"
        },
        "brahma": {
            "locType": "place_of_worship",
            "blogLinks": [
                "http://www.nivalink.com/destination/kolhapur"
            ],
            "longitude": "75.9026723908286",
            "closest_to": "tumkur",
            "latitude": "14.4564816",
            "address": "Sadguru Brahma Chaitanya Mandira, Ring Road, Vinobanagara, Davanagere, Davanagere taluku, Davanagere district, Karnataka, 577004, India"
        },
        "malpe": {
            "locType": "village",
            "blogLinks": [
                "https://en.wikipedia.org/wiki/Tourism_in_Karnataka"
            ],
            "longitude": "74.7036914",
            "closest_to": "tumkur",
            "latitude": "13.3507423",
            "address": "Malpe, Udupi taluku, Udupi district, Karnataka, India"
        },
        "hampi": {
            "locType": "village",
            "blogLinks": [
                "https://en.wikipedia.org/wiki/Tourism_in_Karnataka"
            ],
            "longitude": "76.4606199",
            "closest_to": "tumkur",
            "latitude": "15.3359769",
            "address": "Hampe, Hosapete taluk, Bellary district, Karnataka, 583239, India"
        },
        "bandipur": {
            "locType": "village",
            "blogLinks": [
                "http://travel.india.com/explore/wildlife-sanctuaries-in-karnataka/"
            ],
            "longitude": "76.6285739",
            "closest_to": "tumkur",
            "latitude": "11.6662708",
            "address": "Bandipur, Gundlupet taluk, Chamarajanagar district, Karnataka, India"
        },
        "bankpur fort": {
            "locType": "archaeological_site",
            "blogLinks": [
                "https://en.wikipedia.org/wiki/Tourism_in_Karnataka"
            ],
            "longitude": "75.2512090188504",
            "closest_to": "tumkur",
            "latitude": "14.9231815",
            "address": "Bankapura Fort, SH137, Guddada Channapura, Shiggaon taluk, Haveri district, Karnataka, 581202, India"
        },
        "srirangapatna": {
            "locType": "town",
            "blogLinks": [
                "https://en.wikipedia.org/wiki/Tourism_in_Karnataka"
            ],
            "longitude": "76.6850743",
            "closest_to": "tumkur",
            "latitude": "12.4225604",
            "address": "Srirangapatna, Srirangapattana taluk, Mandya district, Karnataka, 571438, India"
        },
        "dharwad": {
            "locType": "city",
            "blogLinks": [
                "https://en.wikipedia.org/wiki/Tourism_in_Karnataka",
                "http://www.mapsofindia.com/maps/karnataka/"
            ],
            "longitude": "75.0066516",
            "closest_to": "tumkur",
            "latitude": "15.4540505",
            "address": "Dharwad, Dharawada taluku, Dharwad district, Karnataka, 580001, India"
        },
        "gudavi": {
            "locType": "village",
            "blogLinks": [
                "https://en.wikipedia.org/wiki/Tourism_in_Karnataka"
            ],
            "longitude": "75.009649",
            "closest_to": "tumkur",
            "latitude": "14.4400296",
            "address": "Gudavi, Soraba taluk, Shimoga district, Karnataka, India"
        },
        "gadag": {
            "locType": "town",
            "blogLinks": [
                "https://en.wikipedia.org/wiki/Tourism_in_Karnataka",
                "http://www.mapsofindia.com/maps/karnataka/"
            ],
            "longitude": "75.6300786",
            "closest_to": "tumkur",
            "latitude": "15.4263647",
            "address": "Gadag, Gadag taluk, Gadag district, Karnataka, 582101, India"
        },
        "chikkaballapur": {
            "locType": "town",
            "blogLinks": [
                "http://www.mapsofindia.com/maps/karnataka/"
            ],
            "longitude": "77.7306866",
            "closest_to": "tumkur",
            "latitude": "13.4352549",
            "address": "Chikkaballapura, Chikkaballapura taluk, Chikkaballapura district, Karnataka, 562101, India"
        },
        "hebbe falls": {
            "locType": "attraction",
            "blogLinks": [
                "https://en.wikipedia.org/wiki/Tourism_in_Karnataka"
            ],
            "longitude": "75.7253701",
            "closest_to": "tumkur",
            "latitude": "13.5414025",
            "address": "Hebbe falls, Kemmannagundi Road, Attigundi, Chikkamagaluru taluku, Chikkamagaluru district, Karnataka, India"
        },
        "ranganathittu bird sanctuary": {
            "locType": "attraction",
            "blogLinks": [
                "https://en.wikipedia.org/wiki/Tourism_in_Karnataka"
            ],
            "longitude": "76.6553081",
            "closest_to": "tumkur",
            "latitude": "12.4238524",
            "address": "Ranganathittu Bird Sanctuary, SH154, Palahalli, Srirangapattana taluk, Mandya district, Karnataka, 571438, India"
        },
        "gokak": {
            "locType": "town",
            "blogLinks": [
                "https://en.wikipedia.org/wiki/Tourism_in_Karnataka",
                "http://www.nivalink.com/destination/belgaum"
            ],
            "longitude": "74.8224338",
            "closest_to": "tumkur",
            "latitude": "16.1693033",
            "address": "Gokak, Gokak taluku, Belgaum district, Karnataka, 591307, India"
        },
        "belavadi": {
            "locType": "village",
            "blogLinks": [
                "https://en.wikipedia.org/wiki/Tourism_in_Karnataka"
            ],
            "longitude": "75.3760773",
            "closest_to": "tumkur",
            "latitude": "13.5284899",
            "address": "Belavadi, Koppa taluk, Chikkamagaluru district, Karnataka, India"
        },
        "lakkavalli": {
            "locType": "village",
            "blogLinks": [
                "http://travel.india.com/explore/wildlife-sanctuaries-in-karnataka/"
            ],
            "longitude": "75.1078097",
            "closest_to": "tumkur",
            "latitude": "14.5841018",
            "address": "Lakkavalli, Soraba taluk, Shimoga district, Karnataka, India"
        },
        "chennai": {
            "locType": "bank",
            "blogLinks": [
                "https://en.wikipedia.org/wiki/Tourism_in_Karnataka",
                "http://www.fameofcity.com/KARNATAKA/TUMKUR/"
            ],
            "longitude": "80.2197941",
            "closest_to": "tumkur",
            "latitude": "13.0365141",
            "address": "Karnataka Bank, Postal Colony 2nd Street, Postal Colony, Ashok Nagar, Chennai City Corporation Limits, Chennai district, Tamil Nadu, 600033, India"
        },
        "chalukya": {
            "locType": "residential",
            "blogLinks": [
                "https://en.wikipedia.org/wiki/Tourism_in_Karnataka"
            ],
            "longitude": "77.5192989605445",
            "closest_to": "tumkur",
            "latitude": "12.9617207",
            "address": "Chalukya Nagar, Chandra Layout, GKW Layout, Bangalore Urban, Karnataka, 560072, India"
        },
        "ragihalli": {
            "locType": "village",
            "blogLinks": [
                "http://travel.india.com/explore/wildlife-sanctuaries-in-karnataka/"
            ],
            "longitude": "77.5745803",
            "closest_to": "tumkur",
            "latitude": "12.7386426",
            "address": "Ragihalli, Bangalore Urban, Karnataka, India"
        },
        "koppal": {
            "locType": "town",
            "blogLinks": [
                "https://en.wikipedia.org/wiki/Tourism_in_Karnataka",
                "http://www.mapsofindia.com/maps/karnataka/"
            ],
            "longitude": "76.1547421",
            "closest_to": "tumkur",
            "latitude": "15.3484144",
            "address": "Koppala, Koppala taluku, Koppal district, Karnataka, 583231, India"
        },
        "shravanabelagola": {
            "locType": "town",
            "blogLinks": [
                "https://en.wikipedia.org/wiki/Tourism_in_Karnataka"
            ],
            "longitude": "76.4869997",
            "closest_to": "tumkur",
            "latitude": "12.8581305",
            "address": "Shravanabelagola, Channarayapattana taluk, Hassan district, Karnataka, 573135, India"
        },
        "chitradurga": {
            "locType": "town",
            "blogLinks": [
                "https://en.wikipedia.org/wiki/Tourism_in_Karnataka",
                "http://www.mapsofindia.com/maps/karnataka/"
            ],
            "longitude": "76.4005122",
            "closest_to": "tumkur",
            "latitude": "14.2266443",
            "address": "Chitradurga, Chitradurga taluku, Chitradurga district, Karnataka, 577500, India"
        },
        "chamarajanagar": {
            "locType": "station",
            "blogLinks": [
                "https://en.wikipedia.org/wiki/Tourism_in_Karnataka",
                "http://www.mapsofindia.com/maps/karnataka/"
            ],
            "longitude": "76.9331345",
            "closest_to": "tumkur",
            "latitude": "11.9346624",
            "address": "Chamarajanagar, Nanjangudu-Chamarajanagar Road, Kadahalli, Chamarajanagara taluk, Chamarajanagar district, Karnataka, 571313, India"
        },
        "lakkundi": {
            "locType": "village",
            "blogLinks": [
                "https://en.wikipedia.org/wiki/Tourism_in_Karnataka"
            ],
            "longitude": "76.4084687",
            "closest_to": "tumkur",
            "latitude": "16.5255464",
            "address": "Lakkundi, Muddebihala taluku, Bijapur district, Karnataka, India"
        },
        "tungabhadra": {
            "locType": "river",
            "blogLinks": [
                "https://en.wikipedia.org/wiki/Tourism_in_Karnataka"
            ],
            "longitude": "76.4931607",
            "closest_to": "tumkur",
            "latitude": "15.3446123",
            "address": "Tungabhadra, Gangavati taluku, Koppal district, Karnataka, India"
        },
        "sagara": {
            "locType": "town",
            "blogLinks": [
                "https://en.wikipedia.org/wiki/Tourism_in_Karnataka"
            ],
            "longitude": "75.0262551",
            "closest_to": "tumkur",
            "latitude": "14.1666594",
            "address": "Sagara, Sagara taluk, Shimoga district, Karnataka, 577400, India"
        },
        "kabini river": {
            "locType": "canal",
            "blogLinks": [
                "https://en.wikipedia.org/wiki/Tourism_in_Karnataka"
            ],
            "longitude": "76.6477184",
            "closest_to": "tumkur",
            "latitude": "12.0780998",
            "address": "Kabini right bank canal, Nanjanagudu taluk, Mysuru district, Karnataka, India"
        },
        "subramanya": {
            "locType": "commercial",
            "blogLinks": [
                "https://en.wikipedia.org/wiki/Tourism_in_Karnataka"
            ],
            "longitude": "77.6015800913134",
            "closest_to": "tumkur",
            "latitude": "12.9251206",
            "address": "Subramanya Arcade, Marenahalli, Bengaluru, Bangalore Urban, Karnataka, 560001, India"
        },
        "naganur": {
            "locType": "village",
            "blogLinks": [
                "https://en.wikipedia.org/wiki/Tourism_in_Karnataka"
            ],
            "longitude": "74.4824431",
            "closest_to": "tumkur",
            "latitude": "16.073351",
            "address": "Naganur, Hukkeri taluku, Belgaum district, Karnataka, India"
        },
        "kumta": {
            "locType": "town",
            "blogLinks": [
                "https://en.wikipedia.org/wiki/Tourism_in_Karnataka"
            ],
            "longitude": "74.4107617",
            "closest_to": "tumkur",
            "latitude": "14.4261647",
            "address": "Kumta, Kumata taluk, Uttara Kannada, Karnataka, India"
        },
        "kanaganahalli": {
            "locType": "village",
            "blogLinks": [
                "https://en.wikipedia.org/wiki/Tourism_in_Karnataka"
            ],
            "longitude": "76.5876958",
            "closest_to": "tumkur",
            "latitude": "12.5588444",
            "address": "Kanaganahalli, Pandavapura taluk, Mandya district, Karnataka, India"
        },
        "karkala": {
            "locType": "town",
            "blogLinks": [
                "https://en.wikipedia.org/wiki/Tourism_in_Karnataka"
            ],
            "longitude": "74.9959586",
            "closest_to": "tumkur",
            "latitude": "13.2112826",
            "address": "Karkala, Karkala taluk, Udupi district, Karnataka, 574104, India"
        },
        "south": {
            "locType": "residential",
            "blogLinks": [
                "https://en.wikipedia.org/wiki/Tourism_in_Karnataka"
            ],
            "longitude": "77.8040874",
            "closest_to": "tumkur",
            "latitude": "13.2942848",
            "address": "s, Vijayapura, Devanahalli taluk, Bangalore Rural, Karnataka, 562135, India"
        },
        "amboli": {
            "locType": "village",
            "blogLinks": [
                "http://www.nivalink.com/destination/belgaum"
            ],
            "longitude": "74.4340839",
            "closest_to": "tumkur",
            "latitude": "15.6456171",
            "address": "Amboli, Khanapura taluku, Belgaum district, Karnataka, India"
        },
        "arabhavi": {
            "locType": "village",
            "blogLinks": [
                "https://en.wikipedia.org/wiki/Tourism_in_Karnataka"
            ],
            "longitude": "74.8213227",
            "closest_to": "tumkur",
            "latitude": "16.2193552",
            "address": "Arabhavi, Gokak taluku, Belgaum district, Karnataka, India"
        },
        "dattatreya": {
            "locType": "hamlet",
            "blogLinks": [
                "https://en.wikipedia.org/wiki/Tourism_in_Karnataka"
            ],
            "longitude": "75.7539724",
            "closest_to": "tumkur",
            "latitude": "13.4315216",
            "address": "Inam Dattatreya Pitha, Chikkamagaluru taluku, Chikkamagaluru district, Karnataka, India"
        },
        "hoysala": {
            "locType": "administrative",
            "blogLinks": [
                "https://en.wikipedia.org/wiki/Tourism_in_Karnataka"
            ],
            "longitude": "77.6375990817051",
            "closest_to": "tumkur",
            "latitude": "12.97813815",
            "address": "Hoysala Nagar, Bengaluru, Bangalore Urban, Karnataka, 560001, India"
        },
        "netravati": {
            "locType": "river",
            "blogLinks": [
                "https://en.wikipedia.org/wiki/Tourism_in_Karnataka"
            ],
            "longitude": "75.1562182",
            "closest_to": "tumkur",
            "latitude": "12.8537655",
            "address": "Netravati, Bantwal taluk, Dakshina Kannada, Karnataka, India"
        },
        "devarayanadurga": {
            "locType": "peak",
            "blogLinks": [
                "http://www.ticketgoose.com/bus-tickets/belgaum-to-tumkur",
                "https://www.goibibo.com/routeplanner/belgaum-tumkur/",
                "http://www.ticketgoose.com/bus-tickets/tumkur-to-belgaum"
            ],
            "longitude": "77.2143445",
            "closest_to": "tumkur",
            "latitude": "13.3740537",
            "address": "Devarayanadurga, Tumakuru, Tumkur taluk, Tumkur district, Karnataka, 572101, India"
        },
        "bangalore railway": {
            "locType": "railway",
            "blogLinks": [
                "http://travel.india.com/explore/wildlife-sanctuaries-in-karnataka/"
            ],
            "longitude": "77.6182271274845",
            "closest_to": "tumkur",
            "latitude": "13.001147",
            "address": "Bangalore East Railway Station, Cox Town, Bengaluru, Bangalore Urban, Karnataka, 560001, India"
        },
        "kagal": {
            "locType": "grass",
            "blogLinks": [
                "https://en.wikipedia.org/wiki/Tourism_in_Karnataka"
            ],
            "longitude": "74.3575302591262",
            "closest_to": "tumkur",
            "latitude": "14.5055819",
            "address": "Kagal Fort, Birkodi Village, Kumata taluk, Uttara Kannada, Karnataka, India"
        },
        "mandovi river": {
            "locType": "car",
            "blogLinks": [
                "http://www.nivalink.com/destination/belgaum"
            ],
            "longitude": "77.6190505",
            "closest_to": "tumkur",
            "latitude": "12.9965335",
            "address": "Mandovi Motors, Wheeler Road Flyover, MSO Colony, Cox Town, Bengaluru, Bangalore Urban, Karnataka, 560001, India"
        },
        "pune bangalore route": {
            "locType": "trunk",
            "blogLinks": [
                "http://www.nivalink.com/destination/kolhapur"
            ],
            "longitude": "75.4974847",
            "closest_to": "tumkur",
            "latitude": "14.7156528",
            "address": "Pune-Bangalore Road, Motebennur, Byadagi taluk, Haveri district, Karnataka, 581106, India"
        },
        "nagareshwara": {
            "locType": "place_of_worship",
            "blogLinks": [
                "https://en.wikipedia.org/wiki/Tourism_in_Karnataka"
            ],
            "longitude": "77.3934679",
            "closest_to": "tumkur",
            "latitude": "16.8662525",
            "address": "Nagareshwara Temple, SH126, Dantapur, Yadagiri taluku, Yadagiri district, Karnataka, India"
        },
        "bangalore international": {
            "locType": "school",
            "blogLinks": [
                "http://travel.india.com/explore/wildlife-sanctuaries-in-karnataka/"
            ],
            "longitude": "77.6467233975225",
            "closest_to": "tumkur",
            "latitude": "13.0471784",
            "address": "Bangalore International School, Hennur Bagalur Road, Poojappa Layout, Agara, Geddalahalli, Bangalore Urban, Karnataka, 560 077, India"
        },
        "bengal": {
            "locType": "industrial",
            "blogLinks": [
                "http://travel.india.com/explore/wildlife-sanctuaries-in-karnataka/"
            ],
            "longitude": "77.7517038151245",
            "closest_to": "tumkur",
            "latitude": "13.0492646",
            "address": "Bengal Lamps, Konadasapura, Bangalore Urban, Karnataka, 560066, India"
        },
        "arasikere": {
            "locType": "town",
            "blogLinks": [
                "https://en.wikipedia.org/wiki/Tourism_in_Karnataka"
            ],
            "longitude": "76.2568436",
            "closest_to": "tumkur",
            "latitude": "13.3159809",
            "address": "Arasikere, Arasikere taluku, Hassan district, Karnataka, 573103, India"
        },
        "kudremukh national park": {
            "locType": "national_park",
            "blogLinks": [
                "https://en.wikipedia.org/wiki/Tourism_in_Karnataka",
                "http://travel.india.com/explore/wildlife-sanctuaries-in-karnataka/"
            ],
            "longitude": "75.1828713712862",
            "closest_to": "tumkur",
            "latitude": "13.25397485",
            "address": "Kudremukh National Park, SH66, Sringeri taluku, Chikkamagaluru district, Karnataka, India"
        },
        "shimoga": {
            "locType": "city",
            "blogLinks": [
                "https://en.wikipedia.org/wiki/Tourism_in_Karnataka"
            ],
            "longitude": "75.569737",
            "closest_to": "tumkur",
            "latitude": "13.9311723",
            "address": "Shivamogga, Shivamogga taluku, Shimoga district, Karnataka, 577200, India"
        },
        "nagarahole": {
            "locType": "river",
            "blogLinks": [
                "https://en.wikipedia.org/wiki/Tourism_in_Karnataka"
            ],
            "longitude": "76.2286805",
            "closest_to": "tumkur",
            "latitude": "12.0229466",
            "address": "Nagarahole, Heggadadevanakote taluk, Mysuru district, Karnataka, India"
        },
        "bannerghatta national park": {
            "locType": "national_park",
            "blogLinks": [
                "https://en.wikipedia.org/wiki/Tourism_in_Karnataka"
            ],
            "longitude": "77.5722783830694",
            "closest_to": "tumkur",
            "latitude": "12.77900335",
            "address": "Bannerghatta National Park, Anekal Road, Begihalli, Bangalore Urban, Karnataka, 560076, India"
        },
        "east": {
            "locType": "restaurant",
            "blogLinks": [
                "https://en.wikipedia.org/wiki/Tourism_in_Karnataka"
            ],
            "longitude": "77.6601401",
            "closest_to": "tumkur",
            "latitude": "12.8504319",
            "address": "East, 43, Velankani Drive, Electronics City Phase 1, Doddathoguru, Bangalore Urban, Karnataka, 560100, India"
        },
        "kudremukh": {
            "locType": "village",
            "blogLinks": [
                "http://travel.india.com/explore/wildlife-sanctuaries-in-karnataka/"
            ],
            "longitude": "75.2523304",
            "closest_to": "tumkur",
            "latitude": "13.2144007",
            "address": "Kudremukha, Mudigere taluk, Chikkamagaluru district, Karnataka, India"
        },
        "shiggaon taluk": {
            "locType": "administrative",
            "blogLinks": [
                "https://en.wikipedia.org/wiki/Tourism_in_Karnataka"
            ],
            "longitude": "75.1756764988777",
            "closest_to": "tumkur",
            "latitude": "15.0138079",
            "address": "Shiggaon taluk, Haveri district, Karnataka, India"
        },
        "chikmagalur district": {
            "locType": "county",
            "blogLinks": [
                "https://en.wikipedia.org/wiki/Tourism_in_Karnataka"
            ],
            "longitude": "75.5",
            "closest_to": "tumkur",
            "latitude": "13.5",
            "address": "Chikmagalur, Chikkamagaluru district, Karnataka, India"
        },
        "koppal district": {
            "locType": "administrative",
            "blogLinks": [
                "https://en.wikipedia.org/wiki/Tourism_in_Karnataka"
            ],
            "longitude": "76.310639117029",
            "closest_to": "tumkur",
            "latitude": "15.57825725",
            "address": "Koppal district, Karnataka, India"
        },
        "naveen regency": {
            "locType": "hotel",
            "blogLinks": [
                "http://www.ticketgoose.com/bus-tickets/belgaum-to-tumkur",
                "http://www.ticketgoose.com/bus-tickets/tumkur-to-belgaum"
            ],
            "longitude": "77.1330778",
            "closest_to": "tumkur",
            "latitude": "13.3256899",
            "address": "Naveen Regency, NH206, Tumakuru, Tumkur taluk, Tumkur district, Karnataka, 572101, India"
        },
        "afzalpur": {
            "locType": "town",
            "blogLinks": [
                "https://en.wikipedia.org/wiki/Tourism_in_Karnataka"
            ],
            "longitude": "76.3605783",
            "closest_to": "belgaum",
            "latitude": "17.2005764",
            "address": "Afzalpur, Afzalpura taluku, Kalaburagi district, Karnataka, 585301, India"
        },
        "mahakali": {
            "locType": "residential",
            "blogLinks": [
                "http://www.nivalink.com/destination/kolhapur"
            ],
            "longitude": "74.7253262",
            "closest_to": "tumkur",
            "latitude": "13.3420788",
            "address": "Mahakali Marga, Ambalapadi, Udupi, Udupi taluku, Udupi district, Karnataka, 576101, India"
        },
        "dandeli": {
            "locType": "town",
            "blogLinks": [
                "http://travel.india.com/explore/wildlife-sanctuaries-in-karnataka/"
            ],
            "longitude": "74.6236037",
            "closest_to": "tumkur",
            "latitude": "15.2490284",
            "address": "Dandeli, Haliyala taluku, Uttara Kannada, Karnataka, 581325, India"
        },
        "mekedatu": {
            "locType": "attraction",
            "blogLinks": [
                "https://en.wikipedia.org/wiki/Tourism_in_Karnataka"
            ],
            "longitude": "77.4475194",
            "closest_to": "tumkur",
            "latitude": "12.2584997",
            "address": "Mekedatu, SH92, Mahalli, Kanakapura taluk, Ramanagara district, Karnataka, India"
        },
        "mandya": {
            "locType": "town",
            "blogLinks": [
                "https://en.wikipedia.org/wiki/Tourism_in_Karnataka",
                "http://www.fameofcity.com/KARNATAKA/TUMKUR/",
                "http://www.mapsofindia.com/maps/karnataka/"
            ],
            "longitude": "76.8937392",
            "closest_to": "tumkur",
            "latitude": "12.5217836",
            "address": "Mandya, Mandya taluk, Mandya district, Karnataka, 571401, India"
        },
        "vishnu": {
            "locType": "residential",
            "blogLinks": [
                "https://en.wikipedia.org/wiki/Tourism_in_Karnataka"
            ],
            "longitude": "77.7198022157059",
            "closest_to": "tumkur",
            "latitude": "12.95388635",
            "address": "Vishnu Residency Apartments, Thubarahalli, Siddapura, Bangalore Urban, Karnataka, 560066, India"
        },
        "silent valley": {
            "locType": "hotel",
            "blogLinks": [
                "http://travel.india.com/explore/wildlife-sanctuaries-in-karnataka/"
            ],
            "longitude": "76.5819054",
            "closest_to": "tumkur",
            "latitude": "12.3459371",
            "address": "Silent Shores Resort, Krishnaraja Sagara Road, Kurgalli, Bastipura, Srirangapattana taluk, Mandya district, Karnataka, 570027, India"
        },
        "goravanahalli mahalakshmi temple": {
            "locType": "place_of_worship",
            "blogLinks": [
                "http://www.ticketgoose.com/bus-tickets/belgaum-to-tumkur",
                "http://www.ticketgoose.com/bus-tickets/tumkur-to-belgaum"
            ],
            "longitude": "77.2760206",
            "closest_to": "tumkur",
            "latitude": "13.4731241",
            "address": "Goravanahalli Sri Mahalakshmi Temple, SH3, Hanchihalli, Koratagere taluku, Tumkur district, Karnataka, India"
        },
        "kavya": {
            "locType": "restaurant",
            "blogLinks": [
                "https://www.tripoto.com/travel-guide/tumkur"
            ],
            "longitude": "77.6146254",
            "closest_to": "tumkur",
            "latitude": "12.9582479",
            "address": "Kavya Sagar, Palm Grove Road, Vannarpet, Austin Town, Bengaluru, Bangalore Urban, Karnataka, 560001, India"
        },
        "kanakapura road": {
            "locType": "trunk",
            "blogLinks": [
                "https://en.wikipedia.org/wiki/Tourism_in_Karnataka"
            ],
            "longitude": "77.5733483",
            "closest_to": "tumkur",
            "latitude": "12.9064528",
            "address": "Kanakapura Road, Rajotsava Nagar, Kaderenahalli, Bengaluru, Bangalore Urban, Karnataka, 560001, India"
        },
        "kamalapura": {
            "locType": "village",
            "blogLinks": [
                "http://travel.india.com/explore/wildlife-sanctuaries-in-karnataka/"
            ],
            "longitude": "75.7316366",
            "closest_to": "tumkur",
            "latitude": "14.4449672",
            "address": "Kamalapura, Harihara taluku, Davanagere district, Karnataka, India"
        },
        "mastikatte": {
            "locType": "village",
            "blogLinks": [
                "https://en.wikipedia.org/wiki/Tourism_in_Karnataka"
            ],
            "longitude": "74.4604101",
            "closest_to": "tumkur",
            "latitude": "14.6857168",
            "address": "Mastikatte, Ankola taluk, Uttara Kannada, Karnataka, India"
        },
        "andhra pradesh": {
            "locType": "hotel",
            "blogLinks": [
                "http://www.mapsofindia.com/maps/karnataka/"
            ],
            "longitude": "79.3452447",
            "closest_to": "tumkur",
            "latitude": "13.6841958",
            "address": "Karnataka, West Mada Street, Srivari Temple, Tirumala, Chittoor, Andhra Pradesh, 517504, India"
        },
        "kunigal": {
            "locType": "town",
            "blogLinks": [
                "http://www.ticketgoose.com/bus-tickets/tumkur-to-belgaum",
                "https://www.tripoto.com/travel-guide/tumkur"
            ],
            "longitude": "77.0236705",
            "closest_to": "tumkur",
            "latitude": "13.0238782",
            "address": "Kunigal, Kunigal taluk, Tumkur district, Karnataka, 572130, India"
        },
        "ooty-mysore": {
            "locType": "primary",
            "blogLinks": [
                "http://travel.india.com/explore/wildlife-sanctuaries-in-karnataka/"
            ],
            "longitude": "76.6586807",
            "closest_to": "tumkur",
            "latitude": "12.2774807",
            "address": "Ooty Road, Vidyaranyapuram, Mysuru, Mysuru taluk, Mysuru district, Karnataka, 570001, India"
        },
        "shimoga district": {
            "locType": "administrative",
            "blogLinks": [
                "https://en.wikipedia.org/wiki/Tourism_in_Karnataka"
            ],
            "longitude": "75.1312533993886",
            "closest_to": "tumkur",
            "latitude": "14.0558284",
            "address": "Shimoga district, Karnataka, India"
        },
        "dharma river": {
            "locType": "park",
            "blogLinks": [
                "https://en.wikipedia.org/wiki/Tourism_in_Karnataka"
            ],
            "longitude": "77.5575864485219",
            "closest_to": "tumkur",
            "latitude": "12.98914885",
            "address": "Dharma Naidu Udhyanavana, 44th cross, Rajajinagar 4th Block, Rajaji Nagar, Bengaluru, Bangalore Urban, Karnataka, 560001, India"
        },
        "bangalore": {
            "locType": "city",
            "blogLinks": [
                "http://www.nivalink.com/destination/belgaum",
                "http://www.sutthonabanni.com/2011/07/tumkur-district.html",
                "https://en.wikipedia.org/wiki/Tourism_in_Karnataka",
                "http://www.fameofcity.com/KARNATAKA/TUMKUR/",
                "http://www.ticketgoose.com/bus-tickets/belgaum-to-tumkur",
                "http://travel.india.com/explore/wildlife-sanctuaries-in-karnataka/",
                "http://www.nivalink.com/destination/kolhapur",
                "https://www.tripoto.com/travel-guide/tumkur",
                "http://www.mapsofindia.com/maps/karnataka/",
                "http://www.ticketgoose.com/bus-tickets/tumkur-to-belgaum",
                "https://www.tripoto.com/travel-guide/belgaum/trips"
            ],
            "longitude": "77.5912997",
            "closest_to": "tumkur",
            "latitude": "12.9791198",
            "address": "Bengaluru, Bangalore Urban, Karnataka, 560001, India"
        },
        "sagara taluk": {
            "locType": "administrative",
            "blogLinks": [
                "https://en.wikipedia.org/wiki/Tourism_in_Karnataka"
            ],
            "longitude": "74.9610874491152",
            "closest_to": "tumkur",
            "latitude": "14.09993045",
            "address": "Sagara taluk, Shimoga district, Karnataka, India"
        },
        "badami": {
            "locType": "town",
            "blogLinks": [
                "https://en.wikipedia.org/wiki/Tourism_in_Karnataka"
            ],
            "longitude": "75.6807865",
            "closest_to": "tumkur",
            "latitude": "15.9203874",
            "address": "Badami, Badami taluku, Bagalkote district, Karnataka, 587200, India"
        },
        "kamala": {
            "locType": "school",
            "blogLinks": [
                "https://en.wikipedia.org/wiki/Tourism_in_Karnataka"
            ],
            "longitude": "77.5664867",
            "closest_to": "tumkur",
            "latitude": "12.9339482",
            "address": "Kamala Nehru Patashala (Emmanual English School), 5th A Cross Road, Yediyur, Thyagaraja Nagar, Bengaluru, Bangalore Urban, Karnataka, 560001, India"
        },
        "kambadahalli": {
            "locType": "village",
            "blogLinks": [
                "https://en.wikipedia.org/wiki/Tourism_in_Karnataka"
            ],
            "longitude": "77.1671918",
            "closest_to": "tumkur",
            "latitude": "13.6843692",
            "address": "Kambadahalli, Madhugiri taluk, Tumkur district, Karnataka, India"
        },
        "karwar": {
            "locType": "town",
            "blogLinks": [
                "https://en.wikipedia.org/wiki/Tourism_in_Karnataka"
            ],
            "longitude": "74.1319229",
            "closest_to": "tumkur",
            "latitude": "14.8120931",
            "address": "Karwar, Karavara taluk, Uttara Kannada, Karnataka, 581300, India"
        },
        "south karnataka": {
            "locType": "residential",
            "blogLinks": [
                "https://en.wikipedia.org/wiki/Tourism_in_Karnataka"
            ],
            "longitude": "77.8040874",
            "closest_to": "tumkur",
            "latitude": "13.2942848",
            "address": "s, Vijayapura, Devanahalli taluk, Bangalore Rural, Karnataka, 562135, India"
        },
        "' river varahi": {
            "locType": "river",
            "blogLinks": [
                "https://en.wikipedia.org/wiki/Tourism_in_Karnataka"
            ],
            "longitude": "74.9489117",
            "closest_to": "tumkur",
            "latitude": "13.6582668",
            "address": "Varahi, \u0c95\u0cc1\u0c82\u0ca6\u0cbe\u0caa\u0cc1\u0cb0 \u0ca4\u0cbe\u0cb2\u0cc2\u0c95\u0cc1, Udupi district, Karnataka, India"
        },
        "tumkur": {
            "locType": "county",
            "blogLinks": [
                "http://www.sutthonabanni.com/2011/07/tumkur-district.html",
                "https://en.wikipedia.org/wiki/Tourism_in_Karnataka",
                "http://www.fameofcity.com/KARNATAKA/TUMKUR/",
                "http://www.ticketgoose.com/bus-tickets/belgaum-to-tumkur",
                "https://www.goibibo.com/routeplanner/belgaum-tumkur/",
                "https://www.tripoto.com/travel-guide/tumkur",
                "http://www.karnatakatourism.org/",
                "http://www.ticketgoose.com/bus-tickets/tumkur-to-belgaum"
            ],
            "longitude": "77.0002445",
            "closest_to": "tumkur",
            "latitude": "13.4999406",
            "address": "Tumakuru, Tumkur district, Karnataka, India"
        },
        "kudalasangama": {
            "locType": "village",
            "blogLinks": [
                "https://en.wikipedia.org/wiki/Tourism_in_Karnataka"
            ],
            "longitude": "76.0604244",
            "closest_to": "tumkur",
            "latitude": "16.2033992",
            "address": "Kudala Sangama, Hunagunda taluku, Bagalkote district, Karnataka, India"
        },
        "mysore district": {
            "locType": "city",
            "blogLinks": [
                "https://en.wikipedia.org/wiki/Tourism_in_Karnataka"
            ],
            "longitude": "76.6553609",
            "closest_to": "tumkur",
            "latitude": "12.3051828",
            "address": "Mysuru, Mysuru taluk, Mysuru district, Karnataka, 570001, India"
        },
        "kodachadri": {
            "locType": "peak",
            "blogLinks": [
                "https://en.wikipedia.org/wiki/Tourism_in_Karnataka"
            ],
            "longitude": "74.8705395",
            "closest_to": "tumkur",
            "latitude": "13.8565758",
            "address": "Kodachadri, \u0c95\u0cc1\u0c82\u0ca6\u0cbe\u0caa\u0cc1\u0cb0 \u0ca4\u0cbe\u0cb2\u0cc2\u0c95\u0cc1, Udupi district, Karnataka, India"
        },
        "lakshmeshwar": {
            "locType": "bus_station",
            "blogLinks": [
                "https://en.wikipedia.org/wiki/Tourism_in_Karnataka"
            ],
            "longitude": "75.4741167",
            "closest_to": "tumkur",
            "latitude": "15.12373",
            "address": "Lakshmeshwar KSRTC Bus stand, SH6, Bastibana, Lakshmeshvara, Shirahatti taluku, Gadag district, Karnataka, 582116, India"
        },
        "mercara": {
            "locType": "town",
            "blogLinks": [
                "https://en.wikipedia.org/wiki/Tourism_in_Karnataka"
            ],
            "longitude": "75.740031",
            "closest_to": "tumkur",
            "latitude": "12.4204003",
            "address": "Madikeri, Madikeri taluku, Kodagu, Karnataka, India"
        },
        "belgaum city": {
            "locType": "city",
            "blogLinks": [
                "https://www.tripoto.com/travel-guide/belgaum/trips"
            ],
            "longitude": "74.5069343",
            "closest_to": "tumkur",
            "latitude": "15.8572666",
            "address": "Belagavi, Belagavi taluku, Belgaum district, Karnataka, 590001, India"
        },
        "coastal karnataka": {
            "locType": "industrial",
            "blogLinks": [
                "https://en.wikipedia.org/wiki/Tourism_in_Karnataka"
            ],
            "longitude": "74.8137275833157",
            "closest_to": "tumkur",
            "latitude": "12.96014675",
            "address": "Bharat Petroleum Mangalore Coastal Installation, Baikampady, Mangaluru taluk, Dakshina Kannada, Karnataka, 575014, India"
        },
        "mumbai": {
            "locType": "restaurant",
            "blogLinks": [
                "http://www.nivalink.com/destination/kolhapur",
                "http://www.fameofcity.com/KARNATAKA/TUMKUR/",
                "http://www.nivalink.com/destination/belgaum"
            ],
            "longitude": "77.5718472",
            "closest_to": "tumkur",
            "latitude": "13.0002869",
            "address": "Mumbai Spice, 18/2, 10th Cross, Malleswaram, Vyalikaval, Malleswaram, Bengaluru, Bangalore Urban, Karnataka, 560003, India"
        },
        "dakshina kannada": {
            "locType": "administrative",
            "blogLinks": [
                "https://en.wikipedia.org/wiki/Tourism_in_Karnataka",
                "http://www.mapsofindia.com/maps/karnataka/"
            ],
            "longitude": "75.1008028650794",
            "closest_to": "tumkur",
            "latitude": "12.8114089",
            "address": "Dakshina Kannada, Karnataka, India"
        },
        "varadaraja": {
            "locType": "fuel",
            "blogLinks": [
                "https://en.wikipedia.org/wiki/Tourism_in_Karnataka"
            ],
            "longitude": "77.5542736",
            "closest_to": "tumkur",
            "latitude": "13.005885",
            "address": "Varadaraja Petrol / Gas Station, Dr. Rajkumar Road, Rajajinagar 1st Block, Subrahmanya Nagar, Bengaluru, Bangalore Urban, Karnataka, 560001, India"
        },
        "varaha": {
            "locType": "village",
            "blogLinks": [
                "https://en.wikipedia.org/wiki/Tourism_in_Karnataka"
            ],
            "longitude": "75.3718812",
            "closest_to": "tumkur",
            "latitude": "14.390777",
            "address": "Varaha, Hirekeruru taluk, Haveri district, Karnataka, India"
        },
        "tumkur railway station": {
            "locType": "station",
            "blogLinks": [
                "http://www.ticketgoose.com/bus-tickets/belgaum-to-tumkur",
                "http://www.ticketgoose.com/bus-tickets/tumkur-to-belgaum"
            ],
            "longitude": "77.1038648446195",
            "closest_to": "tumkur",
            "latitude": "13.33340145",
            "address": "Tumkur Railway Station, Gandhinagar 1st Cross Road, Tumakuru, Tumkur taluk, Tumkur district, Karnataka, 572101, India"
        },
        "panaji": {
            "locType": "trunk",
            "blogLinks": [
                "https://www.tripoto.com/travel-guide/belgaum/trips"
            ],
            "longitude": "74.4876784",
            "closest_to": "tumkur",
            "latitude": "15.4422981",
            "address": "Belgaum - Panaji Highway, Londa, Khanapura taluku, Belgaum district, Karnataka, India"
        },
        "shimsha river": {
            "locType": "river",
            "blogLinks": [
                "http://www.sutthonabanni.com/2011/07/tumkur-district.html"
            ],
            "longitude": "76.972542",
            "closest_to": "tumkur",
            "latitude": "12.8027322",
            "address": "Shimsha, Kunigal taluk, Tumkur district, Karnataka, India"
        },
        "kalyani": {
            "locType": "water",
            "blogLinks": [
                "https://en.wikipedia.org/wiki/Tourism_in_Karnataka"
            ],
            "longitude": "77.6286090192686",
            "closest_to": "tumkur",
            "latitude": "12.8406466",
            "address": "Kalyani, Neeladri Road, Electronics City Phase 1, Bettadasana Pura, Bangalore Urban, Karnataka, 560100, India"
        },
        "uttara kannada": {
            "locType": "administrative",
            "blogLinks": [
                "http://www.nivalink.com/destination/kolhapur",
                "https://en.wikipedia.org/wiki/Tourism_in_Karnataka",
                "http://travel.india.com/explore/wildlife-sanctuaries-in-karnataka/"
            ],
            "longitude": "74.4729163045979",
            "closest_to": "tumkur",
            "latitude": "14.6726379",
            "address": "Uttara Kannada, Karnataka, India"
        },
        "bagamandala": {
            "locType": "primary",
            "blogLinks": [
                "https://en.wikipedia.org/wiki/Tourism_in_Karnataka"
            ],
            "longitude": "75.748408",
            "closest_to": "tumkur",
            "latitude": "12.388062",
            "address": "Madikeri - Bagamandala ,Tala Kaveri Road, Mekeri, Madikeri taluku, Kodagu, Karnataka, India"
        },
        "shirali": {
            "locType": "village",
            "blogLinks": [
                "https://en.wikipedia.org/wiki/Tourism_in_Karnataka"
            ],
            "longitude": "74.5286591",
            "closest_to": "tumkur",
            "latitude": "14.0280925",
            "address": "Shirali, Bhatkala taluk, Uttara Kannada, Karnataka, 581354, India"
        },
        "kali river": {
            "locType": "river",
            "blogLinks": [
                "http://travel.india.com/explore/wildlife-sanctuaries-in-karnataka/"
            ],
            "longitude": "74.5802901",
            "closest_to": "tumkur",
            "latitude": "15.0145378",
            "address": "Kali, Joida taluk, Uttara Kannada, Karnataka, India"
        },
        "gokarna": {
            "locType": "town",
            "blogLinks": [
                "https://en.wikipedia.org/wiki/Tourism_in_Karnataka"
            ],
            "longitude": "74.3184418",
            "closest_to": "tumkur",
            "latitude": "14.5439629",
            "address": "Gokarna, Kumata taluk, Uttara Kannada, Karnataka, 581326, India"
        },
        "sangameshwara": {
            "locType": "village",
            "blogLinks": [
                "https://en.wikipedia.org/wiki/Tourism_in_Karnataka"
            ],
            "longitude": "74.87651",
            "closest_to": "tumkur",
            "latitude": "15.184341",
            "address": "Sangameshwara, Kalaghatagi taluku, Dharwad district, Karnataka, India"
        },
        "district bagalkot": {
            "locType": "commercial",
            "blogLinks": [
                "https://en.wikipedia.org/wiki/Tourism_in_Karnataka"
            ],
            "longitude": "75.6736388363024",
            "closest_to": "tumkur",
            "latitude": "16.16028195",
            "address": "District Commissioner's Office, Bagalkot, Navanagara, Bagalakote, Bagalakote taluk, Bagalkote district, Karnataka, India"
        },
        "hassan district": {
            "locType": "administrative",
            "blogLinks": [
                "https://en.wikipedia.org/wiki/Tourism_in_Karnataka"
            ],
            "longitude": "76.1745460751981",
            "closest_to": "tumkur",
            "latitude": "13.0315068",
            "address": "Hassan district, Karnataka, India"
        },
        "udupi": {
            "locType": "city",
            "blogLinks": [
                "https://en.wikipedia.org/wiki/Tourism_in_Karnataka"
            ],
            "longitude": "74.7473232",
            "closest_to": "tumkur",
            "latitude": "13.3419169",
            "address": "Udupi, Udupi taluku, Udupi district, Karnataka, 576101, India"
        },
        "bellary district": {
            "locType": "administrative",
            "blogLinks": [
                "https://en.wikipedia.org/wiki/Tourism_in_Karnataka"
            ],
            "longitude": "76.7137978546465",
            "closest_to": "tumkur",
            "latitude": "15.20597305",
            "address": "Bellary district, Karnataka, India"
        },
        "khanapur": {
            "locType": "town",
            "blogLinks": [
                "https://www.tripoto.com/travel-guide/belgaum/trips"
            ],
            "longitude": "74.5088917",
            "closest_to": "tumkur",
            "latitude": "15.639879",
            "address": "Khanapur, Khanapura taluku, Belgaum district, Karnataka, 591302, India"
        },
        "anegundi": {
            "locType": "village",
            "blogLinks": [
                "https://en.wikipedia.org/wiki/Tourism_in_Karnataka"
            ],
            "longitude": "76.4924232",
            "closest_to": "tumkur",
            "latitude": "15.3509583",
            "address": "Anegundi, Gangavati taluku, Koppal district, Karnataka, India"
        },
        "mangalore": {
            "locType": "city",
            "blogLinks": [
                "https://en.wikipedia.org/wiki/Tourism_in_Karnataka",
                "http://www.fameofcity.com/KARNATAKA/TUMKUR/",
                "http://www.ticketgoose.com/bus-tickets/belgaum-to-tumkur",
                "http://www.ticketgoose.com/bus-tickets/tumkur-to-belgaum",
                "http://travel.india.com/explore/wildlife-sanctuaries-in-karnataka/"
            ],
            "longitude": "74.8430082",
            "closest_to": "tumkur",
            "latitude": "12.8698101",
            "address": "Mangaluru, Mangaluru taluk, Dakshina Kannada, Karnataka, 575001, India"
        },
        "lokapura": {
            "locType": "town",
            "blogLinks": [
                "https://en.wikipedia.org/wiki/Tourism_in_Karnataka"
            ],
            "longitude": "75.3685939",
            "closest_to": "tumkur",
            "latitude": "16.1627427",
            "address": "Lokapura, Mudhola taluku, Bagalkote district, Karnataka, 587122, India"
        },
        "malaprabha": {
            "locType": "river",
            "blogLinks": [
                "https://en.wikipedia.org/wiki/Tourism_in_Karnataka"
            ],
            "longitude": "75.1982668",
            "closest_to": "tumkur",
            "latitude": "15.8914192",
            "address": "Malaprabha, Ramadurga taluku, Belgaum district, Karnataka, India"
        },
        "kaveri": {
            "locType": "river",
            "blogLinks": [
                "https://en.wikipedia.org/wiki/Tourism_in_Karnataka",
                "http://www.sutthonabanni.com/2011/07/tumkur-district.html"
            ],
            "longitude": "77.0635531",
            "closest_to": "tumkur",
            "latitude": "12.1687878",
            "address": "Kaveri, Kollegala taluk, Chamarajanagar district, Karnataka, India"
        },
        "anshi national park": {
            "locType": "national_park",
            "blogLinks": [
                "https://en.wikipedia.org/wiki/Tourism_in_Karnataka",
                "http://travel.india.com/explore/wildlife-sanctuaries-in-karnataka/"
            ],
            "longitude": "74.3934408094182",
            "closest_to": "tumkur",
            "latitude": "14.9994424",
            "address": "Anshi National Park, SH46, Bidoli, Joida taluk, Uttara Kannada, Karnataka, India"
        },
        "irupu falls": {
            "locType": "attraction",
            "blogLinks": [
                "https://en.wikipedia.org/wiki/Tourism_in_Karnataka"
            ],
            "longitude": "75.9839484",
            "closest_to": "tumkur",
            "latitude": "11.9667954",
            "address": "Iruppu Falls, SH89, Taila, Virajpet taluk, Kodagu, Karnataka, 571217, India"
        },
        "baroda": {
            "locType": "neighbourhood",
            "blogLinks": [
                "http://www.ticketgoose.com/bus-tickets/belgaum-to-tumkur",
                "http://www.ticketgoose.com/bus-tickets/tumkur-to-belgaum"
            ],
            "longitude": "77.5837404",
            "closest_to": "tumkur",
            "latitude": "12.893481",
            "address": "Bank of Baroda Colony, Puttenahalli, Bengaluru, Bangalore Urban, Karnataka, 560001, India"
        },
        "south east": {
            "locType": "administrative",
            "blogLinks": [
                "http://www.fameofcity.com/KARNATAKA/TUMKUR/"
            ],
            "longitude": "75.7223521",
            "closest_to": "tumkur",
            "latitude": "14.5203896",
            "address": "Karnataka, India"
        },
        "kemmangundi": {
            "locType": "village",
            "blogLinks": [
                "https://en.wikipedia.org/wiki/Tourism_in_Karnataka"
            ],
            "longitude": "75.7520082",
            "closest_to": "tumkur",
            "latitude": "13.5463048",
            "address": "Kemmannagundi, Tarikere taluku, Chikkamagaluru district, Karnataka, India"
        },
        "north karnataka": {
            "locType": "service",
            "blogLinks": [
                "https://en.wikipedia.org/wiki/Tourism_in_Karnataka"
            ],
            "longitude": "77.7660547",
            "closest_to": "tumkur",
            "latitude": "13.0217151",
            "address": "N, Chaithanya Samarpan, Kadugodi, Kannamangala, Bangalore Urban, Karnataka, 560066, India"
        },
        "bhatkal": {
            "locType": "town",
            "blogLinks": [
                "https://en.wikipedia.org/wiki/Tourism_in_Karnataka"
            ],
            "longitude": "74.5485295",
            "closest_to": "tumkur",
            "latitude": "13.9952114",
            "address": "Bhatkal, Bhatkala taluk, Uttara Kannada, Karnataka, 581320, India"
        },
        "kodagu": {
            "locType": "administrative",
            "blogLinks": [
                "https://en.wikipedia.org/wiki/Tourism_in_Karnataka",
                "http://www.mapsofindia.com/maps/karnataka/"
            ],
            "longitude": "75.6677235950852",
            "closest_to": "tumkur",
            "latitude": "12.38117345",
            "address": "Kodagu, Karnataka, India"
        },
        "aihole": {
            "locType": "village",
            "blogLinks": [
                "https://en.wikipedia.org/wiki/Tourism_in_Karnataka"
            ],
            "longitude": "75.8819129",
            "closest_to": "tumkur",
            "latitude": "16.0192298",
            "address": "Aihole, Hunagunda taluku, Bagalkote district, Karnataka, India"
        },
        "nilgiris": {
            "locType": "supermarket",
            "blogLinks": [
                "https://en.wikipedia.org/wiki/Tourism_in_Karnataka"
            ],
            "longitude": "77.6069792",
            "closest_to": "tumkur",
            "latitude": "12.9725052",
            "address": "Nilgiris, Brigade Road, Tasker Town, Ashok Nagar, Bengaluru, Bangalore Urban, Karnataka, 560001, India"
        },
        "ballari": {
            "locType": "city",
            "blogLinks": [
                "http://travel.india.com/explore/wildlife-sanctuaries-in-karnataka/"
            ],
            "longitude": "76.9125211",
            "closest_to": "tumkur",
            "latitude": "15.1467299",
            "address": "Ballari, Bellary taluk, Bellary district, Karnataka, India"
        },
        "belgaum": {
            "locType": "county",
            "blogLinks": [
                "https://en.wikipedia.org/wiki/Tourism_in_Karnataka",
                "http://www.ticketgoose.com/bus-tickets/belgaum-to-tumkur",
                "http://www.nivalink.com/destination/belgaum",
                "http://www.ticketgoose.com/bus-tickets/tumkur-to-belgaum",
                "https://www.tripoto.com/travel-guide/belgaum/trips"
            ],
            "longitude": "74.75",
            "closest_to": "belgaum",
            "latitude": "16.333333",
            "address": "Belgaum, Belgaum district, Karnataka, India"
        },
        "ghataprabha river": {
            "locType": "river",
            "blogLinks": [
                "https://en.wikipedia.org/wiki/Tourism_in_Karnataka"
            ],
            "longitude": "74.9165235",
            "closest_to": "tumkur",
            "latitude": "16.2124344",
            "address": "Ghataprabha, Gokak taluku, Belgaum district, Karnataka, India"
        },
        "nippani": {
            "locType": "town",
            "blogLinks": [
                "https://en.wikipedia.org/wiki/Tourism_in_Karnataka"
            ],
            "longitude": "74.3842372",
            "closest_to": "belgaum",
            "latitude": "16.4020402",
            "address": "Nippani, Chikodi taluk, Belgaum district, Karnataka, 591237, India"
        },
        "banashankari temple": {
            "locType": "place_of_worship",
            "blogLinks": [
                "https://en.wikipedia.org/wiki/Tourism_in_Karnataka"
            ],
            "longitude": "77.5731752886765",
            "closest_to": "tumkur",
            "latitude": "12.91568785",
            "address": "Banashankari Temple, Kanakapura Road, JP Nagar 1st Phase, Kaderenahalli, Bengaluru, Bangalore Urban, Karnataka, 560001, India"
        },
        "bhadra river": {
            "locType": "river",
            "blogLinks": [
                "https://en.wikipedia.org/wiki/Tourism_in_Karnataka"
            ],
            "longitude": "75.527118",
            "closest_to": "tumkur",
            "latitude": "13.4888356",
            "address": "Bhadra, Chikkamagaluru taluku, Chikkamagaluru district, Karnataka, India"
        },
        "bagalkote": {
            "locType": "administrative",
            "blogLinks": [
                "https://en.wikipedia.org/wiki/Tourism_in_Karnataka",
                "http://www.mapsofindia.com/maps/karnataka/"
            ],
            "longitude": "75.5825586777167",
            "closest_to": "tumkur",
            "latitude": "16.28998085",
            "address": "Bagalkote district, Karnataka, India"
        },
        "yellamma": {
            "locType": "industrial",
            "blogLinks": [
                "https://www.tripoto.com/travel-guide/belgaum/trips"
            ],
            "longitude": "75.959986215",
            "closest_to": "tumkur",
            "latitude": "14.39927745",
            "address": "NTC - Yellamma Mills Area, Tolahunase, Davanagere taluku, Davanagere district, Karnataka, 577003, India"
        },
        "sannati": {
            "locType": "village",
            "blogLinks": [
                "https://en.wikipedia.org/wiki/Tourism_in_Karnataka"
            ],
            "longitude": "76.9080631",
            "closest_to": "tumkur",
            "latitude": "16.8293201",
            "address": "Sannati, Chitapura taluku, Kalaburagi district, Karnataka, India"
        },
        "kalasa": {
            "locType": "town",
            "blogLinks": [
                "https://en.wikipedia.org/wiki/Tourism_in_Karnataka"
            ],
            "longitude": "75.3582366",
            "closest_to": "tumkur",
            "latitude": "13.2322235",
            "address": "Kalasa, Mudigere taluk, Chikkamagaluru district, Karnataka, 577124, India"
        },
        "bankapura": {
            "locType": "town",
            "blogLinks": [
                "https://en.wikipedia.org/wiki/Tourism_in_Karnataka"
            ],
            "longitude": "75.2639298",
            "closest_to": "tumkur",
            "latitude": "14.9217443",
            "address": "Bankapura, Shiggaon taluk, Haveri district, Karnataka, 581202, India"
        },
        "manipal": {
            "locType": "town",
            "blogLinks": [
                "https://en.wikipedia.org/wiki/Tourism_in_Karnataka",
                "http://www.ticketgoose.com/bus-tickets/belgaum-to-tumkur",
                "https://www.goibibo.com/routeplanner/belgaum-tumkur/"
            ],
            "longitude": "74.7870308",
            "closest_to": "tumkur",
            "latitude": "13.3519723",
            "address": "Manipal, Udupi taluku, Udupi district, Karnataka, India"
        },
        "koratagere": {
            "locType": "town",
            "blogLinks": [
                "http://www.ticketgoose.com/bus-tickets/belgaum-to-tumkur",
                "http://www.ticketgoose.com/bus-tickets/tumkur-to-belgaum"
            ],
            "longitude": "77.2358911",
            "closest_to": "tumkur",
            "latitude": "13.5215422",
            "address": "Koratagere, Koratagere taluku, Tumkur district, Karnataka, 572129, India"
        },
        "belgaum railway station": {
            "locType": "station",
            "blogLinks": [
                "http://travel.india.com/explore/wildlife-sanctuaries-in-karnataka/"
            ],
            "longitude": "74.509065",
            "closest_to": "tumkur",
            "latitude": "15.8489677",
            "address": "Belgaum, Belgaum - Panaji Highway, Cantonment, Belagavi, Belagavi taluku, Belgaum district, Karnataka, 590001, India"
        },
        "chandramoulishwara": {
            "locType": "place_of_worship",
            "blogLinks": [
                "https://en.wikipedia.org/wiki/Tourism_in_Karnataka"
            ],
            "longitude": "76.6290267",
            "closest_to": "tumkur",
            "latitude": "12.3225663",
            "address": "Chandramoulishwara Temple, Adipampa Road, Gokulam, Mysuru, Mysuru taluk, Mysuru district, Karnataka, 570001, India"
        },
        "india": {
            "locType": "administrative",
            "blogLinks": [
                "http://distancecalculator.globefeed.com/India_Distance_Calculator.asp?state=19",
                "http://www.sutthonabanni.com/2011/07/tumkur-district.html",
                "https://en.wikipedia.org/wiki/Tourism_in_Karnataka",
                "http://www.fameofcity.com/KARNATAKA/TUMKUR/",
                "http://travel.india.com/explore/wildlife-sanctuaries-in-karnataka/",
                "https://www.distancecalculator.net/from-belgaum-to-tumkur",
                "http://www.mapsofindia.com/maps/karnataka/"
            ],
            "longitude": "75.7223521",
            "closest_to": "tumkur",
            "latitude": "14.5203896",
            "address": "Karnataka, India"
        },
        "kamalapur": {
            "locType": "yes",
            "blogLinks": [
                "http://travel.india.com/explore/wildlife-sanctuaries-in-karnataka/"
            ],
            "longitude": "75.003629911571",
            "closest_to": "tumkur",
            "latitude": "15.4456282",
            "address": "Kamalapur Nursing Home, Station Road, Kalyana nagar, Gandhinagar, Dharwad, Dharawada taluku, Dharwad district, Karnataka, 580001, India"
        },
        "kerala": {
            "locType": "restaurant",
            "blogLinks": [
                "http://www.mapsofindia.com/maps/karnataka/",
                "http://travel.india.com/explore/wildlife-sanctuaries-in-karnataka/"
            ],
            "longitude": "77.6382683",
            "closest_to": "tumkur",
            "latitude": "12.9726449",
            "address": "New Life Kerala Mess, Sai Baba Mandira Road, Mottappanapalaya, Indiranagar, Bengaluru, Bangalore Urban, Karnataka, 560001, India"
        },
        "new delhi": {
            "locType": "college",
            "blogLinks": [
                "http://www.fameofcity.com/KARNATAKA/TUMKUR/"
            ],
            "longitude": "76.6142178649055",
            "closest_to": "tumkur",
            "latitude": "12.30911465",
            "address": "Regional Institute of Education, Chaduranga Road, Jayalakshmipuram, Mysuru, Mysuru taluk, Mysuru district, Karnataka, 570001, India"
        },
        "moyar": {
            "locType": "viewpoint",
            "blogLinks": [
                "http://travel.india.com/explore/wildlife-sanctuaries-in-karnataka/"
            ],
            "longitude": "76.631118",
            "closest_to": "tumkur",
            "latitude": "11.6161121",
            "address": "Moyar Gorge, Gundlupet - Coimbatore Highway, Bandipur, Gundlupet taluk, Chamarajanagar district, Karnataka, India"
        },
        "maharashtra": {
            "locType": "bank",
            "blogLinks": [
                "http://www.nivalink.com/destination/kolhapur",
                "https://en.wikipedia.org/wiki/Tourism_in_Karnataka",
                "http://www.fameofcity.com/KARNATAKA/TUMKUR/",
                "http://www.nivalink.com/destination/belgaum",
                "http://www.mapsofindia.com/maps/karnataka/"
            ],
            "longitude": "77.5856013",
            "closest_to": "tumkur",
            "latitude": "12.9049455",
            "address": "Bank of Maharashtra, 24th Main, K R Layout, Puttenahalli, Bengaluru, Bangalore Urban, Karnataka, 560001, India"
        },
        "hospet": {
            "locType": "town",
            "blogLinks": [
                "http://travel.india.com/explore/wildlife-sanctuaries-in-karnataka/"
            ],
            "longitude": "76.3870527",
            "closest_to": "tumkur",
            "latitude": "15.266079",
            "address": "Hosapete, Hosapete taluk, Bellary district, Karnataka, 583200, India"
        },
        "shivanasamudra": {
            "locType": "village",
            "blogLinks": [
                "https://en.wikipedia.org/wiki/Tourism_in_Karnataka"
            ],
            "longitude": "77.1703215",
            "closest_to": "tumkur",
            "latitude": "12.2719056",
            "address": "Shivanasamudra, Kollegala taluk, Chamarajanagar district, Karnataka, India"
        },
        "daroji": {
            "locType": "village",
            "blogLinks": [
                "http://travel.india.com/explore/wildlife-sanctuaries-in-karnataka/"
            ],
            "longitude": "76.6667172",
            "closest_to": "tumkur",
            "latitude": "15.2671318",
            "address": "Daroji, Sanduru taluk, Bellary district, Karnataka, India"
        },
        "haveri": {
            "locType": "town",
            "blogLinks": [
                "https://en.wikipedia.org/wiki/Tourism_in_Karnataka",
                "http://www.mapsofindia.com/maps/karnataka/"
            ],
            "longitude": "75.3996731",
            "closest_to": "tumkur",
            "latitude": "14.7874825",
            "address": "Haveri, Haveri taluku, Haveri district, Karnataka, 581110, India"
        },
        "hubli": {
            "locType": "city",
            "blogLinks": [
                "http://www.nivalink.com/destination/kolhapur",
                "https://en.wikipedia.org/wiki/Tourism_in_Karnataka",
                "http://www.nivalink.com/destination/belgaum",
                "http://travel.india.com/explore/wildlife-sanctuaries-in-karnataka/"
            ],
            "longitude": "75.1379848",
            "closest_to": "tumkur",
            "latitude": "15.3518378",
            "address": "Hubballi - \u0cb9\u0cc1\u0cac\u0ccd\u0cac\u0cb3\u0ccd\u0cb3\u0cbf, Hubballi taluku, Dharwad district, Karnataka, 580020, India"
        },
        "tamil nadu": {
            "locType": "bank",
            "blogLinks": [
                "https://en.wikipedia.org/wiki/Tourism_in_Karnataka",
                "http://www.mapsofindia.com/maps/karnataka/",
                "http://travel.india.com/explore/wildlife-sanctuaries-in-karnataka/"
            ],
            "longitude": "76.9514152",
            "closest_to": "tumkur",
            "latitude": "11.0025894",
            "address": "KARNATAKA BANK, Diwan Bhadur Road, Five Corner, RS Puram, Coimbatore, Coimbatore district, Tamil Nadu, 641001, India"
        },
        "itagi": {
            "locType": "village",
            "blogLinks": [
                "https://en.wikipedia.org/wiki/Tourism_in_Karnataka"
            ],
            "longitude": "75.6701043",
            "closest_to": "tumkur",
            "latitude": "14.550374",
            "address": "Itagi, Ranebennuru taluk, Haveri district, Karnataka, India"
        },
        "bellary": {
            "locType": "county",
            "blogLinks": [
                "https://en.wikipedia.org/wiki/Tourism_in_Karnataka",
                "http://www.mapsofindia.com/maps/karnataka/"
            ],
            "longitude": "76.8323648",
            "closest_to": "tumkur",
            "latitude": "15.2485413",
            "address": "Bellary, Bellary district, Karnataka, India"
        },
        "yeshwanthpur": {
            "locType": "marketplace",
            "blogLinks": [
                "https://www.tripoto.com/travel-guide/tumkur"
            ],
            "longitude": "77.5451161845771",
            "closest_to": "tumkur",
            "latitude": "13.0159579",
            "address": "Yeshwanthpur Yard market, Shankarnagar Main Road, Goragunte Palya, Nandini Layout, Bengaluru, Bangalore Urban, Karnataka, 560001, India"
        },
        "vyasanakere": {
            "locType": "village",
            "blogLinks": [
                "http://travel.india.com/explore/wildlife-sanctuaries-in-karnataka/"
            ],
            "longitude": "76.3553916",
            "closest_to": "tumkur",
            "latitude": "15.1954023",
            "address": "Vyasanakere, Hosapete taluk, Bellary district, Karnataka, India"
        },
        "karnataka": {
            "locType": "atm",
            "blogLinks": [
                "http://www.nivalink.com/destination/belgaum",
                "http://distancecalculator.globefeed.com/India_Distance_Calculator.asp?state=19",
                "http://www.sutthonabanni.com/2011/07/tumkur-district.html",
                "https://en.wikipedia.org/wiki/Tourism_in_Karnataka",
                "http://www.fameofcity.com/KARNATAKA/TUMKUR/",
                "http://www.ticketgoose.com/bus-tickets/belgaum-to-tumkur",
                "http://travel.india.com/explore/wildlife-sanctuaries-in-karnataka/",
                "http://www.nivalink.com/destination/kolhapur",
                "http://www.mapsofindia.com/maps/karnataka/",
                "http://www.karnatakatourism.org/",
                "http://www.ticketgoose.com/bus-tickets/tumkur-to-belgaum",
                "https://www.tripoto.com/travel-guide/belgaum/trips"
            ],
            "longitude": "76.6639936",
            "closest_to": "tumkur",
            "latitude": "12.3084901",
            "address": "Karnataka, Shalivahana Road, Nazarbad, Mysuru, Mysuru taluk, Mysuru district, Karnataka, 570001, India"
        },
        "venur": {
            "locType": "village",
            "blogLinks": [
                "https://en.wikipedia.org/wiki/Tourism_in_Karnataka"
            ],
            "longitude": "75.1443252",
            "closest_to": "tumkur",
            "latitude": "13.0122097",
            "address": "Venoor, Beltangadi taluk, Dakshina Kannada, Karnataka, 574242, India"
        },
        "narasimha swamy temple": {
            "locType": "place_of_worship",
            "blogLinks": [
                "https://en.wikipedia.org/wiki/Tourism_in_Karnataka"
            ],
            "longitude": "76.2427318",
            "closest_to": "tumkur",
            "latitude": "13.0943931",
            "address": "Narasimha Swamy Temple, Attavara Mudigere Road, Attavara, Hasana taluk, Hassan district, Karnataka, India"
        },
        "pune": {
            "locType": "trunk",
            "blogLinks": [
                "http://www.nivalink.com/destination/kolhapur",
                "http://www.nivalink.com/destination/belgaum",
                "https://www.tripoto.com/travel-guide/tumkur"
            ],
            "longitude": "76.9479122",
            "closest_to": "belgaum",
            "latitude": "17.8199745",
            "address": "Pune - Machilipatnam Highway, Kaudiyala, Basavakalyana taluku, Bidar district, Karnataka, India"
        },
        "gulbarga district": {
            "locType": "county",
            "blogLinks": [
                "https://en.wikipedia.org/wiki/Tourism_in_Karnataka"
            ],
            "longitude": "77.083333",
            "closest_to": "belgaum",
            "latitude": "17.166667",
            "address": "Kalaburgi, Kalaburagi district, Karnataka, India"
        },
        "aralaguppe": {
            "locType": "village",
            "blogLinks": [
                "http://www.ticketgoose.com/bus-tickets/belgaum-to-tumkur",
                "http://www.ticketgoose.com/bus-tickets/tumkur-to-belgaum"
            ],
            "longitude": "76.6165598",
            "closest_to": "tumkur",
            "latitude": "13.2517886",
            "address": "Aralaguppe, Tipaturu taluk, Tumkur district, Karnataka, India"
        },
        "sambra": {
            "locType": "village",
            "blogLinks": [
                "http://www.ticketgoose.com/bus-tickets/belgaum-to-tumkur",
                "http://www.ticketgoose.com/bus-tickets/tumkur-to-belgaum"
            ],
            "longitude": "77.3492254",
            "closest_to": "tumkur",
            "latitude": "16.6128965",
            "address": "Sambra, Yadagiri taluku, Yadagiri district, Karnataka, India"
        },
        "lakshmi narasimha swamy temple": {
            "locType": "place_of_worship",
            "blogLinks": [
                "http://www.ticketgoose.com/bus-tickets/belgaum-to-tumkur",
                "http://www.ticketgoose.com/bus-tickets/tumkur-to-belgaum"
            ],
            "longitude": "77.6270726",
            "closest_to": "tumkur",
            "latitude": "13.0188187",
            "address": "Lakshmi Narasimha Swamy Temple, 5th Main Road, Shampura, Hennur, Bengaluru, Bangalore Urban, Karnataka, 560001, India"
        },
        "hassan": {
            "locType": "town",
            "blogLinks": [
                "https://en.wikipedia.org/wiki/Tourism_in_Karnataka"
            ],
            "longitude": "76.0992703",
            "closest_to": "tumkur",
            "latitude": "13.0070817",
            "address": "Hassan, Hasana taluk, Hassan district, Karnataka, 573201, India"
        },
        "gokak valley": {
            "locType": "administrative",
            "blogLinks": [
                "https://www.tripoto.com/travel-guide/belgaum/trips"
            ],
            "longitude": "74.9081935587317",
            "closest_to": "tumkur",
            "latitude": "16.167464",
            "address": "Gokak taluku, Belgaum district, Karnataka, India"
        },
        "sirigere": {
            "locType": "village",
            "blogLinks": [
                "https://en.wikipedia.org/wiki/Tourism_in_Karnataka"
            ],
            "longitude": "76.2051907",
            "closest_to": "tumkur",
            "latitude": "14.2840739",
            "address": "Sirigere, Chitradurga taluku, Chitradurga district, Karnataka, India"
        },
        "lushington falls": {
            "locType": "waterfall",
            "blogLinks": [
                "https://en.wikipedia.org/wiki/Tourism_in_Karnataka"
            ],
            "longitude": "74.7477592",
            "closest_to": "tumkur",
            "latitude": "14.4097755",
            "address": "\u0c89\u0c82\u0c9a\u0cb3\u0ccd\u0cb3\u0cbf \u0c9c\u0cb2\u0caa\u0cbe\u0ca4, Siddapura taluk, Uttara Kannada, Karnataka, India"
        }
    },
    "belgaum": {
        "osm_id": "316417174",
        "display_name": "Belgaum, Belgaum district, Karnataka, India",
        "importance": 0.65,
        "place_id": "1393576",
        "class": "place",
        "boundingbox": [
            "15.693333",
            "16.973333",
            "74.11",
            "75.39"
        ],
        "type": "county",
        "lon": "74.75",
        "licence": "Data \u00a9 OpenStreetMap contributors, ODbL 1.0. http://www.openstreetmap.org/copyright",
        "osm_type": "node",
        "lat": "16.333333",
        "icon": "https://nominatim.openstreetmap.org/images/mapicons/poi_boundary_administrative.p.20.png"
    },
    "tumkur": {
        "osm_id": "316417304",
        "display_name": "Tumakuru, Tumkur district, Karnataka, India",
        "importance": 0.65,
        "place_id": "1397122",
        "class": "place",
        "boundingbox": [
            "12.8599406",
            "14.1399406",
            "76.3602445",
            "77.6402445"
        ],
        "type": "county",
        "lon": "77.0002445",
        "licence": "Data \u00a9 OpenStreetMap contributors, ODbL 1.0. http://www.openstreetmap.org/copyright",
        "osm_type": "node",
        "lat": "13.4999406",
        "icon": "https://nominatim.openstreetmap.org/images/mapicons/poi_boundary_administrative.p.20.png"
    }
}