{
    "mentions": {
        "baroda": {
            "locType": "neighbourhood",
            "blogLinks": [
                "http://www.karnatakatourism.org/",
                "http://distancecalculator.globefeed.com/India_Distance_Calculator.asp?state=19"
            ],
            "longitude": "77.5837404",
            "closest_to": "chitradurga",
            "latitude": "12.893481",
            "address": "Bank of Baroda Colony, Puttenahalli, Bengaluru, Bangalore Urban, Karnataka, 560001, India"
        },
        "bijapur": {
            "locType": "city",
            "blogLinks": [
                "http://www.mapsofindia.com/maps/karnataka/",
                "http://www.nivalink.com/destination/belgaum",
                "https://en.wikipedia.org/wiki/Belgaum"
            ],
            "longitude": "75.7175387",
            "closest_to": "belgaum",
            "latitude": "16.8269911",
            "address": "Vijayapura, Vijayapura taluk, Bijapur district, Karnataka, 586101, India"
        },
        "kamat hotel": {
            "locType": "restaurant",
            "blogLinks": [
                "http://praveenpn.com/blog/2011/01/05/bangalore-to-goa-by-car/"
            ],
            "longitude": "75.0131542",
            "closest_to": "chitradurga",
            "latitude": "15.4595482",
            "address": "Kamat Hotel, Subhas Road, Saidapur, Kamalapura, Dharwad, Dharawada taluku, Dharwad district, Karnataka, 580001, India"
        },
        "delhi": {
            "locType": "trunk",
            "blogLinks": [
                "https://en.wikipedia.org/wiki/Belgaum"
            ],
            "longitude": "77.6666062",
            "closest_to": "chitradurga",
            "latitude": "12.9212473",
            "address": "Outer Ring Road, Green Glen Layout, Iblur, Bengaluru, Bangalore Urban, Karnataka, 560001, India"
        },
        "chitradurga": {
            "locType": "town",
            "blogLinks": [
                "http://www.ticketgoose.com/bus-tickets/chitradurga-to-belgaum",
                "http://www.holidayiq.com/Chitradurga-Sightseeing-650.html",
                "http://www.nivalink.com/destination/chitradurga"
            ],
            "longitude": "76.4005122",
            "closest_to": "chitradurga",
            "latitude": "14.2266443",
            "address": "Chitradurga, Chitradurga taluku, Chitradurga district, Karnataka, 577500, India"
        },
        "ranganathaswamy temple": {
            "locType": "place_of_worship",
            "blogLinks": [
                "http://www.holidayiq.com/Chitradurga-Sightseeing-650.html"
            ],
            "longitude": "76.1812411",
            "closest_to": "chitradurga",
            "latitude": "12.854149",
            "address": "Ranganathaswamy Temple, Steps to Ranganathaswami Temple, Halekote, Hole Narasipura taluk, Hassan district, Karnataka, 573211, India"
        },
        "ramanagara": {
            "locType": "town",
            "blogLinks": [
                "http://www.mapsofindia.com/maps/karnataka/"
            ],
            "longitude": "74.4900863",
            "closest_to": "chitradurga",
            "latitude": "15.422047",
            "address": "Ramanagara, Khanapura taluku, Belgaum district, Karnataka, India"
        },
        "margao": {
            "locType": "bank",
            "blogLinks": [
                "http://praveenpn.com/blog/2011/01/05/bangalore-to-goa-by-car/"
            ],
            "longitude": "73.9583411",
            "closest_to": "chitradurga",
            "latitude": "15.2740083",
            "address": "Karnataka bank, NH66, Aquem, Fatorda, Margao, South Goa, Goa, 403600, India"
        },
        "bellary": {
            "locType": "county",
            "blogLinks": [
                "http://www.mapsofindia.com/maps/karnataka/"
            ],
            "longitude": "76.8323648",
            "closest_to": "chitradurga",
            "latitude": "15.2485413",
            "address": "Bellary, Bellary district, Karnataka, India"
        },
        "dakshina kannada": {
            "locType": "administrative",
            "blogLinks": [
                "http://www.mapsofindia.com/maps/karnataka/"
            ],
            "longitude": "75.1008028650794",
            "closest_to": "chitradurga",
            "latitude": "12.8114089",
            "address": "Dakshina Kannada, Karnataka, India"
        },
        "kodagu": {
            "locType": "administrative",
            "blogLinks": [
                "http://www.mapsofindia.com/maps/karnataka/"
            ],
            "longitude": "75.6677235950852",
            "closest_to": "chitradurga",
            "latitude": "12.38117345",
            "address": "Kodagu, Karnataka, India"
        },
        "bengaluru": {
            "locType": "city",
            "blogLinks": [
                "https://en.wikipedia.org/wiki/Belgaum"
            ],
            "longitude": "77.5912997",
            "closest_to": "chitradurga",
            "latitude": "12.9791198",
            "address": "Bengaluru, Bangalore Urban, Karnataka, 560001, India"
        },
        "koppal": {
            "locType": "town",
            "blogLinks": [
                "http://www.mapsofindia.com/maps/karnataka/"
            ],
            "longitude": "76.1547421",
            "closest_to": "chitradurga",
            "latitude": "15.3484144",
            "address": "Koppala, Koppala taluku, Koppal district, Karnataka, 583231, India"
        },
        "hazara rama temple": {
            "locType": "place_of_worship",
            "blogLinks": [
                "http://www.holidayiq.com/Chitradurga-Sightseeing-650.html"
            ],
            "longitude": "76.4687794",
            "closest_to": "chitradurga",
            "latitude": "15.3178218",
            "address": "Hazara Rama Temple, Hampi Kamalapura Road, Kamalapura, Hosapete taluk, Bellary district, Karnataka, 583221, India"
        },
        "belgaum fort": {
            "locType": "locality",
            "blogLinks": [
                "http://www.nivalink.com/destination/belgaum"
            ],
            "longitude": "74.5255651",
            "closest_to": "chitradurga",
            "latitude": "15.8581696",
            "address": "Belgaum Fort, Belagavi, Belagavi taluku, Belgaum district, Karnataka, 590001, India"
        },
        "udipi": {
            "locType": "restaurant",
            "blogLinks": [
                "http://www.nivalink.com/destination/chitradurga"
            ],
            "longitude": "77.652888",
            "closest_to": "chitradurga",
            "latitude": "12.9530588",
            "address": "Udipi Park, 2nd Cross Road, Muniyappa Layout, Murugeshpalaya, Belure Ambedkar Nagar, Bangalore Urban, Karnataka, 560067, India"
        },
        "belgaum": {
            "locType": "county",
            "blogLinks": [
                "http://www.nivalink.com/destination/belgaum",
                "https://en.wikipedia.org/wiki/Belgaum"
            ],
            "longitude": "74.75",
            "closest_to": "chitradurga",
            "latitude": "16.333333",
            "address": "Belgaum, Belgaum district, Karnataka, India"
        },
        "north karnataka": {
            "locType": "service",
            "blogLinks": [
                "https://en.wikipedia.org/wiki/Belgaum"
            ],
            "longitude": "77.7660547",
            "closest_to": "chitradurga",
            "latitude": "13.0217151",
            "address": "N, Chaithanya Samarpan, Kadugodi, Kannamangala, Bangalore Urban, Karnataka, 560066, India"
        },
        "gokak valley": {
            "locType": "administrative",
            "blogLinks": [
                "https://www.tripoto.com/travel-guide/belgaum/trips"
            ],
            "longitude": "74.9081935587317",
            "closest_to": "chitradurga",
            "latitude": "16.167464",
            "address": "Gokak taluku, Belgaum district, Karnataka, India"
        },
        "karnataka state": {
            "locType": "university",
            "blogLinks": [
                "https://en.wikipedia.org/wiki/Belgaum"
            ],
            "longitude": "76.6236231",
            "closest_to": "chitradurga",
            "latitude": "12.315382",
            "address": "Karnataka State Open University, \u0cb9\u0cc1\u0ca3\u0cb8\u0cc2\u0cb0\u0cc1 \u0cb0\u0cb8\u0ccd\u0ca4\u0cc6, Gokulam, Mysuru, Mysuru taluk, Mysuru district, Karnataka, 570001, India"
        },
        "bangalore": {
            "locType": "city",
            "blogLinks": [
                "http://www.mapsofindia.com/maps/karnataka/",
                "http://praveenpn.com/blog/2011/01/05/bangalore-to-goa-by-car/",
                "http://www.nivalink.com/destination/belgaum",
                "https://en.wikipedia.org/wiki/Belgaum",
                "https://www.tripoto.com/travel-guide/belgaum/trips",
                "http://www.nivalink.com/destination/chitradurga"
            ],
            "longitude": "77.5912997",
            "closest_to": "chitradurga",
            "latitude": "12.9791198",
            "address": "Bengaluru, Bangalore Urban, Karnataka, 560001, India"
        },
        "karnatka": {
            "locType": "bank",
            "blogLinks": [
                "https://en.wikipedia.org/wiki/Belgaum"
            ],
            "longitude": "77.5679508",
            "closest_to": "chitradurga",
            "latitude": "12.9500847",
            "address": "Karnatka Rajya Kaigarika Sahakari Bank, Bull Temple Road, Mavalli, Chamarajapete, Bengaluru, Bangalore Urban, Karnataka, 560001, India"
        },
        "kannada": {
            "locType": "administrative",
            "blogLinks": [
                "https://en.wikipedia.org/wiki/Belgaum"
            ],
            "longitude": "75.1008028650794",
            "closest_to": "chitradurga",
            "latitude": "12.8114089",
            "address": "Dakshina Kannada, Karnataka, India"
        },
        "kalaburgi": {
            "locType": "county",
            "blogLinks": [
                "https://en.wikipedia.org/wiki/Belgaum"
            ],
            "longitude": "77.083333",
            "closest_to": "belgaum",
            "latitude": "17.166667",
            "address": "Kalaburgi, Kalaburagi district, Karnataka, India"
        },
        "honnavar": {
            "locType": "town",
            "blogLinks": [
                "http://praveenpn.com/blog/2011/01/05/bangalore-to-goa-by-car/"
            ],
            "longitude": "74.4446716",
            "closest_to": "chitradurga",
            "latitude": "14.2810827",
            "address": "Honnavar, Honnavara taluku, Uttara Kannada, Karnataka, 581334, India"
        },
        "state highway 20": {
            "locType": "commercial",
            "blogLinks": [
                "https://en.wikipedia.org/wiki/Belgaum"
            ],
            "longitude": "77.6136215456766",
            "closest_to": "chitradurga",
            "latitude": "12.9741486",
            "address": "Karnataka State Power Transmission Corporation Limited, Ashok Nagar, Bengaluru, Bangalore Urban, Karnataka, 560001, India"
        },
        "bankapur": {
            "locType": "town",
            "blogLinks": [
                "http://praveenpn.com/blog/2011/01/05/bangalore-to-goa-by-car/"
            ],
            "longitude": "75.2639298",
            "closest_to": "chitradurga",
            "latitude": "14.9217443",
            "address": "Bankapura, Shiggaon taluk, Haveri district, Karnataka, 581202, India"
        },
        "kundapura": {
            "locType": "town",
            "blogLinks": [
                "http://www.nivalink.com/destination/chitradurga"
            ],
            "longitude": "74.6915722",
            "closest_to": "chitradurga",
            "latitude": "13.6250993",
            "address": "Kundapura, \u0c95\u0cc1\u0c82\u0ca6\u0cbe\u0caa\u0cc1\u0cb0 \u0ca4\u0cbe\u0cb2\u0cc2\u0c95\u0cc1, Udupi district, Karnataka, 576200, India"
        },
        "yellamma": {
            "locType": "industrial",
            "blogLinks": [
                "https://www.tripoto.com/travel-guide/belgaum/trips"
            ],
            "longitude": "75.959986215",
            "closest_to": "chitradurga",
            "latitude": "14.39927745",
            "address": "NTC - Yellamma Mills Area, Tolahunase, Davanagere taluku, Davanagere district, Karnataka, 577003, India"
        },
        "kittur": {
            "locType": "town",
            "blogLinks": [
                "https://en.wikipedia.org/wiki/Belgaum"
            ],
            "longitude": "74.7876971",
            "closest_to": "chitradurga",
            "latitude": "15.5957166",
            "address": "Kitturu, Bailahongala taluku, Belgaum district, Karnataka, 591115, India"
        },
        "bankapura": {
            "locType": "town",
            "blogLinks": [
                "http://praveenpn.com/blog/2011/01/05/bangalore-to-goa-by-car/"
            ],
            "longitude": "75.2639298",
            "closest_to": "chitradurga",
            "latitude": "14.9217443",
            "address": "Bankapura, Shiggaon taluk, Haveri district, Karnataka, 581202, India"
        },
        "athani": {
            "locType": "administrative",
            "blogLinks": [
                "https://en.wikipedia.org/wiki/Belgaum"
            ],
            "longitude": "75.0610457789688",
            "closest_to": "belgaum",
            "latitude": "16.7339495",
            "address": "Athani taluku, Belgaum district, Karnataka, India"
        },
        "karwar": {
            "locType": "town",
            "blogLinks": [
                "http://praveenpn.com/blog/2011/01/05/bangalore-to-goa-by-car/",
                "https://en.wikipedia.org/wiki/Belgaum"
            ],
            "longitude": "74.1319229",
            "closest_to": "chitradurga",
            "latitude": "14.8120931",
            "address": "Karwar, Karavara taluk, Uttara Kannada, Karnataka, 581300, India"
        },
        "belgaum railway station": {
            "locType": "station",
            "blogLinks": [
                "http://www.nivalink.com/destination/chitradurga"
            ],
            "longitude": "74.509065",
            "closest_to": "chitradurga",
            "latitude": "15.8489677",
            "address": "Belgaum, Belgaum - Panaji Highway, Cantonment, Belagavi, Belagavi taluku, Belgaum district, Karnataka, 590001, India"
        },
        "bangalore east": {
            "locType": "city",
            "blogLinks": [
                "http://praveenpn.com/blog/2011/01/05/bangalore-to-goa-by-car/"
            ],
            "longitude": "77.5912997",
            "closest_to": "chitradurga",
            "latitude": "12.9791198",
            "address": "Bengaluru, Bangalore Urban, Karnataka, 560001, India"
        },
        "india": {
            "locType": "administrative",
            "blogLinks": [
                "http://www.mapsofindia.com/maps/karnataka/",
                "http://praveenpn.com/blog/2011/01/05/bangalore-to-goa-by-car/",
                "http://www.nivalink.com/destination/chitradurga",
                "https://en.wikipedia.org/wiki/Belgaum",
                "http://distancecalculator.globefeed.com/India_Distance_Calculator.asp?state=19",
                "http://www.ticketgoose.com/bus-tickets/chitradurga-to-belgaum"
            ],
            "longitude": "75.7223521",
            "closest_to": "chitradurga",
            "latitude": "14.5203896",
            "address": "Karnataka, India"
        },
        "urdu": {
            "locType": "recreation_ground",
            "blogLinks": [
                "https://en.wikipedia.org/wiki/Belgaum"
            ],
            "longitude": "75.636575371858",
            "closest_to": "chitradurga",
            "latitude": "14.6180369",
            "address": "Urdu Ground, Ranebennur, Ranebennuru taluk, Haveri district, Karnataka, 581115, India"
        },
        "kolkata": {
            "locType": "restaurant",
            "blogLinks": [
                "https://en.wikipedia.org/wiki/Belgaum"
            ],
            "longitude": "77.5478044",
            "closest_to": "chitradurga",
            "latitude": "12.9845159",
            "address": "Kolkata Biryani And Rolls, 1st Main Basaveshwaranagar, Rajajinagar 3rd Block, Dasarahalli, Bengaluru, Bangalore Urban, Karnataka, 560010, India"
        },
        "machche": {
            "locType": "village",
            "blogLinks": [
                "https://en.wikipedia.org/wiki/Belgaum"
            ],
            "longitude": "74.4840647",
            "closest_to": "chitradurga",
            "latitude": "15.7915932",
            "address": "Machche, Belagavi taluku, Belgaum district, Karnataka, India"
        },
        "gokak": {
            "locType": "town",
            "blogLinks": [
                "http://www.nivalink.com/destination/belgaum"
            ],
            "longitude": "74.8224338",
            "closest_to": "chitradurga",
            "latitude": "16.1693033",
            "address": "Gokak, Gokak taluku, Belgaum district, Karnataka, 591307, India"
        },
        "ugar": {
            "locType": "station",
            "blogLinks": [
                "https://en.wikipedia.org/wiki/Belgaum"
            ],
            "longitude": "74.8213532",
            "closest_to": "belgaum",
            "latitude": "16.6701722",
            "address": "Ugar Khurd, SH73, Pharidakhanavadi, Athani taluku, Belgaum district, Karnataka, India"
        },
        "mumbai": {
            "locType": "restaurant",
            "blogLinks": [
                "http://praveenpn.com/blog/2011/01/05/bangalore-to-goa-by-car/",
                "http://www.nivalink.com/destination/belgaum",
                "https://en.wikipedia.org/wiki/Belgaum",
                "http://www.nivalink.com/destination/chitradurga"
            ],
            "longitude": "77.5718472",
            "closest_to": "chitradurga",
            "latitude": "13.0002869",
            "address": "Mumbai Spice, 18/2, 10th Cross, Malleswaram, Vyalikaval, Malleswaram, Bengaluru, Bangalore Urban, Karnataka, 560003, India"
        },
        "chamarajanagar": {
            "locType": "station",
            "blogLinks": [
                "http://www.mapsofindia.com/maps/karnataka/"
            ],
            "longitude": "76.9331345",
            "closest_to": "chitradurga",
            "latitude": "11.9346624",
            "address": "Chamarajanagar, Nanjangudu-Chamarajanagar Road, Kadahalli, Chamarajanagara taluk, Chamarajanagar district, Karnataka, 571313, India"
        },
        "new delhi": {
            "locType": "college",
            "blogLinks": [
                "https://en.wikipedia.org/wiki/Belgaum"
            ],
            "longitude": "76.6142178649055",
            "closest_to": "chitradurga",
            "latitude": "12.30911465",
            "address": "Regional Institute of Education, Chaduranga Road, Jayalakshmipuram, Mysuru, Mysuru taluk, Mysuru district, Karnataka, 570001, India"
        },
        "north bangalore": {
            "locType": "service",
            "blogLinks": [
                "http://praveenpn.com/blog/2011/01/05/bangalore-to-goa-by-car/"
            ],
            "longitude": "77.7660547",
            "closest_to": "chitradurga",
            "latitude": "13.0217151",
            "address": "N, Chaithanya Samarpan, Kadugodi, Kannamangala, Bangalore Urban, Karnataka, 560066, India"
        },
        "mandovi river": {
            "locType": "car",
            "blogLinks": [
                "http://www.nivalink.com/destination/belgaum"
            ],
            "longitude": "77.6190505",
            "closest_to": "chitradurga",
            "latitude": "12.9965335",
            "address": "Mandovi Motors, Wheeler Road Flyover, MSO Colony, Cox Town, Bengaluru, Bangalore Urban, Karnataka, 560001, India"
        },
        "maharashtra": {
            "locType": "bank",
            "blogLinks": [
                "http://www.mapsofindia.com/maps/karnataka/",
                "http://www.nivalink.com/destination/belgaum",
                "https://en.wikipedia.org/wiki/Belgaum"
            ],
            "longitude": "77.5856013",
            "closest_to": "chitradurga",
            "latitude": "12.9049455",
            "address": "Bank of Maharashtra, 24th Main, K R Layout, Puttenahalli, Bengaluru, Bangalore Urban, Karnataka, 560001, India"
        },
        "gulbarga": {
            "locType": "county",
            "blogLinks": [
                "http://www.mapsofindia.com/maps/karnataka/"
            ],
            "longitude": "77.083333",
            "closest_to": "belgaum",
            "latitude": "17.166667",
            "address": "Kalaburgi, Kalaburagi district, Karnataka, India"
        },
        "maharastra": {
            "locType": "atm",
            "blogLinks": [
                "http://praveenpn.com/blog/2011/01/05/bangalore-to-goa-by-car/"
            ],
            "longitude": "77.606263",
            "closest_to": "chitradurga",
            "latitude": "12.9132591",
            "address": "Maharastra Bank, 7th Main Road, BTM Layout 2nd Stage, BTM Layout, Bengaluru, Bangalore Urban, Karnataka, 560001, India"
        },
        "markandeya": {
            "locType": "river",
            "blogLinks": [
                "https://en.wikipedia.org/wiki/Belgaum"
            ],
            "longitude": "74.5774895",
            "closest_to": "chitradurga",
            "latitude": "15.9707453",
            "address": "Markandeya, Belagavi taluku, Belgaum district, Karnataka, India"
        },
        "belagavi": {
            "locType": "county",
            "blogLinks": [
                "https://en.wikipedia.org/wiki/Belgaum",
                "https://www.tripoto.com/travel-guide/belgaum/trips"
            ],
            "longitude": "74.75",
            "closest_to": "chitradurga",
            "latitude": "16.333333",
            "address": "Belgaum, Belgaum district, Karnataka, India"
        },
        "panaji": {
            "locType": "trunk",
            "blogLinks": [
                "https://en.wikipedia.org/wiki/Belgaum",
                "https://www.tripoto.com/travel-guide/belgaum/trips"
            ],
            "longitude": "74.4876784",
            "closest_to": "chitradurga",
            "latitude": "15.4422981",
            "address": "Belgaum - Panaji Highway, Londa, Khanapura taluku, Belgaum district, Karnataka, India"
        },
        "kerala": {
            "locType": "restaurant",
            "blogLinks": [
                "http://www.mapsofindia.com/maps/karnataka/"
            ],
            "longitude": "77.6382683",
            "closest_to": "chitradurga",
            "latitude": "12.9726449",
            "address": "New Life Kerala Mess, Sai Baba Mandira Road, Mottappanapalaya, Indiranagar, Bengaluru, Bangalore Urban, Karnataka, 560001, India"
        },
        "goa": {
            "locType": "restaurant",
            "blogLinks": [
                "http://praveenpn.com/blog/2011/01/05/bangalore-to-goa-by-car/",
                "http://www.nivalink.com/destination/belgaum",
                "https://en.wikipedia.org/wiki/Belgaum"
            ],
            "longitude": "77.6200027",
            "closest_to": "chitradurga",
            "latitude": "12.9750047",
            "address": "Carnival De Goa, Bhaskaran Road, Gupta Layout, Halasuru, Bengaluru, Bangalore Urban, Karnataka, 560001, India"
        },
        "chitradurga district": {
            "locType": "administrative",
            "blogLinks": [
                "http://www.nivalink.com/destination/belgaum",
                "http://www.holidayiq.com/Chitradurga-Sightseeing-650.html"
            ],
            "longitude": "76.5299366059272",
            "closest_to": "chitradurga",
            "latitude": "14.3051049",
            "address": "Chitradurga district, Karnataka, India"
        },
        "uttara kannada": {
            "locType": "administrative",
            "blogLinks": [
                "https://en.wikipedia.org/wiki/Belgaum"
            ],
            "longitude": "74.4729163045979",
            "closest_to": "chitradurga",
            "latitude": "14.6726379",
            "address": "Uttara Kannada, Karnataka, India"
        },
        "vedavati river": {
            "locType": "river",
            "blogLinks": [
                "http://www.holidayiq.com/Chitradurga-Sightseeing-650.html"
            ],
            "longitude": "76.1347937",
            "closest_to": "chitradurga",
            "latitude": "13.6048777",
            "address": "Vedavati, Kaduru taluk, Chikkamagaluru district, Karnataka, India"
        },
        "hubli airport": {
            "locType": "aerodrome",
            "blogLinks": [
                "http://www.ticketgoose.com/bus-tickets/chitradurga-to-belgaum"
            ],
            "longitude": "75.0860974",
            "closest_to": "chitradurga",
            "latitude": "15.3598315",
            "address": "Hubli Airport, \u0c97\u0ccb\u0c95\u0cc1\u0cb2 \u0cb0\u0ccb\u0ca1\u0ccd, Padmaraj Nagar, Gokul, Hubballi taluku, Dharwad district, Karnataka, 580030, India"
        },
        "hubli": {
            "locType": "city",
            "blogLinks": [
                "http://praveenpn.com/blog/2011/01/05/bangalore-to-goa-by-car/",
                "http://www.nivalink.com/destination/belgaum",
                "https://en.wikipedia.org/wiki/Belgaum",
                "http://www.nivalink.com/destination/chitradurga"
            ],
            "longitude": "75.1379848",
            "closest_to": "chitradurga",
            "latitude": "15.3518378",
            "address": "Hubballi - \u0cb9\u0cc1\u0cac\u0ccd\u0cac\u0cb3\u0ccd\u0cb3\u0cbf, Hubballi taluku, Dharwad district, Karnataka, 580020, India"
        },
        "fort road": {
            "locType": "unclassified",
            "blogLinks": [
                "https://en.wikipedia.org/wiki/Belgaum"
            ],
            "longitude": "76.1512395",
            "closest_to": "chitradurga",
            "latitude": "15.3428261",
            "address": "Fort Road, Bhagyanagara, Koppala, Koppala taluku, Koppal district, Karnataka, 583231, India"
        },
        "kholapur": {
            "locType": "restaurant",
            "blogLinks": [
                "https://en.wikipedia.org/wiki/Belgaum"
            ],
            "longitude": "77.5734212",
            "closest_to": "chitradurga",
            "latitude": "13.0279465",
            "address": "Nupur Kholapur, 80 Feet Road, RMV Stage II - 1st Block, Raj Mahal Vilas, Poojary Layout, Bangalore Urban, Karnataka, 560094, India"
        },
        "bagalkot": {
            "locType": "city",
            "blogLinks": [
                "https://en.wikipedia.org/wiki/Belgaum"
            ],
            "longitude": "75.6967919",
            "closest_to": "chitradurga",
            "latitude": "16.1853166",
            "address": "Bagalakote, Bagalakote taluk, Bagalkote district, Karnataka, India"
        },
        "new city": {
            "locType": "supermarket",
            "blogLinks": [
                "https://en.wikipedia.org/wiki/Belgaum"
            ],
            "longitude": "77.6736268",
            "closest_to": "chitradurga",
            "latitude": "12.9851864",
            "address": "New City Super Market, Kaggadasspura Main Road, Putanna Garden, C V Raman Nagar, A Narayanapura, Bangalore Urban, Karnataka, 560093, India"
        },
        "khanapur road": {
            "locType": "primary",
            "blogLinks": [
                "https://en.wikipedia.org/wiki/Belgaum"
            ],
            "longitude": "74.5069034",
            "closest_to": "chitradurga",
            "latitude": "15.8370976",
            "address": "Khanapur Road, Angol, Belagavi, Belagavi taluku, Belgaum district, Karnataka, 590001, India"
        },
        "karnataka": {
            "locType": "atm",
            "blogLinks": [
                "http://www.nivalink.com/destination/chitradurga",
                "http://www.mapsofindia.com/maps/karnataka/",
                "http://www.nivalink.com/destination/belgaum",
                "https://en.wikipedia.org/wiki/Belgaum",
                "http://praveenpn.com/blog/2011/01/05/bangalore-to-goa-by-car/",
                "http://www.ticketgoose.com/bus-tickets/chitradurgabyepass-to-belgaum",
                "http://www.holidayiq.com/Chitradurga-Sightseeing-650.html",
                "http://www.karnatakatourism.org/",
                "https://www.tripoto.com/travel-guide/belgaum/trips",
                "http://distancecalculator.globefeed.com/India_Distance_Calculator.asp?state=19",
                "http://www.ticketgoose.com/bus-tickets/chitradurga-to-belgaum"
            ],
            "longitude": "76.6639936",
            "closest_to": "chitradurga",
            "latitude": "12.3084901",
            "address": "Karnataka, Shalivahana Road, Nazarbad, Mysuru, Mysuru taluk, Mysuru district, Karnataka, 570001, India"
        },
        "ganeshpur": {
            "locType": "secondary",
            "blogLinks": [
                "https://en.wikipedia.org/wiki/Belgaum"
            ],
            "longitude": "74.4970226",
            "closest_to": "chitradurga",
            "latitude": "15.8613093",
            "address": "Ganeshpur Road, Cantonment, Belagavi, Belagavi taluku, Belgaum district, Karnataka, 590001, India"
        },
        "pune": {
            "locType": "trunk",
            "blogLinks": [
                "https://en.wikipedia.org/wiki/Belgaum"
            ],
            "longitude": "76.9479122",
            "closest_to": "belgaum",
            "latitude": "17.8199745",
            "address": "Pune - Machilipatnam Highway, Kaudiyala, Basavakalyana taluku, Bidar district, Karnataka, India"
        },
        "hubli-karwar": {
            "locType": "trunk",
            "blogLinks": [
                "http://praveenpn.com/blog/2011/01/05/bangalore-to-goa-by-car/"
            ],
            "longitude": "76.36038",
            "closest_to": "chitradurga",
            "latitude": "15.2639568",
            "address": "Hubli-Karwar Road, Amaravati, Hosapete taluk, Bellary district, Karnataka, 583225, India"
        },
        "hubli karwar": {
            "locType": "trunk",
            "blogLinks": [
                "http://praveenpn.com/blog/2011/01/05/bangalore-to-goa-by-car/"
            ],
            "longitude": "76.36038",
            "closest_to": "chitradurga",
            "latitude": "15.2639568",
            "address": "Hubli-Karwar Road, Amaravati, Hosapete taluk, Bellary district, Karnataka, 583225, India"
        },
        "sambra": {
            "locType": "village",
            "blogLinks": [
                "http://www.ticketgoose.com/bus-tickets/chitradurgabyepass-to-belgaum",
                "http://www.ticketgoose.com/bus-tickets/chitradurga-to-belgaum"
            ],
            "longitude": "77.3492254",
            "closest_to": "chitradurga",
            "latitude": "16.6128965",
            "address": "Sambra, Yadagiri taluku, Yadagiri district, Karnataka, India"
        },
        "khanapur": {
            "locType": "town",
            "blogLinks": [
                "https://www.tripoto.com/travel-guide/belgaum/trips"
            ],
            "longitude": "74.5088917",
            "closest_to": "chitradurga",
            "latitude": "15.639879",
            "address": "Khanapur, Khanapura taluku, Belgaum district, Karnataka, 591302, India"
        },
        "ratnagiri highway": {
            "locType": "secondary",
            "blogLinks": [
                "http://www.nivalink.com/destination/belgaum"
            ],
            "longitude": "75.7727724",
            "closest_to": "chitradurga",
            "latitude": "13.3292344",
            "address": "Ratnagiri Road, Basavannahalli, Chikkamagaluru, Chikkamagaluru taluku, Chikkamagaluru district, Karnataka, 577101, India"
        },
        "dharwad": {
            "locType": "city",
            "blogLinks": [
                "https://en.wikipedia.org/wiki/Belgaum"
            ],
            "longitude": "75.0066516",
            "closest_to": "chitradurga",
            "latitude": "15.4540505",
            "address": "Dharwad, Dharawada taluku, Dharwad district, Karnataka, 580001, India"
        },
        "kalaseshwara temple": {
            "locType": "place_of_worship",
            "blogLinks": [
                "http://www.nivalink.com/destination/chitradurga"
            ],
            "longitude": "75.363446975",
            "closest_to": "chitradurga",
            "latitude": "13.23228505",
            "address": "Kalaseshwara Temple, SH66, Kalasa, Mudigere taluk, Chikkamagaluru district, Karnataka, 577124, India"
        },
        "mangalore": {
            "locType": "city",
            "blogLinks": [
                "http://praveenpn.com/blog/2011/01/05/bangalore-to-goa-by-car/",
                "https://en.wikipedia.org/wiki/Belgaum",
                "http://www.ticketgoose.com/bus-tickets/chitradurgabyepass-to-belgaum",
                "http://www.ticketgoose.com/bus-tickets/chitradurga-to-belgaum"
            ],
            "longitude": "74.8430082",
            "closest_to": "chitradurga",
            "latitude": "12.8698101",
            "address": "Mangaluru, Mangaluru taluk, Dakshina Kannada, Karnataka, 575001, India"
        },
        "gadag": {
            "locType": "town",
            "blogLinks": [
                "http://www.mapsofindia.com/maps/karnataka/"
            ],
            "longitude": "75.6300786",
            "closest_to": "chitradurga",
            "latitude": "15.4263647",
            "address": "Gadag, Gadag taluk, Gadag district, Karnataka, 582101, India"
        },
        "chikkaballapur": {
            "locType": "town",
            "blogLinks": [
                "http://www.mapsofindia.com/maps/karnataka/"
            ],
            "longitude": "77.7306866",
            "closest_to": "chitradurga",
            "latitude": "13.4352549",
            "address": "Chikkaballapura, Chikkaballapura taluk, Chikkaballapura district, Karnataka, 562101, India"
        },
        "amboli": {
            "locType": "village",
            "blogLinks": [
                "http://www.nivalink.com/destination/belgaum",
                "https://en.wikipedia.org/wiki/Belgaum"
            ],
            "longitude": "74.4340839",
            "closest_to": "chitradurga",
            "latitude": "15.6456171",
            "address": "Amboli, Khanapura taluku, Belgaum district, Karnataka, India"
        },
        "mandya": {
            "locType": "town",
            "blogLinks": [
                "http://www.mapsofindia.com/maps/karnataka/"
            ],
            "longitude": "76.8937392",
            "closest_to": "chitradurga",
            "latitude": "12.5217836",
            "address": "Mandya, Mandya taluk, Mandya district, Karnataka, 571401, India"
        },
        "belgaum airport": {
            "locType": "aerodrome",
            "blogLinks": [
                "https://en.wikipedia.org/wiki/Belgaum",
                "http://www.ticketgoose.com/bus-tickets/chitradurgabyepass-to-belgaum",
                "http://www.ticketgoose.com/bus-tickets/chitradurga-to-belgaum"
            ],
            "longitude": "74.6189763983851",
            "closest_to": "chitradurga",
            "latitude": "15.8602827",
            "address": "Belgaum Airport, SH20, Balekundri, Belagavi taluku, Belgaum district, Karnataka, 591124, India"
        },
        "haveri": {
            "locType": "town",
            "blogLinks": [
                "http://www.mapsofindia.com/maps/karnataka/",
                "https://en.wikipedia.org/wiki/Belgaum"
            ],
            "longitude": "75.3996731",
            "closest_to": "chitradurga",
            "latitude": "14.7874825",
            "address": "Haveri, Haveri taluku, Haveri district, Karnataka, 581110, India"
        },
        "hosadurga taluk": {
            "locType": "village",
            "blogLinks": [
                "http://www.holidayiq.com/Chitradurga-Sightseeing-650.html"
            ],
            "longitude": "77.2095258",
            "closest_to": "chitradurga",
            "latitude": "14.2608929",
            "address": "Hosadurga, Pavagada taluk, Tumkur district, Karnataka, India"
        },
        "sahyadri": {
            "locType": "school",
            "blogLinks": [
                "https://en.wikipedia.org/wiki/Belgaum"
            ],
            "longitude": "75.2317987800043",
            "closest_to": "chitradurga",
            "latitude": "13.6983273",
            "address": "Sahyadri Polytechnic, SH1, Seebinakere, Sankadahole, Tirthahalli taluk, Shimoga district, Karnataka, 577432, India"
        }
    },
    "belgaum": {
        "osm_id": "316417174",
        "display_name": "Belgaum, Belgaum district, Karnataka, India",
        "importance": 0.65,
        "place_id": "1393576",
        "class": "place",
        "boundingbox": [
            "15.693333",
            "16.973333",
            "74.11",
            "75.39"
        ],
        "type": "county",
        "lon": "74.75",
        "licence": "Data \u00a9 OpenStreetMap contributors, ODbL 1.0. http://www.openstreetmap.org/copyright",
        "osm_type": "node",
        "lat": "16.333333",
        "icon": "https://nominatim.openstreetmap.org/images/mapicons/poi_boundary_administrative.p.20.png"
    },
    "chitradurga": {
        "osm_id": "571409087",
        "display_name": "Chitradurga, Chitradurga taluku, Chitradurga district, Karnataka, 577500, India",
        "importance": 0.5,
        "place_id": "4897275",
        "class": "place",
        "boundingbox": [
            "14.1866443",
            "14.2666443",
            "76.3605122",
            "76.4405122"
        ],
        "type": "town",
        "lon": "76.4005122",
        "licence": "Data \u00a9 OpenStreetMap contributors, ODbL 1.0. http://www.openstreetmap.org/copyright",
        "osm_type": "node",
        "lat": "14.2266443",
        "icon": "https://nominatim.openstreetmap.org/images/mapicons/poi_place_town.p.20.png"
    }
}