{
    "mentions": {
        "kannada": {
            "locType": "administrative",
            "blogLinks": [
                "https://www.quora.com/What-are-the-best-places-to-visit-on-a-3-day-trip-in-and-around-Karnataka"
            ],
            "longitude": "75.1008028650794",
            "closest_to": "murudeshwara",
            "latitude": "12.8114089",
            "address": "Dakshina Kannada, Karnataka, India"
        },
        "bijapur": {
            "locType": "city",
            "blogLinks": [
                "https://www.quora.com/What-are-the-best-places-to-visit-on-a-3-day-trip-in-and-around-Karnataka",
                "http://www.nivalink.com/destination/belgaum"
            ],
            "longitude": "75.7175387",
            "closest_to": "belgaum",
            "latitude": "16.8269911",
            "address": "Vijayapura, Vijayapura taluk, Bijapur district, Karnataka, 586101, India"
        },
        "karwar": {
            "locType": "town",
            "blogLinks": [
                "http://www.distancesfrom.com/in/travel-from-Belgaum-to-Belgaum-via-Karwar-Gokarna-Murudeshwara/TravelFromHistory/31178039.aspx",
                "http://www.mapsofindia.com/karnataka/hampi-travel.html",
                "http://www.indiatravelblog.com/resources/3760-Murudeshwar-Beach-Karnataka.aspx"
            ],
            "longitude": "74.1319229",
            "closest_to": "murudeshwara",
            "latitude": "14.8120931",
            "address": "Karwar, Karavara taluk, Uttara Kannada, Karnataka, 581300, India"
        },
        "hoysaleswara temple": {
            "locType": "place_of_worship",
            "blogLinks": [
                "http://www.mapsofindia.com/karnataka/tourism/"
            ],
            "longitude": "75.9941649",
            "closest_to": "murudeshwara",
            "latitude": "13.2127193",
            "address": "Hoysaleswara Temple, SH21, Halebidu, Beluru taluk, Hassan district, Karnataka, 573121, India"
        },
        "bhatkal": {
            "locType": "town",
            "blogLinks": [
                "http://www.indiatravelblog.com/resources/3760-Murudeshwar-Beach-Karnataka.aspx"
            ],
            "longitude": "74.5485295",
            "closest_to": "murudeshwara",
            "latitude": "13.9952114",
            "address": "Bhatkal, Bhatkala taluk, Uttara Kannada, Karnataka, 581320, India"
        },
        "dakshina kannada": {
            "locType": "administrative",
            "blogLinks": [
                "https://www.quora.com/What-are-the-best-places-to-visit-on-a-3-day-trip-in-and-around-Karnataka"
            ],
            "longitude": "75.1008028650794",
            "closest_to": "murudeshwara",
            "latitude": "12.8114089",
            "address": "Dakshina Kannada, Karnataka, India"
        },
        "kodagu": {
            "locType": "administrative",
            "blogLinks": [
                "https://www.quora.com/What-are-the-best-places-to-visit-on-a-3-day-trip-in-and-around-Karnataka",
                "http://www.mapsofindia.com/karnataka/tourism/"
            ],
            "longitude": "75.6677235950852",
            "closest_to": "murudeshwara",
            "latitude": "12.38117345",
            "address": "Kodagu, Karnataka, India"
        },
        "uttara kannada": {
            "locType": "administrative",
            "blogLinks": [
                "https://www.quora.com/What-are-the-best-places-to-visit-on-a-3-day-trip-in-and-around-Karnataka"
            ],
            "longitude": "74.4729163045979",
            "closest_to": "murudeshwara",
            "latitude": "14.6726379",
            "address": "Uttara Kannada, Karnataka, India"
        },
        "hasan": {
            "locType": "town",
            "blogLinks": [
                "http://www.mapsofindia.com/karnataka/tourism/"
            ],
            "longitude": "76.0992703",
            "closest_to": "murudeshwara",
            "latitude": "13.0070817",
            "address": "Hassan, Hasana taluk, Hassan district, Karnataka, 573201, India"
        },
        "tungabhadra": {
            "locType": "river",
            "blogLinks": [
                "http://www.mapsofindia.com/karnataka/hampi-travel.html"
            ],
            "longitude": "76.4931607",
            "closest_to": "belgaum",
            "latitude": "15.3446123",
            "address": "Tungabhadra, Gangavati taluku, Koppal district, Karnataka, India"
        },
        "gokarna": {
            "locType": "town",
            "blogLinks": [
                "http://www.distancesfrom.com/in/travel-from-Belgaum-to-Belgaum-via-Karwar-Gokarna-Murudeshwara/TravelFromHistory/31178039.aspx",
                "http://www.mapsofindia.com/karnataka/tourism/"
            ],
            "longitude": "74.3184418",
            "closest_to": "murudeshwara",
            "latitude": "14.5439629",
            "address": "Gokarna, Kumata taluk, Uttara Kannada, Karnataka, 581326, India"
        },
        "kodachadri": {
            "locType": "peak",
            "blogLinks": [
                "https://www.quora.com/What-are-the-best-places-to-visit-on-a-3-day-trip-in-and-around-Karnataka"
            ],
            "longitude": "74.8705395",
            "closest_to": "murudeshwara",
            "latitude": "13.8565758",
            "address": "Kodachadri, \u0c95\u0cc1\u0c82\u0ca6\u0cbe\u0caa\u0cc1\u0cb0 \u0ca4\u0cbe\u0cb2\u0cc2\u0c95\u0cc1, Udupi district, Karnataka, India"
        },
        "belgaum fort": {
            "locType": "locality",
            "blogLinks": [
                "http://www.nivalink.com/destination/belgaum"
            ],
            "longitude": "74.5255651",
            "closest_to": "murudeshwara",
            "latitude": "15.8581696",
            "address": "Belgaum Fort, Belagavi, Belagavi taluku, Belgaum district, Karnataka, 590001, India"
        },
        "coorg": {
            "locType": "town",
            "blogLinks": [
                "https://www.quora.com/What-are-the-best-places-to-visit-on-a-3-day-trip-in-and-around-Karnataka"
            ],
            "longitude": "75.740031",
            "closest_to": "murudeshwara",
            "latitude": "12.4204003",
            "address": "Madikeri, Madikeri taluku, Kodagu, Karnataka, India"
        },
        "' island": {
            "locType": "village",
            "blogLinks": [
                "http://www.nivalink.com/destination/murudeshwar"
            ],
            "longitude": "74.8834637",
            "closest_to": "murudeshwara",
            "latitude": "14.6799543",
            "address": "Isa, Shirasi taluk, Uttara Kannada, Karnataka, India"
        },
        "chennakeshava": {
            "locType": "place_of_worship",
            "blogLinks": [
                "https://www.quora.com/What-are-the-best-places-to-visit-on-a-3-day-trip-in-and-around-Karnataka"
            ],
            "longitude": "76.1294164",
            "closest_to": "murudeshwara",
            "latitude": "13.3748908",
            "address": "Chennakeshava Temple, NH73, Arakere, Arasikere taluku, Hassan district, Karnataka, 573112, India"
        },
        "hyatt place": {
            "locType": "hotel",
            "blogLinks": [
                "http://www.mapsofindia.com/karnataka/hampi-travel.html"
            ],
            "longitude": "76.624310564536",
            "closest_to": "belgaum",
            "latitude": "15.1752269",
            "address": "Hyatt Place Hampi, Kudligi Road, Vaddu, Sanduru taluk, Bellary district, Karnataka, 583123, India"
        },
        "panambur - panambur beach": {
            "locType": "beach",
            "blogLinks": [
                "https://www.quora.com/What-are-the-best-places-to-visit-on-a-3-day-trip-in-and-around-Karnataka"
            ],
            "longitude": "74.8034667207214",
            "closest_to": "murudeshwara",
            "latitude": "12.93907195",
            "address": "Panambur Beach, Panambur Beach Road, Gandhinagar, Panambur, Mangaluru taluk, Dakshina Kannada, Karnataka, 575013, India"
        },
        "netrani island": {
            "locType": "island",
            "blogLinks": [
                "http://www.nivalink.com/destination/murudeshwar"
            ],
            "longitude": "74.3272086675849",
            "closest_to": "murudeshwara",
            "latitude": "14.0174924",
            "address": "Netrani, Uttara Kannada, Karnataka, India"
        },
        "bijapur district": {
            "locType": "administrative",
            "blogLinks": [
                "https://www.quora.com/What-are-the-best-places-to-visit-on-a-3-day-trip-in-and-around-Karnataka"
            ],
            "longitude": "75.897147327785",
            "closest_to": "belgaum",
            "latitude": "16.81105965",
            "address": "Bijapur district, Karnataka, India"
        },
        "badami": {
            "locType": "town",
            "blogLinks": [
                "https://www.quora.com/What-are-the-best-places-to-visit-on-a-3-day-trip-in-and-around-Karnataka"
            ],
            "longitude": "75.6807865",
            "closest_to": "murudeshwara",
            "latitude": "15.9203874",
            "address": "Badami, Badami taluku, Bagalkote district, Karnataka, 587200, India"
        },
        "murudeshwara beach": {
            "locType": "beach",
            "blogLinks": [
                "http://www.ticketgoose.com/bus-tickets/belgaum-to-murudeshwara",
                "http://www.ticketgoose.com/bus-tickets/murudeshwara-to-belgaum",
                "http://www.indiatravelblog.com/resources/3760-Murudeshwar-Beach-Karnataka.aspx"
            ],
            "longitude": "74.4864829532275",
            "closest_to": "murudeshwara",
            "latitude": "14.09717935",
            "address": "Murudeshwara Beach, NH66, Manki, Honnavara taluku, Uttara Kannada, Karnataka, 581348, India"
        },
        "halebid": {
            "locType": "village",
            "blogLinks": [
                "http://www.mapsofindia.com/karnataka/tourism/"
            ],
            "longitude": "75.9918793",
            "closest_to": "murudeshwara",
            "latitude": "13.2167959",
            "address": "Halebidu, Beluru taluk, Hassan district, Karnataka, 573121, India"
        },
        "ratnagiri highway": {
            "locType": "secondary",
            "blogLinks": [
                "http://www.nivalink.com/destination/belgaum"
            ],
            "longitude": "75.7727724",
            "closest_to": "murudeshwara",
            "latitude": "13.3292344",
            "address": "Ratnagiri Road, Basavannahalli, Chikkamagaluru, Chikkamagaluru taluku, Chikkamagaluru district, Karnataka, 577101, India"
        },
        "karkala": {
            "locType": "town",
            "blogLinks": [
                "https://www.quora.com/What-are-the-best-places-to-visit-on-a-3-day-trip-in-and-around-Karnataka"
            ],
            "longitude": "74.9959586",
            "closest_to": "murudeshwara",
            "latitude": "13.2112826",
            "address": "Karkala, Karkala taluk, Udupi district, Karnataka, 574104, India"
        },
        "belgaum railway station": {
            "locType": "station",
            "blogLinks": [
                "http://www.mapsofindia.com/karnataka/tourism/"
            ],
            "longitude": "74.509065",
            "closest_to": "murudeshwara",
            "latitude": "15.8489677",
            "address": "Belgaum, Belgaum - Panaji Highway, Cantonment, Belagavi, Belagavi taluku, Belgaum district, Karnataka, 590001, India"
        },
        "kundapura": {
            "locType": "town",
            "blogLinks": [
                "http://www.nivalink.com/destination/murudeshwar"
            ],
            "longitude": "74.6915722",
            "closest_to": "murudeshwara",
            "latitude": "13.6250993",
            "address": "Kundapura, \u0c95\u0cc1\u0c82\u0ca6\u0cbe\u0caa\u0cc1\u0cb0 \u0ca4\u0cbe\u0cb2\u0cc2\u0c95\u0cc1, Udupi district, Karnataka, 576200, India"
        },
        "india": {
            "locType": "administrative",
            "blogLinks": [
                "https://www.etravelsmart.com/bus/routes/murudeshwara-belgaum.php",
                "http://www.ticketgoose.com/bus-tickets/belgaum-to-murudeshwara",
                "http://www.nivalink.com/destination/murudeshwar",
                "https://www.yatra.com/bus-tickets/belgaum-to-murudeshwara",
                "https://www.quora.com/What-are-the-best-places-to-visit-on-a-3-day-trip-in-and-around-Karnataka",
                "http://www.nivalink.com/destination/belgaum",
                "http://www.indiatravelblog.com/resources/3760-Murudeshwar-Beach-Karnataka.aspx",
                "http://www.distancesfrom.com/in/travel-from-Belgaum-to-Belgaum-via-Karwar-Gokarna-Murudeshwara/TravelFromHistory/31178039.aspx",
                "http://www.ticketgoose.com/bus-tickets/murudeshwara-to-belgaum",
                "http://www.mapsofindia.com/karnataka/hampi-travel.html",
                "http://www.mapsofindia.com/karnataka/tourism/"
            ],
            "longitude": "75.7223521",
            "closest_to": "murudeshwara",
            "latitude": "14.5203896",
            "address": "Karnataka, India"
        },
        "tunga": {
            "locType": "river",
            "blogLinks": [
                "https://www.quora.com/What-are-the-best-places-to-visit-on-a-3-day-trip-in-and-around-Karnataka"
            ],
            "longitude": "75.3221835",
            "closest_to": "murudeshwara",
            "latitude": "13.6632221",
            "address": "Tunga, Tirthahalli taluk, Shimoga district, Karnataka, India"
        },
        "pattadakal": {
            "locType": "attraction",
            "blogLinks": [
                "http://www.mapsofindia.com/karnataka/tourism/"
            ],
            "longitude": "75.815884048161",
            "closest_to": "belgaum",
            "latitude": "15.9506349",
            "address": "Pattadakal Temples, SH14, \u0cac\u0cbe\u0c9a\u0cbf\u0ca8\u0c97\u0cc1\u0ca1\u0ccd\u0ca1, Badami taluku, Bagalkote district, Karnataka, 587211, India"
        },
        "kalaseshwara temple": {
            "locType": "place_of_worship",
            "blogLinks": [
                "http://www.nivalink.com/destination/murudeshwar"
            ],
            "longitude": "75.363446975",
            "closest_to": "murudeshwara",
            "latitude": "13.23228505",
            "address": "Kalaseshwara Temple, SH66, Kalasa, Mudigere taluk, Chikkamagaluru district, Karnataka, 577124, India"
        },
        "ganeshgudi": {
            "locType": "village",
            "blogLinks": [
                "https://www.quora.com/What-are-the-best-places-to-visit-on-a-3-day-trip-in-and-around-Karnataka"
            ],
            "longitude": "74.5335693",
            "closest_to": "murudeshwara",
            "latitude": "15.2815822",
            "address": "Ganeshagudi, Joida taluk, Uttara Kannada, Karnataka, India"
        },
        "golden temple": {
            "locType": "place_of_worship",
            "blogLinks": [
                "https://www.quora.com/What-are-the-best-places-to-visit-on-a-3-day-trip-in-and-around-Karnataka"
            ],
            "longitude": "75.9674656",
            "closest_to": "murudeshwara",
            "latitude": "12.430821",
            "address": "Padmasambhava Buddhist Vihara (Golden Temple), MDR21, Koppa, Piriyapattana taluk, Mysuru district, Karnataka, India"
        },
        "murudeshwar": {
            "locType": "town",
            "blogLinks": [
                "http://www.indiatravelblog.com/resources/3760-Murudeshwar-Beach-Karnataka.aspx"
            ],
            "longitude": "74.4883354",
            "closest_to": "murudeshwara",
            "latitude": "14.0959549",
            "address": "Murudeshwara, Bhatkala taluk, Uttara Kannada, Karnataka, 581350, India"
        },
        "pigeon island": {
            "locType": "island",
            "blogLinks": [
                "http://www.nivalink.com/destination/murudeshwar"
            ],
            "longitude": "74.3272086675849",
            "closest_to": "murudeshwara",
            "latitude": "14.0174924",
            "address": "Netrani, Uttara Kannada, Karnataka, India"
        },
        "mandalpatti": {
            "locType": "attraction",
            "blogLinks": [
                "https://www.quora.com/What-are-the-best-places-to-visit-on-a-3-day-trip-in-and-around-Karnataka"
            ],
            "longitude": "75.7307012",
            "closest_to": "murudeshwara",
            "latitude": "12.4486242",
            "address": "Mandalpatti road junction, Galibidu Road, Kalakeri Nidugane, Madikeri taluku, Kodagu, Karnataka, India"
        },
        "mirjan fort": {
            "locType": "attraction",
            "blogLinks": [
                "https://www.quora.com/What-are-the-best-places-to-visit-on-a-3-day-trip-in-and-around-Karnataka"
            ],
            "longitude": "74.4174838158512",
            "closest_to": "murudeshwara",
            "latitude": "14.48905715",
            "address": "Mirjana Fort, Edapally- Panvel Highway, Kimani, Kumata taluk, Uttara Kannada, Karnataka, 581344, India"
        },
        "kali": {
            "locType": "river",
            "blogLinks": [
                "https://www.quora.com/What-are-the-best-places-to-visit-on-a-3-day-trip-in-and-around-Karnataka"
            ],
            "longitude": "74.5802901",
            "closest_to": "murudeshwara",
            "latitude": "15.0145378",
            "address": "Kali, Joida taluk, Uttara Kannada, Karnataka, India"
        },
        "malligi hotel": {
            "locType": "hotel",
            "blogLinks": [
                "http://www.mapsofindia.com/karnataka/hampi-travel.html"
            ],
            "longitude": "76.3929653074323",
            "closest_to": "murudeshwara",
            "latitude": "15.2730243",
            "address": "Hotel Malligi, 10/90, Hampi Road, Anantashayanagudi, Hosapete taluk, Bellary district, Karnataka, 583201, India"
        },
        "veera narayana temple": {
            "locType": "place_of_worship",
            "blogLinks": [
                "https://www.quora.com/What-are-the-best-places-to-visit-on-a-3-day-trip-in-and-around-Karnataka"
            ],
            "longitude": "75.9953525",
            "closest_to": "murudeshwara",
            "latitude": "13.2821212",
            "address": "Veera Narayana Temple, Chikmagalur Javagal Road, Narasipura, Chikkamagaluru taluku, Chikkamagaluru district, Karnataka, India"
        },
        "mangalore international airport": {
            "locType": "aerodrome",
            "blogLinks": [
                "http://www.ticketgoose.com/bus-tickets/belgaum-to-murudeshwara",
                "http://www.ticketgoose.com/bus-tickets/murudeshwara-to-belgaum",
                "http://www.indiatravelblog.com/resources/3760-Murudeshwar-Beach-Karnataka.aspx"
            ],
            "longitude": "74.887492668144",
            "closest_to": "murudeshwara",
            "latitude": "12.95518575",
            "address": "Mangalore International Airport, Airport Entry Road, Gandhinagar, Kenjar, Mangaluru taluk, Dakshina Kannada, Karnataka, 575015, India"
        },
        "markandeya river": {
            "locType": "river",
            "blogLinks": [
                "https://www.quora.com/What-are-the-best-places-to-visit-on-a-3-day-trip-in-and-around-Karnataka"
            ],
            "longitude": "74.5774895",
            "closest_to": "murudeshwara",
            "latitude": "15.9707453",
            "address": "Markandeya, Belagavi taluku, Belgaum district, Karnataka, India"
        },
        "murudeshwara": {
            "locType": "town",
            "blogLinks": [
                "https://www.makemytrip.com/routeplanner/belgaum-murudeshwara.html",
                "https://www.etravelsmart.com/bus/routes/murudeshwara-belgaum.php",
                "http://www.ixigo.com/by-train-rail/belgaum-to-murudeshwara-by-train",
                "http://www.ticketgoose.com/bus-tickets/belgaum-to-murudeshwara",
                "https://www.yatra.com/bus-tickets/belgaum-to-murudeshwara",
                "http://www.ticketgoose.com/bus-tickets/murudeshwara-to-belgaum",
                "https://www.makemytrip.com/routeplanner/bangalore-murudeshwara.html"
            ],
            "longitude": "74.4883354",
            "closest_to": "murudeshwara",
            "latitude": "14.0959549",
            "address": "Murudeshwara, Bhatkala taluk, Uttara Kannada, Karnataka, 581350, India"
        },
        "murudeshwara temple": {
            "locType": "place_of_worship",
            "blogLinks": [
                "http://www.indiatravelblog.com/resources/3760-Murudeshwar-Beach-Karnataka.aspx"
            ],
            "longitude": "74.484753966647",
            "closest_to": "murudeshwara",
            "latitude": "14.0934908",
            "address": "Murudeshwara Temple, NH66, Manki, Honnavara taluku, Uttara Kannada, Karnataka, 581348, India"
        },
        "kudremukh national park": {
            "locType": "national_park",
            "blogLinks": [
                "https://www.quora.com/What-are-the-best-places-to-visit-on-a-3-day-trip-in-and-around-Karnataka"
            ],
            "longitude": "75.1828713712862",
            "closest_to": "murudeshwara",
            "latitude": "13.25397485",
            "address": "Kudremukh National Park, SH66, Sringeri taluku, Chikkamagaluru district, Karnataka, India"
        },
        "banavasi": {
            "locType": "town",
            "blogLinks": [
                "https://www.quora.com/What-are-the-best-places-to-visit-on-a-3-day-trip-in-and-around-Karnataka"
            ],
            "longitude": "75.0129845",
            "closest_to": "murudeshwara",
            "latitude": "14.5389738",
            "address": "Banavasi, Shirasi taluk, Uttara Kannada, Karnataka, India"
        },
        "hospet": {
            "locType": "town",
            "blogLinks": [
                "http://www.mapsofindia.com/karnataka/hampi-travel.html"
            ],
            "longitude": "76.3870527",
            "closest_to": "murudeshwara",
            "latitude": "15.266079",
            "address": "Hosapete, Hosapete taluk, Bellary district, Karnataka, 583200, India"
        },
        "mookambika": {
            "locType": "place_of_worship",
            "blogLinks": [
                "https://www.quora.com/What-are-the-best-places-to-visit-on-a-3-day-trip-in-and-around-Karnataka"
            ],
            "longitude": "74.8145296",
            "closest_to": "murudeshwara",
            "latitude": "13.8638043",
            "address": "Mukambika Devasthana, NH766C;SH26, Halkal, \u0c95\u0cc1\u0c82\u0ca6\u0cbe\u0caa\u0cc1\u0cb0 \u0ca4\u0cbe\u0cb2\u0cc2\u0c95\u0cc1, Udupi district, Karnataka, 576220, India"
        },
        "sharavati": {
            "locType": "river",
            "blogLinks": [
                "https://www.quora.com/What-are-the-best-places-to-visit-on-a-3-day-trip-in-and-around-Karnataka"
            ],
            "longitude": "74.7647294",
            "closest_to": "murudeshwara",
            "latitude": "14.2360979",
            "address": "Sharavati, Sagara taluk, Shimoga district, Karnataka, India"
        },
        "belgaum airport": {
            "locType": "aerodrome",
            "blogLinks": [
                "http://www.ticketgoose.com/bus-tickets/belgaum-to-murudeshwara",
                "http://www.ticketgoose.com/bus-tickets/murudeshwara-to-belgaum"
            ],
            "longitude": "74.6189763983851",
            "closest_to": "murudeshwara",
            "latitude": "15.8602827",
            "address": "Belgaum Airport, SH20, Balekundri, Belagavi taluku, Belgaum district, Karnataka, 591124, India"
        },
        "kali river": {
            "locType": "river",
            "blogLinks": [
                "https://www.quora.com/What-are-the-best-places-to-visit-on-a-3-day-trip-in-and-around-Karnataka"
            ],
            "longitude": "74.5802901",
            "closest_to": "murudeshwara",
            "latitude": "15.0145378",
            "address": "Kali, Joida taluk, Uttara Kannada, Karnataka, India"
        },
        "sirsi": {
            "locType": "town",
            "blogLinks": [
                "https://www.quora.com/What-are-the-best-places-to-visit-on-a-3-day-trip-in-and-around-Karnataka"
            ],
            "longitude": "74.8388611",
            "closest_to": "murudeshwara",
            "latitude": "14.6192362",
            "address": "Sirsi, Shirasi taluk, Uttara Kannada, Karnataka, 581400, India"
        },
        "sangameshwara": {
            "locType": "village",
            "blogLinks": [
                "https://www.quora.com/What-are-the-best-places-to-visit-on-a-3-day-trip-in-and-around-Karnataka"
            ],
            "longitude": "74.87651",
            "closest_to": "murudeshwara",
            "latitude": "15.184341",
            "address": "Sangameshwara, Kalaghatagi taluku, Dharwad district, Karnataka, India"
        },
        "yellapur": {
            "locType": "town",
            "blogLinks": [
                "https://www.quora.com/What-are-the-best-places-to-visit-on-a-3-day-trip-in-and-around-Karnataka"
            ],
            "longitude": "74.7061458",
            "closest_to": "murudeshwara",
            "latitude": "14.9622518",
            "address": "Yellapura, Yallapura taluk, Uttara Kannada, Karnataka, 581359, India"
        },
        "coastal karnataka": {
            "locType": "industrial",
            "blogLinks": [
                "http://www.nivalink.com/destination/murudeshwar"
            ],
            "longitude": "74.8137275833157",
            "closest_to": "murudeshwara",
            "latitude": "12.96014675",
            "address": "Bharat Petroleum Mangalore Coastal Installation, Baikampady, Mangaluru taluk, Dakshina Kannada, Karnataka, 575014, India"
        },
        "parvati": {
            "locType": "village",
            "blogLinks": [
                "https://www.quora.com/What-are-the-best-places-to-visit-on-a-3-day-trip-in-and-around-Karnataka"
            ],
            "longitude": "75.7898501",
            "closest_to": "belgaum",
            "latitude": "16.0395701",
            "address": "Parvati, Badami taluku, Bagalkote district, Karnataka, India"
        },
        "madhukeshwara": {
            "locType": "place_of_worship",
            "blogLinks": [
                "https://www.quora.com/What-are-the-best-places-to-visit-on-a-3-day-trip-in-and-around-Karnataka"
            ],
            "longitude": "75.1480027",
            "closest_to": "murudeshwara",
            "latitude": "14.3058996",
            "address": "Madhukeshwara Temple, Kattinakere Road, Kattinakere Bus Stand, Soraba taluk, Shimoga district, Karnataka, India"
        },
        "belur": {
            "locType": "town",
            "blogLinks": [
                "http://www.mapsofindia.com/karnataka/tourism/"
            ],
            "longitude": "75.8634851",
            "closest_to": "murudeshwara",
            "latitude": "13.1645671",
            "address": "Belur, Beluru taluk, Hassan district, Karnataka, 573115, India"
        },
        "tagore beach": {
            "locType": "beach",
            "blogLinks": [
                "https://www.quora.com/What-are-the-best-places-to-visit-on-a-3-day-trip-in-and-around-Karnataka"
            ],
            "longitude": "74.126114099183",
            "closest_to": "murudeshwara",
            "latitude": "14.81741155",
            "address": "Rabindranath Tagore Beach, NH66, Kodibag, Karwar, Karavara taluk, Uttara Kannada, Karnataka, 581300, India"
        },
        "udupi": {
            "locType": "city",
            "blogLinks": [
                "http://www.mapsofindia.com/karnataka/tourism/"
            ],
            "longitude": "74.7473232",
            "closest_to": "murudeshwara",
            "latitude": "13.3419169",
            "address": "Udupi, Udupi taluku, Udupi district, Karnataka, 576101, India"
        },
        "malpe": {
            "locType": "village",
            "blogLinks": [
                "https://www.quora.com/What-are-the-best-places-to-visit-on-a-3-day-trip-in-and-around-Karnataka"
            ],
            "longitude": "74.7036914",
            "closest_to": "murudeshwara",
            "latitude": "13.3507423",
            "address": "Malpe, Udupi taluku, Udupi district, Karnataka, India"
        },
        "hampi": {
            "locType": "village",
            "blogLinks": [
                "https://www.yatra.com/bus-tickets/belgaum-to-murudeshwara",
                "https://www.quora.com/What-are-the-best-places-to-visit-on-a-3-day-trip-in-and-around-Karnataka",
                "http://www.mapsofindia.com/karnataka/tourism/",
                "http://www.mapsofindia.com/karnataka/hampi-travel.html"
            ],
            "longitude": "76.4606199",
            "closest_to": "belgaum",
            "latitude": "15.3359769",
            "address": "Hampe, Hosapete taluk, Bellary district, Karnataka, 583239, India"
        },
        "marikamba temple": {
            "locType": "place_of_worship",
            "blogLinks": [
                "https://www.quora.com/What-are-the-best-places-to-visit-on-a-3-day-trip-in-and-around-Karnataka"
            ],
            "longitude": "74.8103631279317",
            "closest_to": "murudeshwara",
            "latitude": "13.8626958",
            "address": "Marikamba Temple, NH766C;SH26, Halkal, \u0c95\u0cc1\u0c82\u0ca6\u0cbe\u0caa\u0cc1\u0cb0 \u0ca4\u0cbe\u0cb2\u0cc2\u0c95\u0cc1, Udupi district, Karnataka, 576220, India"
        },
        "badami of karnataka": {
            "locType": "administrative",
            "blogLinks": [
                "http://www.mapsofindia.com/karnataka/tourism/"
            ],
            "longitude": "75.6419100722642",
            "closest_to": "murudeshwara",
            "latitude": "15.98301895",
            "address": "Badami taluku, Bagalkote district, Karnataka, India"
        },
        "gurupura": {
            "locType": "village",
            "blogLinks": [
                "https://www.quora.com/What-are-the-best-places-to-visit-on-a-3-day-trip-in-and-around-Karnataka"
            ],
            "longitude": "75.7161587",
            "closest_to": "murudeshwara",
            "latitude": "13.6686411",
            "address": "Gurupura, Tarikere taluku, Chikkamagaluru district, Karnataka, India"
        },
        "hubli": {
            "locType": "city",
            "blogLinks": [
                "http://www.nivalink.com/destination/murudeshwar",
                "http://www.nivalink.com/destination/belgaum",
                "http://www.mapsofindia.com/karnataka/hampi-travel.html"
            ],
            "longitude": "75.1379848",
            "closest_to": "murudeshwara",
            "latitude": "15.3518378",
            "address": "Hubballi - \u0cb9\u0cc1\u0cac\u0ccd\u0cac\u0cb3\u0ccd\u0cb3\u0cbf, Hubballi taluku, Dharwad district, Karnataka, 580020, India"
        },
        "anegundi": {
            "locType": "village",
            "blogLinks": [
                "http://www.mapsofindia.com/karnataka/hampi-travel.html"
            ],
            "longitude": "76.4924232",
            "closest_to": "belgaum",
            "latitude": "15.3509583",
            "address": "Anegundi, Gangavati taluku, Koppal district, Karnataka, India"
        },
        "mangalore": {
            "locType": "city",
            "blogLinks": [
                "https://www.makemytrip.com/routeplanner/belgaum-murudeshwara.html",
                "http://www.ticketgoose.com/bus-tickets/belgaum-to-murudeshwara",
                "http://www.nivalink.com/destination/murudeshwar",
                "https://www.quora.com/What-are-the-best-places-to-visit-on-a-3-day-trip-in-and-around-Karnataka",
                "http://www.ticketgoose.com/bus-tickets/murudeshwara-to-belgaum",
                "https://www.makemytrip.com/routeplanner/bangalore-murudeshwara.html",
                "http://www.mapsofindia.com/karnataka/tourism/"
            ],
            "longitude": "74.8430082",
            "closest_to": "murudeshwara",
            "latitude": "12.8698101",
            "address": "Mangaluru, Mangaluru taluk, Dakshina Kannada, Karnataka, 575001, India"
        },
        "amboli": {
            "locType": "village",
            "blogLinks": [
                "https://www.quora.com/What-are-the-best-places-to-visit-on-a-3-day-trip-in-and-around-Karnataka",
                "http://www.nivalink.com/destination/belgaum"
            ],
            "longitude": "74.4340839",
            "closest_to": "murudeshwara",
            "latitude": "15.6456171",
            "address": "Amboli, Khanapura taluku, Belgaum district, Karnataka, India"
        },
        "sakleshpur": {
            "locType": "town",
            "blogLinks": [
                "https://www.quora.com/What-are-the-best-places-to-visit-on-a-3-day-trip-in-and-around-Karnataka"
            ],
            "longitude": "75.7862318",
            "closest_to": "murudeshwara",
            "latitude": "12.9434349",
            "address": "Sakaleshpura, Sakaleshapura taluk, Hassan district, Karnataka, 573134, India"
        },
        "gokak": {
            "locType": "town",
            "blogLinks": [
                "https://www.quora.com/What-are-the-best-places-to-visit-on-a-3-day-trip-in-and-around-Karnataka",
                "http://www.nivalink.com/destination/belgaum"
            ],
            "longitude": "74.8224338",
            "closest_to": "murudeshwara",
            "latitude": "16.1693033",
            "address": "Gokak, Gokak taluku, Belgaum district, Karnataka, 591307, India"
        },
        "kannur": {
            "locType": "construction",
            "blogLinks": [
                "http://www.nivalink.com/destination/murudeshwar"
            ],
            "longitude": "74.8858161",
            "closest_to": "murudeshwara",
            "latitude": "12.8487602",
            "address": "Netravati bridge - Kannur Bypass Road (Proposed), Padil, Bajal, Mangaluru taluk, Dakshina Kannada, Karnataka, 575007, India"
        },
        "mullayanagiri range": {
            "locType": "peak",
            "blogLinks": [
                "https://www.quora.com/What-are-the-best-places-to-visit-on-a-3-day-trip-in-and-around-Karnataka"
            ],
            "longitude": "75.7214034",
            "closest_to": "murudeshwara",
            "latitude": "13.3909217",
            "address": "Mullayyanagiri, Chikkamagaluru, Chikkamagaluru taluku, Chikkamagaluru district, Karnataka, 577101, India"
        },
        "chennakesava temple": {
            "locType": "place_of_worship",
            "blogLinks": [
                "http://www.mapsofindia.com/karnataka/tourism/"
            ],
            "longitude": "75.8603311",
            "closest_to": "murudeshwara",
            "latitude": "13.1629239",
            "address": "Chennakesava Temple, NH73, Navilahalli, Beluru taluk, Hassan district, Karnataka, India"
        },
        "ananthapadmanabha": {
            "locType": "place_of_worship",
            "blogLinks": [
                "https://www.quora.com/What-are-the-best-places-to-visit-on-a-3-day-trip-in-and-around-Karnataka"
            ],
            "longitude": "74.8937899082456",
            "closest_to": "murudeshwara",
            "latitude": "12.9039019",
            "address": "Kudupu Ananthapadmanabha Temple, Solapur-Mangalore Highway, Shakthinagar, Kulashekara, Kudupu, Mangaluru taluk, Dakshina Kannada, Karnataka, 575007, India"
        },
        "tungabhadra river": {
            "locType": "river",
            "blogLinks": [
                "http://www.mapsofindia.com/karnataka/hampi-travel.html"
            ],
            "longitude": "76.4931607",
            "closest_to": "belgaum",
            "latitude": "15.3446123",
            "address": "Tungabhadra, Gangavati taluku, Koppal district, Karnataka, India"
        },
        "gokul garden": {
            "locType": "recreation_ground",
            "blogLinks": [
                "https://www.quora.com/What-are-the-best-places-to-visit-on-a-3-day-trip-in-and-around-Karnataka"
            ],
            "longitude": "75.1141861403246",
            "closest_to": "murudeshwara",
            "latitude": "15.35009745",
            "address": "Gokul Garden, Gokul Road / Airport Road, Renuka Nagar, Padmaraj Nagar, Gokul, Hubballi taluku, Dharwad district, Karnataka, 580030, India"
        },
        "belgaum": {
            "locType": "county",
            "blogLinks": [
                "https://www.makemytrip.com/routeplanner/belgaum-murudeshwara.html",
                "https://www.etravelsmart.com/bus/routes/murudeshwara-belgaum.php",
                "http://www.ixigo.com/by-train-rail/belgaum-to-murudeshwara-by-train",
                "http://www.ticketgoose.com/bus-tickets/belgaum-to-murudeshwara",
                "https://www.yatra.com/bus-tickets/belgaum-to-murudeshwara",
                "https://www.quora.com/What-are-the-best-places-to-visit-on-a-3-day-trip-in-and-around-Karnataka",
                "http://www.nivalink.com/destination/belgaum",
                "http://www.distancesfrom.com/in/travel-from-Belgaum-to-Belgaum-via-Karwar-Gokarna-Murudeshwara/TravelFromHistory/31178039.aspx",
                "http://www.ticketgoose.com/bus-tickets/murudeshwara-to-belgaum"
            ],
            "longitude": "74.75",
            "closest_to": "murudeshwara",
            "latitude": "16.333333",
            "address": "Belgaum, Belgaum district, Karnataka, India"
        },
        "kuppali": {
            "locType": "tertiary",
            "blogLinks": [
                "https://www.quora.com/What-are-the-best-places-to-visit-on-a-3-day-trip-in-and-around-Karnataka"
            ],
            "longitude": "75.3158067",
            "closest_to": "murudeshwara",
            "latitude": "13.5998255",
            "address": "Kuppali Road, Kuppalli, Tirthahalli taluk, Shimoga district, Karnataka, India"
        }
    },
    "belgaum": {
        "osm_id": "316417174",
        "display_name": "Belgaum, Belgaum district, Karnataka, India",
        "importance": 0.65,
        "place_id": "1393576",
        "class": "place",
        "boundingbox": [
            "15.693333",
            "16.973333",
            "74.11",
            "75.39"
        ],
        "type": "county",
        "lon": "74.75",
        "licence": "Data \u00a9 OpenStreetMap contributors, ODbL 1.0. http://www.openstreetmap.org/copyright",
        "osm_type": "node",
        "lat": "16.333333",
        "icon": "https://nominatim.openstreetmap.org/images/mapicons/poi_boundary_administrative.p.20.png"
    },
    "murudeshwara": {
        "osm_id": "245626123",
        "display_name": "Murudeshwara, Bhatkala taluk, Uttara Kannada, Karnataka, 581350, India",
        "importance": 0.5,
        "place_id": "622093",
        "class": "place",
        "boundingbox": [
            "14.0559549",
            "14.1359549",
            "74.4483354",
            "74.5283354"
        ],
        "type": "town",
        "lon": "74.4883354",
        "licence": "Data \u00a9 OpenStreetMap contributors, ODbL 1.0. http://www.openstreetmap.org/copyright",
        "osm_type": "node",
        "lat": "14.0959549",
        "icon": "https://nominatim.openstreetmap.org/images/mapicons/poi_place_town.p.20.png"
    }
}