{
    "bellary": {
        "lat": "15.2485413",
        "importance": 0.65,
        "osm_type": "node",
        "class": "place",
        "boundingbox": [
            "14.6085413",
            "15.8885413",
            "76.1923648",
            "77.4723648"
        ],
        "icon": "https://nominatim.openstreetmap.org/images/mapicons/poi_boundary_administrative.p.20.png",
        "osm_id": "316417114",
        "licence": "Data \u00a9 OpenStreetMap contributors, ODbL 1.0. http://www.openstreetmap.org/copyright",
        "lon": "76.8323648",
        "place_id": "1393549",
        "display_name": "Bellary, Bellary district, Karnataka, India",
        "type": "county"
    },
    "mentions": {
        "lalbagh road": {
            "closest_to": "kanakapura",
            "latitude": "12.9622325",
            "blogLinks": [
                "https://www.quora.com/What-are-some-good-places-to-visit-near-bangalore-for-a-one-two-day-trip"
            ],
            "address": "Lalbagh Road, Sampangirama Nagar, Shanti Nagar, Bengaluru, Bangalore Urban, Karnataka, 560001, India",
            "locType": "primary",
            "longitude": "77.5944909"
        },
        "river cauvery": {
            "closest_to": "kanakapura",
            "latitude": "13.00262215",
            "blogLinks": [
                "https://www.quora.com/What-are-the-best-weekend-road-trips-from-Bangalore"
            ],
            "address": "Cauvery, 1st Main Road, Lower Palace Orchard, Guttahalli, Bengaluru, Bangalore Urban, Karnataka, 560001, India",
            "locType": "cinema",
            "longitude": "77.5832796015599"
        },
        "karkala": {
            "closest_to": "kanakapura",
            "latitude": "13.2112826",
            "blogLinks": [
                "https://en.wikipedia.org/wiki/Tourism_in_Karnataka",
                "https://www.quora.com/What-are-some-good-places-to-visit-near-bangalore-for-a-one-two-day-trip",
                "https://www.quora.com/What-are-the-best-weekend-road-trips-from-Bangalore"
            ],
            "address": "Karkala, Karkala taluk, Udupi district, Karnataka, 574104, India",
            "locType": "town",
            "longitude": "74.9959586"
        },
        "kambadahalli": {
            "closest_to": "kanakapura",
            "latitude": "13.6843692",
            "blogLinks": [
                "https://en.wikipedia.org/wiki/Tourism_in_Karnataka"
            ],
            "address": "Kambadahalli, Madhugiri taluk, Tumkur district, Karnataka, India",
            "locType": "village",
            "longitude": "77.1671918"
        },
        "malaprabha": {
            "closest_to": "bellary",
            "latitude": "15.8914192",
            "blogLinks": [
                "https://en.wikipedia.org/wiki/Tourism_in_Karnataka"
            ],
            "address": "Malaprabha, Ramadurga taluku, Belgaum district, Karnataka, India",
            "locType": "river",
            "longitude": "75.1982668"
        },
        "gotagodi village": {
            "closest_to": "bellary",
            "latitude": "14.7634556",
            "blogLinks": [
                "https://en.wikipedia.org/wiki/Tourism_in_Karnataka"
            ],
            "address": "Gotagodi, Hanagal taluk, Haveri district, Karnataka, India",
            "locType": "village",
            "longitude": "75.0452834"
        },
        "bandipur national park": {
            "closest_to": "kanakapura",
            "latitude": "11.76682425",
            "blogLinks": [
                "https://en.wikipedia.org/wiki/Tourism_in_Karnataka"
            ],
            "address": "Bandipur National Park, Kozhikode - Kollegal Highway, Gundlupet taluk, Chamarajanagar district, Karnataka, India",
            "locType": "national_park",
            "longitude": "76.4314968740264"
        },
        "gulbarga district": {
            "closest_to": "bellary",
            "latitude": "17.166667",
            "blogLinks": [
                "https://en.wikipedia.org/wiki/Tourism_in_Karnataka"
            ],
            "address": "Kalaburgi, Kalaburagi district, Karnataka, India",
            "locType": "county",
            "longitude": "77.083333"
        },
        "tumkur": {
            "closest_to": "kanakapura",
            "latitude": "13.4999406",
            "blogLinks": [
                "https://en.wikipedia.org/wiki/Tourism_in_Karnataka",
                "http://www.mapsofindia.com/maps/karnataka/"
            ],
            "address": "Tumakuru, Tumkur district, Karnataka, India",
            "locType": "county",
            "longitude": "77.0002445"
        },
        "gulmohar": {
            "closest_to": "kanakapura",
            "latitude": "12.9841671",
            "blogLinks": [
                "https://www.quora.com/What-are-some-good-places-to-visit-near-bangalore-for-a-one-two-day-trip",
                "https://www.quora.com/What-are-the-best-weekend-road-trips-from-Bangalore"
            ],
            "address": "MIMS Gulmohar Villas, Kadugodi, Prashanth Extension, Bangalore Urban, Karnataka, 56066, India",
            "locType": "residential",
            "longitude": "77.745811757371"
        },
        "nagarahole": {
            "closest_to": "kanakapura",
            "latitude": "12.0229466",
            "blogLinks": [
                "https://en.wikipedia.org/wiki/Tourism_in_Karnataka"
            ],
            "address": "Nagarahole, Heggadadevanakote taluk, Mysuru district, Karnataka, India",
            "locType": "river",
            "longitude": "76.2286805"
        },
        "chandragupta maurya": {
            "closest_to": "kanakapura",
            "latitude": "12.92084805",
            "blogLinks": [
                "https://www.tripoto.com/travel-guide/bangalore/places-to-visit"
            ],
            "address": "Chandragupta Maurya playground, 11 Main (Sri Aurobindo Marg), Jayanagar 4th Block, Jayanagar, Bengaluru, Bangalore Urban, Karnataka, 560001, India",
            "locType": "pitch",
            "longitude": "77.585340318101"
        },
        "badami of karnataka": {
            "closest_to": "bellary",
            "latitude": "15.98301895",
            "blogLinks": [
                "http://www.mapsofindia.com/karnataka/tourism/"
            ],
            "address": "Badami taluku, Bagalkote district, Karnataka, India",
            "locType": "administrative",
            "longitude": "75.6419100722642"
        },
        "sringeri": {
            "closest_to": "kanakapura",
            "latitude": "13.4261724",
            "blogLinks": [
                "https://www.quora.com/What-are-some-good-places-to-visit-near-bangalore-for-a-one-two-day-trip",
                "https://www.quora.com/What-are-the-best-weekend-road-trips-from-Bangalore"
            ],
            "address": "Sringeri, Sringeri taluku, Chikkamagaluru district, Karnataka, 577592, India",
            "locType": "town",
            "longitude": "75.2553718"
        },
        "hampi": {
            "closest_to": "bellary",
            "latitude": "15.3359769",
            "blogLinks": [
                "https://en.wikipedia.org/wiki/Tourism_in_Karnataka",
                "http://www.mapsofindia.com/karnataka/tourism/",
                "https://www.tripoto.com/travel-guide/bangalore/places-to-visit"
            ],
            "address": "Hampe, Hosapete taluk, Bellary district, Karnataka, 583239, India",
            "locType": "village",
            "longitude": "76.4606199"
        },
        "bagamandala": {
            "closest_to": "kanakapura",
            "latitude": "12.388062",
            "blogLinks": [
                "https://en.wikipedia.org/wiki/Tourism_in_Karnataka"
            ],
            "address": "Madikeri - Bagamandala ,Tala Kaveri Road, Mekeri, Madikeri taluku, Kodagu, Karnataka, India",
            "locType": "primary",
            "longitude": "75.748408"
        },
        "vijayanagar": {
            "closest_to": "kanakapura",
            "latitude": "12.9713392",
            "blogLinks": [
                "http://www.hoparoundindia.com/karnataka/attractions/bellary.aspx"
            ],
            "address": "Vijayanagar, Chord Road, Marenahalli, Vijaya Nagar, Binny Layout, Bangalore Urban, Karnataka, 560040, India",
            "locType": "station",
            "longitude": "77.5375757"
        },
        "kodagu": {
            "closest_to": "kanakapura",
            "latitude": "12.38117345",
            "blogLinks": [
                "https://en.wikipedia.org/wiki/Tourism_in_Karnataka",
                "https://www.quora.com/What-are-some-good-places-to-visit-near-bangalore-for-a-one-two-day-trip",
                "http://www.mapsofindia.com/maps/karnataka/",
                "http://www.mapsofindia.com/karnataka/tourism/",
                "https://www.quora.com/What-are-the-best-weekend-road-trips-from-Bangalore"
            ],
            "address": "Kodagu, Karnataka, India",
            "locType": "administrative",
            "longitude": "75.6677235950852"
        },
        "ballari": {
            "closest_to": "kanakapura",
            "latitude": "15.1467299",
            "blogLinks": [
                "https://en.wikipedia.org/wiki/Bellary"
            ],
            "address": "Ballari, Bellary taluk, Bellary district, Karnataka, India",
            "locType": "city",
            "longitude": "76.9125211"
        },
        "bengaluru": {
            "closest_to": "kanakapura",
            "latitude": "12.9791198",
            "blogLinks": [
                "http://www.indiatravelblog.com/resources/3597-Visiting-Places-Sandur-Bellary-Karnataka.aspx"
            ],
            "address": "Bengaluru, Bangalore Urban, Karnataka, 560001, India",
            "locType": "city",
            "longitude": "77.5912997"
        },
        "hassan": {
            "closest_to": "kanakapura",
            "latitude": "13.0070817",
            "blogLinks": [
                "https://en.wikipedia.org/wiki/Tourism_in_Karnataka",
                "https://www.quora.com/What-are-the-best-weekend-road-trips-from-Bangalore"
            ],
            "address": "Hassan, Hasana taluk, Hassan district, Karnataka, 573201, India",
            "locType": "town",
            "longitude": "76.0992703"
        },
        "hosur road": {
            "closest_to": "kanakapura",
            "latitude": "12.9147705",
            "blogLinks": [
                "https://www.tripoto.com/places-to-visit/india/bangalore"
            ],
            "address": "Hosur Road, BTM 2nd Stage, Bommanahalli, Bengaluru, Bangalore Urban, Karnataka, 560001, India",
            "locType": "trunk",
            "longitude": "77.6241106"
        },
        "bagalkote": {
            "closest_to": "bellary",
            "latitude": "16.28998085",
            "blogLinks": [
                "https://en.wikipedia.org/wiki/Tourism_in_Karnataka",
                "http://www.mapsofindia.com/maps/karnataka/"
            ],
            "address": "Bagalkote district, Karnataka, India",
            "locType": "administrative",
            "longitude": "75.5825586777167"
        },
        "north east": {
            "closest_to": "kanakapura",
            "latitude": "14.5203896",
            "blogLinks": [
                "http://www.thrillophilia.com/blog/20-places-you-need-to-visit-in-india-with-your-best-friend/"
            ],
            "address": "Karnataka, India",
            "locType": "administrative",
            "longitude": "75.7223521"
        },
        "pune": {
            "closest_to": "bellary",
            "latitude": "17.8199745",
            "blogLinks": [
                "https://en.wikipedia.org/wiki/Bellary",
                "http://www.thrillophilia.com/blog/20-places-you-need-to-visit-in-india-with-your-best-friend/"
            ],
            "address": "Pune - Machilipatnam Highway, Kaudiyala, Basavakalyana taluku, Bidar district, Karnataka, India",
            "locType": "trunk",
            "longitude": "76.9479122"
        },
        "anantapur district": {
            "closest_to": "kanakapura",
            "latitude": "13.7972948",
            "blogLinks": [
                "https://www.quora.com/What-are-some-good-places-to-visit-near-bangalore-for-a-one-two-day-trip",
                "https://www.quora.com/What-are-the-best-weekend-road-trips-from-Bangalore"
            ],
            "address": "RTO Karnataka, Srinagar - Kanyakumari Highway, Paragodu, Bagepalli taluk, Chikkaballapura district, Karnataka, 561207, India",
            "locType": "yes",
            "longitude": "77.7596024"
        },
        "bijapur": {
            "closest_to": "bellary",
            "latitude": "16.8269911",
            "blogLinks": [
                "https://en.wikipedia.org/wiki/Tourism_in_Karnataka",
                "http://www.mapsofindia.com/maps/karnataka/"
            ],
            "address": "Vijayapura, Vijayapura taluk, Bijapur district, Karnataka, 586101, India",
            "locType": "city",
            "longitude": "75.7175387"
        },
        "mookambika": {
            "closest_to": "bellary",
            "latitude": "13.8638043",
            "blogLinks": [
                "https://en.wikipedia.org/wiki/Tourism_in_Karnataka"
            ],
            "address": "Mukambika Devasthana, NH766C;SH26, Halkal, \u0c95\u0cc1\u0c82\u0ca6\u0cbe\u0caa\u0cc1\u0cb0 \u0ca4\u0cbe\u0cb2\u0cc2\u0c95\u0cc1, Udupi district, Karnataka, 576220, India",
            "locType": "place_of_worship",
            "longitude": "74.8145296"
        },
        "sannati": {
            "closest_to": "bellary",
            "latitude": "16.8293201",
            "blogLinks": [
                "https://en.wikipedia.org/wiki/Tourism_in_Karnataka"
            ],
            "address": "Sannati, Chitapura taluku, Kalaburagi district, Karnataka, India",
            "locType": "village",
            "longitude": "76.9080631"
        },
        "sagara taluk": {
            "closest_to": "bellary",
            "latitude": "14.09993045",
            "blogLinks": [
                "https://en.wikipedia.org/wiki/Tourism_in_Karnataka"
            ],
            "address": "Sagara taluk, Shimoga district, Karnataka, India",
            "locType": "administrative",
            "longitude": "74.9610874491152"
        },
        "west": {
            "closest_to": "kanakapura",
            "latitude": "12.8759384",
            "blogLinks": [
                "http://www.thrillophilia.com/blog/20-places-you-need-to-visit-in-india-with-your-best-friend/"
            ],
            "address": "w, Balmuri Main Road, Hulimavu,, Bannerghatta Road, Mico Arekere Layout 1st Stage, Hulimavu, Bengaluru, Bangalore Urban, Karnataka, 560076, India",
            "locType": "clothes",
            "longitude": "77.5960999"
        },
        "yellapur": {
            "closest_to": "bellary",
            "latitude": "14.9622518",
            "blogLinks": [
                "https://www.quora.com/What-are-some-good-places-to-visit-near-bangalore-for-a-one-two-day-trip"
            ],
            "address": "Yellapura, Yallapura taluk, Uttara Kannada, Karnataka, 581359, India",
            "locType": "town",
            "longitude": "74.7061458"
        },
        "varur": {
            "closest_to": "bellary",
            "latitude": "15.2077105",
            "blogLinks": [
                "https://en.wikipedia.org/wiki/Tourism_in_Karnataka"
            ],
            "address": "Varur, Hubballi taluku, Dharwad district, Karnataka, India",
            "locType": "village",
            "longitude": "75.1387568"
        },
        "green valley": {
            "closest_to": "kanakapura",
            "latitude": "12.3526693",
            "blogLinks": [
                "https://www.thrillophilia.com/resorts-around-bangalore"
            ],
            "address": "Green Valley, Ring Road, Hebbalu, Manche Gowdana Koppalu, Mysuru taluk, Mysuru district, Karnataka, 570017, India",
            "locType": "restaurant",
            "longitude": "76.6064393"
        },
        "shirali": {
            "closest_to": "bellary",
            "latitude": "14.0280925",
            "blogLinks": [
                "https://en.wikipedia.org/wiki/Tourism_in_Karnataka"
            ],
            "address": "Shirali, Bhatkala taluk, Uttara Kannada, Karnataka, 581354, India",
            "locType": "village",
            "longitude": "74.5286591"
        },
        "ragihalli": {
            "closest_to": "kanakapura",
            "latitude": "12.7386426",
            "blogLinks": [
                "https://www.thrillophilia.com/resorts-around-bangalore"
            ],
            "address": "Ragihalli, Bangalore Urban, Karnataka, India",
            "locType": "village",
            "longitude": "77.5745803"
        },
        "kolar": {
            "closest_to": "kanakapura",
            "latitude": "13.1369996",
            "blogLinks": [
                "https://www.thrillophilia.com/resorts-around-bangalore"
            ],
            "address": "Kolar, Kolar taluk, Kolar district, Karnataka, 563101, India",
            "locType": "town",
            "longitude": "78.1339606"
        },
        "bellary": {
            "closest_to": "kanakapura",
            "latitude": "15.2485413",
            "blogLinks": [
                "http://www.thrillophilia.com/blog/20-places-you-need-to-visit-in-india-with-your-best-friend/",
                "http://www.hoparoundindia.com/karnataka/attractions/bellary.aspx",
                "https://en.wikipedia.org/wiki/Bellary",
                "http://www.indiatravelblog.com/resources/3597-Visiting-Places-Sandur-Bellary-Karnataka.aspx",
                "https://www.quora.com/What-are-the-best-weekend-road-trips-from-Bangalore",
                "https://en.wikipedia.org/wiki/Tourism_in_Karnataka",
                "http://www.mapsofindia.com/maps/karnataka/"
            ],
            "address": "Bellary, Bellary district, Karnataka, India",
            "locType": "county",
            "longitude": "76.8323648"
        },
        "galibore": {
            "closest_to": "kanakapura",
            "latitude": "12.2824558",
            "blogLinks": [
                "https://www.thrillophilia.com/resorts-around-bangalore",
                "http://www.indiatravelblog.com/resources/3597-Visiting-Places-Sandur-Bellary-Karnataka.aspx"
            ],
            "address": "Galibore, Kanakapura taluk, Ramanagara district, Karnataka, India",
            "locType": "hamlet",
            "longitude": "77.3749833"
        },
        "bankpur fort": {
            "closest_to": "bellary",
            "latitude": "14.9231815",
            "blogLinks": [
                "https://en.wikipedia.org/wiki/Tourism_in_Karnataka"
            ],
            "address": "Bankapura Fort, SH137, Guddada Channapura, Shiggaon taluk, Haveri district, Karnataka, 581202, India",
            "locType": "archaeological_site",
            "longitude": "75.2512090188504"
        },
        "bengal": {
            "closest_to": "kanakapura",
            "latitude": "13.0492646",
            "blogLinks": [
                "https://www.tripoto.com/travel-guide/bangalore/places-to-visit"
            ],
            "address": "Bengal Lamps, Konadasapura, Bangalore Urban, Karnataka, 560066, India",
            "locType": "industrial",
            "longitude": "77.7517038151245"
        },
        "lakshmeshwar": {
            "closest_to": "bellary",
            "latitude": "15.12373",
            "blogLinks": [
                "https://en.wikipedia.org/wiki/Tourism_in_Karnataka"
            ],
            "address": "Lakshmeshwar KSRTC Bus stand, SH6, Bastibana, Lakshmeshvara, Shirahatti taluku, Gadag district, Karnataka, 582116, India",
            "locType": "bus_station",
            "longitude": "75.4741167"
        },
        "anegundi village": {
            "closest_to": "bellary",
            "latitude": "15.3509583",
            "blogLinks": [
                "http://www.indiatravelblog.com/resources/3597-Visiting-Places-Sandur-Bellary-Karnataka.aspx"
            ],
            "address": "Anegundi, Gangavati taluku, Koppal district, Karnataka, India",
            "locType": "village",
            "longitude": "76.4924232"
        },
        "shimoga district": {
            "closest_to": "kanakapura",
            "latitude": "14.0558284",
            "blogLinks": [
                "https://en.wikipedia.org/wiki/Tourism_in_Karnataka"
            ],
            "address": "Shimoga district, Karnataka, India",
            "locType": "administrative",
            "longitude": "75.1312533993886"
        },
        "karnatka": {
            "closest_to": "kanakapura",
            "latitude": "12.9500847",
            "blogLinks": [
                "https://en.wikipedia.org/wiki/Bellary",
                "https://www.tripoto.com/travel-guide/bangalore/places-to-visit"
            ],
            "address": "Karnatka Rajya Kaigarika Sahakari Bank, Bull Temple Road, Mavalli, Chamarajapete, Bengaluru, Bangalore Urban, Karnataka, 560001, India",
            "locType": "bank",
            "longitude": "77.5679508"
        },
        "mundargi": {
            "closest_to": "bellary",
            "latitude": "16.7700414",
            "blogLinks": [
                "https://en.wikipedia.org/wiki/Bellary"
            ],
            "address": "Mundargi Thanda, Yadagiri taluku, Yadagiri district, Karnataka, India",
            "locType": "hamlet",
            "longitude": "77.1777795"
        },
        "chamarajanagar": {
            "closest_to": "kanakapura",
            "latitude": "11.9346624",
            "blogLinks": [
                "https://en.wikipedia.org/wiki/Tourism_in_Karnataka",
                "http://www.mapsofindia.com/maps/karnataka/"
            ],
            "address": "Chamarajanagar, Nanjangudu-Chamarajanagar Road, Kadahalli, Chamarajanagara taluk, Chamarajanagar district, Karnataka, 571313, India",
            "locType": "station",
            "longitude": "76.9331345"
        },
        "bellary fort": {
            "closest_to": "kanakapura",
            "latitude": "15.1481211",
            "blogLinks": [
                "http://www.hoparoundindia.com/karnataka/attractions/bellary.aspx"
            ],
            "address": "Upper Hill Outer Fort Wall, Uphill Fort Entry Road, Ballari, Bellary taluk, Bellary district, Karnataka, 5831XX, India",
            "locType": "castle",
            "longitude": "76.9090283"
        },
        "guhantara resort": {
            "closest_to": "kanakapura",
            "latitude": "12.8004555",
            "blogLinks": [
                "https://www.thrillophilia.com/resorts-around-bangalore"
            ],
            "address": "Guhantara Cave Resort, Kanakapura Road, Banjarapalya, Udayapura, Bangalore Urban, Karnataka, 560076, India",
            "locType": "hotel",
            "longitude": "77.4918189885896"
        },
        "talakad": {
            "closest_to": "kanakapura",
            "latitude": "12.1731685",
            "blogLinks": [
                "https://www.thrillophilia.com/resorts-around-bangalore"
            ],
            "address": "Talakad Riverside, SH79, Mavinahalli, Tirumakudalu Narasipura taluk, Mysuru district, Karnataka, India",
            "locType": "picnic_site",
            "longitude": "77.026146"
        },
        "varadaraja": {
            "closest_to": "kanakapura",
            "latitude": "13.005885",
            "blogLinks": [
                "https://en.wikipedia.org/wiki/Tourism_in_Karnataka"
            ],
            "address": "Varadaraja Petrol / Gas Station, Dr. Rajkumar Road, Rajajinagar 1st Block, Subrahmanya Nagar, Bengaluru, Bangalore Urban, Karnataka, 560001, India",
            "locType": "fuel",
            "longitude": "77.5542736"
        },
        "oxford": {
            "closest_to": "kanakapura",
            "latitude": "12.9660236",
            "blogLinks": [
                "https://en.wikipedia.org/wiki/Bellary"
            ],
            "address": "Oxford, I T P L Main Road, Kundalahalli Colony, AECS Layout, Sitaramapalya, Bangalore Urban, Karnataka, 560048, India",
            "locType": "books",
            "longitude": "77.7178402"
        },
        "kudligi road": {
            "closest_to": "kanakapura",
            "latitude": "15.1826949",
            "blogLinks": [
                "http://www.indiatravelblog.com/resources/3597-Visiting-Places-Sandur-Bellary-Karnataka.aspx"
            ],
            "address": "Kudligi Road, Vaddu, Sanduru taluk, Bellary district, Karnataka, 583123, India",
            "locType": "primary",
            "longitude": "76.6307008"
        },
        "afzalpur": {
            "closest_to": "bellary",
            "latitude": "17.2005764",
            "blogLinks": [
                "https://en.wikipedia.org/wiki/Tourism_in_Karnataka"
            ],
            "address": "Afzalpur, Afzalpura taluku, Kalaburagi district, Karnataka, 585301, India",
            "locType": "town",
            "longitude": "76.3605783"
        },
        "hoysala": {
            "closest_to": "kanakapura",
            "latitude": "12.97813815",
            "blogLinks": [
                "https://en.wikipedia.org/wiki/Tourism_in_Karnataka",
                "http://www.mapsofindia.com/karnataka/tourism/"
            ],
            "address": "Hoysala Nagar, Bengaluru, Bangalore Urban, Karnataka, 560001, India",
            "locType": "administrative",
            "longitude": "77.6375990817051"
        },
        "guhantara": {
            "closest_to": "kanakapura",
            "latitude": "12.8004555",
            "blogLinks": [
                "https://www.thrillophilia.com/resorts-around-bangalore"
            ],
            "address": "Guhantara Cave Resort, Kanakapura Road, Banjarapalya, Udayapura, Bangalore Urban, Karnataka, 560076, India",
            "locType": "hotel",
            "longitude": "77.4918189885896"
        },
        "tumakuru": {
            "closest_to": "kanakapura",
            "latitude": "13.4999406",
            "blogLinks": [
                "https://en.wikipedia.org/wiki/Bellary"
            ],
            "address": "Tumakuru, Tumkur district, Karnataka, India",
            "locType": "county",
            "longitude": "77.0002445"
        },
        "venur": {
            "closest_to": "kanakapura",
            "latitude": "13.0122097",
            "blogLinks": [
                "https://en.wikipedia.org/wiki/Tourism_in_Karnataka"
            ],
            "address": "Venoor, Beltangadi taluk, Dakshina Kannada, Karnataka, 574242, India",
            "locType": "village",
            "longitude": "75.1443252"
        },
        "england": {
            "closest_to": "kanakapura",
            "latitude": "12.90120185",
            "blogLinks": [
                "https://www.tripoto.com/travel-guide/bangalore/places-to-visit"
            ],
            "address": "Peter England Factory, Bommanahalli, Bengaluru, Bangalore Urban, Karnataka, 560001, India",
            "locType": "industrial",
            "longitude": "77.6219969678622"
        },
        "srirangapatna": {
            "closest_to": "kanakapura",
            "latitude": "12.4225604",
            "blogLinks": [
                "https://en.wikipedia.org/wiki/Tourism_in_Karnataka",
                "https://www.tripoto.com/places-to-visit/india/bangalore",
                "http://www.indiatravelblog.com/resources/3597-Visiting-Places-Sandur-Bellary-Karnataka.aspx",
                "https://www.quora.com/What-are-the-best-weekend-road-trips-from-Bangalore"
            ],
            "address": "Srirangapatna, Srirangapattana taluk, Mandya district, Karnataka, 571438, India",
            "locType": "town",
            "longitude": "76.6850743"
        },
        "new international airport": {
            "closest_to": "kanakapura",
            "latitude": "12.95058465",
            "blogLinks": [
                "https://www.thrillophilia.com/resorts-around-bangalore"
            ],
            "address": "Mangalore International Airport New Terminal, Airport Exit Road, Gandhinagar, Kenjar, Mangaluru taluk, Dakshina Kannada, Karnataka, 575015, India",
            "locType": "terminal",
            "longitude": "74.8724560421863"
        },
        "avalabetta": {
            "closest_to": "kanakapura",
            "latitude": "13.5775096",
            "blogLinks": [
                "https://www.quora.com/What-are-the-best-weekend-road-trips-from-Bangalore"
            ],
            "address": "Avalabetta, Chikkaballapura taluk, Chikkaballapura district, Karnataka, India",
            "locType": "peak",
            "longitude": "77.6730413"
        },
        "toranagallu": {
            "closest_to": "kanakapura",
            "latitude": "15.1959663",
            "blogLinks": [
                "https://en.wikipedia.org/wiki/Bellary"
            ],
            "address": "Toranagallu, Sanduru taluk, Bellary district, Karnataka, 583123, India",
            "locType": "village",
            "longitude": "76.6780987"
        },
        "kanaganahalli": {
            "closest_to": "kanakapura",
            "latitude": "12.5588444",
            "blogLinks": [
                "https://en.wikipedia.org/wiki/Tourism_in_Karnataka"
            ],
            "address": "Kanaganahalli, Pandavapura taluk, Mandya district, Karnataka, India",
            "locType": "village",
            "longitude": "76.5876958"
        },
        "itagi": {
            "closest_to": "kanakapura",
            "latitude": "14.550374",
            "blogLinks": [
                "https://en.wikipedia.org/wiki/Tourism_in_Karnataka"
            ],
            "address": "Itagi, Ranebennuru taluk, Haveri district, Karnataka, India",
            "locType": "village",
            "longitude": "75.6701043"
        },
        "aihole": {
            "closest_to": "bellary",
            "latitude": "16.0192298",
            "blogLinks": [
                "https://en.wikipedia.org/wiki/Tourism_in_Karnataka"
            ],
            "address": "Aihole, Hunagunda taluku, Bagalkote district, Karnataka, India",
            "locType": "village",
            "longitude": "75.8819129"
        },
        "mercara": {
            "closest_to": "kanakapura",
            "latitude": "12.4204003",
            "blogLinks": [
                "https://en.wikipedia.org/wiki/Tourism_in_Karnataka"
            ],
            "address": "Madikeri, Madikeri taluku, Kodagu, Karnataka, India",
            "locType": "town",
            "longitude": "75.740031"
        },
        "bandipur": {
            "closest_to": "kanakapura",
            "latitude": "11.6662708",
            "blogLinks": [
                "https://en.wikipedia.org/wiki/Tourism_in_Karnataka",
                "https://www.quora.com/What-are-the-best-weekend-road-trips-from-Bangalore"
            ],
            "address": "Bandipur, Gundlupet taluk, Chamarajanagar district, Karnataka, India",
            "locType": "village",
            "longitude": "76.6285739"
        },
        "kumta": {
            "closest_to": "bellary",
            "latitude": "14.4261647",
            "blogLinks": [
                "https://en.wikipedia.org/wiki/Tourism_in_Karnataka"
            ],
            "address": "Kumta, Kumata taluk, Uttara Kannada, Karnataka, India",
            "locType": "town",
            "longitude": "74.4107617"
        },
        "coastal karnataka": {
            "closest_to": "kanakapura",
            "latitude": "12.96014675",
            "blogLinks": [
                "https://en.wikipedia.org/wiki/Tourism_in_Karnataka"
            ],
            "address": "Bharat Petroleum Mangalore Coastal Installation, Baikampady, Mangaluru taluk, Dakshina Kannada, Karnataka, 575014, India",
            "locType": "industrial",
            "longitude": "74.8137275833157"
        },
        "goa": {
            "closest_to": "kanakapura",
            "latitude": "12.9750047",
            "blogLinks": [
                "https://en.wikipedia.org/wiki/Tourism_in_Karnataka",
                "https://en.wikipedia.org/wiki/Bellary"
            ],
            "address": "Carnival De Goa, Bhaskaran Road, Gupta Layout, Halasuru, Bengaluru, Bangalore Urban, Karnataka, 560001, India",
            "locType": "restaurant",
            "longitude": "77.6200027"
        },
        "belavadi": {
            "closest_to": "kanakapura",
            "latitude": "13.5284899",
            "blogLinks": [
                "https://en.wikipedia.org/wiki/Tourism_in_Karnataka"
            ],
            "address": "Belavadi, Koppa taluk, Chikkamagaluru district, Karnataka, India",
            "locType": "village",
            "longitude": "75.3760773"
        },
        "hindupur": {
            "closest_to": "kanakapura",
            "latitude": "13.3580171",
            "blogLinks": [
                "https://www.quora.com/What-are-some-good-places-to-visit-near-bangalore-for-a-one-two-day-trip",
                "https://en.wikipedia.org/wiki/Bellary",
                "https://www.quora.com/What-are-the-best-weekend-road-trips-from-Bangalore"
            ],
            "address": "Hindupur ByPass Road, Bachchahalli, Doddaballapura taluk, Bangalore Rural, Karnataka, India",
            "locType": "primary",
            "longitude": "77.5237128"
        },
        "varada": {
            "closest_to": "bellary",
            "latitude": "14.8717792",
            "blogLinks": [
                "https://en.wikipedia.org/wiki/Tourism_in_Karnataka"
            ],
            "address": "Varada, Savanura taluk, Haveri district, Karnataka, India",
            "locType": "river",
            "longitude": "75.47206"
        },
        "kadapa": {
            "closest_to": "kanakapura",
            "latitude": "13.1859851",
            "blogLinks": [
                "https://en.wikipedia.org/wiki/Bellary"
            ],
            "address": "Kadapa - Madanapalle - Bengaluru New Line (u/c), Srinivaspur Mulbagal Road, Kadiripura, Mulubagilu taluk, Kolar district, Karnataka, 563131, India",
            "locType": "construction",
            "longitude": "78.3792674"
        },
        "puducherry": {
            "closest_to": "kanakapura",
            "latitude": "11.9365727",
            "blogLinks": [
                "http://www.thrillophilia.com/blog/20-places-you-need-to-visit-in-india-with-your-best-friend/"
            ],
            "address": "Karnataka Bank, Mission Street, Grand Bazaar, Puducherry, Puducherry district, Puducherry, 605001, India",
            "locType": "bank",
            "longitude": "79.831569"
        },
        "bellary road": {
            "closest_to": "kanakapura",
            "latitude": "13.0465345",
            "blogLinks": [
                "https://www.tripoto.com/travel-guide/bangalore/places-to-visit",
                "https://www.quora.com/What-are-some-good-places-to-visit-near-bangalore-for-a-one-two-day-trip",
                "https://www.tripoto.com/places-to-visit/india/bangalore",
                "https://www.quora.com/What-are-the-best-weekend-road-trips-from-Bangalore"
            ],
            "address": "Bellary Road, Kanaka Nagar, Hebbal, Bengaluru, Bangalore Urban, Karnataka, 560001, India",
            "locType": "trunk",
            "longitude": "77.5915237"
        },
        "kamala": {
            "closest_to": "kanakapura",
            "latitude": "12.9339482",
            "blogLinks": [
                "https://en.wikipedia.org/wiki/Tourism_in_Karnataka"
            ],
            "address": "Kamala Nehru Patashala (Emmanual English School), 5th A Cross Road, Yediyur, Thyagaraja Nagar, Bengaluru, Bangalore Urban, Karnataka, 560001, India",
            "locType": "school",
            "longitude": "77.5664867"
        },
        "us": {
            "closest_to": "kanakapura",
            "latitude": "14.5203896",
            "blogLinks": [
                "http://harishoutings.blogspot.com/2008/07/sangam-mekedatu-and-chunchi-falls.html"
            ],
            "address": "Karnataka, India",
            "locType": "administrative",
            "longitude": "75.7223521"
        },
        "netrani island of uttara kannada": {
            "closest_to": "bellary",
            "latitude": "14.0174924",
            "blogLinks": [
                "https://en.wikipedia.org/wiki/Tourism_in_Karnataka"
            ],
            "address": "Netrani, Uttara Kannada, Karnataka, India",
            "locType": "island",
            "longitude": "74.3272086675849"
        },
        "kalasa": {
            "closest_to": "kanakapura",
            "latitude": "13.2322235",
            "blogLinks": [
                "https://en.wikipedia.org/wiki/Tourism_in_Karnataka",
                "https://www.quora.com/What-are-some-good-places-to-visit-near-bangalore-for-a-one-two-day-trip",
                "https://www.quora.com/What-are-the-best-weekend-road-trips-from-Bangalore"
            ],
            "address": "Kalasa, Mudigere taluk, Chikkamagaluru district, Karnataka, 577124, India",
            "locType": "town",
            "longitude": "75.3582366"
        },
        "charmadi": {
            "closest_to": "kanakapura",
            "latitude": "13.0365436",
            "blogLinks": [
                "https://www.quora.com/What-are-some-good-places-to-visit-near-bangalore-for-a-one-two-day-trip",
                "https://www.quora.com/What-are-the-best-weekend-road-trips-from-Bangalore"
            ],
            "address": "Charmadi, Beltangadi taluk, Dakshina Kannada, Karnataka, 574290, India",
            "locType": "village",
            "longitude": "75.3967377"
        },
        "srirangapattana": {
            "closest_to": "kanakapura",
            "latitude": "12.40148225",
            "blogLinks": [
                "https://www.quora.com/What-are-some-good-places-to-visit-near-bangalore-for-a-one-two-day-trip"
            ],
            "address": "Srirangapattana taluk, Mandya district, Karnataka, India",
            "locType": "administrative",
            "longitude": "76.703932434547"
        },
        "unchalli falls": {
            "closest_to": "bellary",
            "latitude": "14.4097755",
            "blogLinks": [
                "https://en.wikipedia.org/wiki/Tourism_in_Karnataka"
            ],
            "address": "\u0c89\u0c82\u0c9a\u0cb3\u0ccd\u0cb3\u0cbf \u0c9c\u0cb2\u0caa\u0cbe\u0ca4, Siddapura taluk, Uttara Kannada, Karnataka, India",
            "locType": "waterfall",
            "longitude": "74.7477592"
        },
        "sarjapura": {
            "closest_to": "kanakapura",
            "latitude": "12.8600866",
            "blogLinks": [
                "https://www.thrillophilia.com/resorts-around-bangalore"
            ],
            "address": "Sarjapura, Bangalore Urban, Karnataka, 562125, India",
            "locType": "town",
            "longitude": "77.7861352"
        },
        "nagarahole national park": {
            "closest_to": "kanakapura",
            "latitude": "12.0600362",
            "blogLinks": [
                "https://en.wikipedia.org/wiki/Tourism_in_Karnataka"
            ],
            "address": "Nagarahole National Park, Virajpet taluk, Kodagu, Karnataka, India",
            "locType": "national_park",
            "longitude": "76.1537073415874"
        },
        "richmond place": {
            "closest_to": "kanakapura",
            "latitude": "12.970097",
            "blogLinks": [
                "https://www.tripoto.com/places-to-visit/india/bangalore"
            ],
            "address": "Richmond Road, Gowthampuram, Ashok Nagar, Bengaluru, Bangalore Urban, Karnataka, 560001, India",
            "locType": "primary",
            "longitude": "77.617066"
        },
        "siddheshwara": {
            "closest_to": "kanakapura",
            "latitude": "13.0797146",
            "blogLinks": [
                "https://en.wikipedia.org/wiki/Tourism_in_Karnataka"
            ],
            "address": "Siddheshwara Medicals, Judicial Layout, Allalasandra, Bangalore, 7th Main Road, Judicial Layout, Bengaluru, Bangalore Urban, Karnataka, 560001, India",
            "locType": "pharmacy",
            "longitude": "77.5876527"
        },
        "udupi": {
            "closest_to": "kanakapura",
            "latitude": "13.3419169",
            "blogLinks": [
                "https://en.wikipedia.org/wiki/Tourism_in_Karnataka",
                "http://www.mapsofindia.com/karnataka/tourism/",
                "http://www.mapsofindia.com/maps/karnataka/"
            ],
            "address": "Udupi, Udupi taluku, Udupi district, Karnataka, 576101, India",
            "locType": "city",
            "longitude": "74.7473232"
        },
        "anshi national park": {
            "closest_to": "bellary",
            "latitude": "14.9994424",
            "blogLinks": [
                "https://en.wikipedia.org/wiki/Tourism_in_Karnataka"
            ],
            "address": "Anshi National Park, SH46, Bidoli, Joida taluk, Uttara Kannada, Karnataka, India",
            "locType": "national_park",
            "longitude": "74.3934408094182"
        },
        "dharmastala": {
            "closest_to": "kanakapura",
            "latitude": "12.9519571",
            "blogLinks": [
                "https://en.wikipedia.org/wiki/Tourism_in_Karnataka"
            ],
            "address": "Dharmasthala, Beltangadi taluk, Dakshina Kannada, Karnataka, 574216, India",
            "locType": "village",
            "longitude": "75.3813122"
        },
        "bangalore": {
            "closest_to": "kanakapura",
            "latitude": "12.9791198",
            "blogLinks": [
                "http://www.thrillophilia.com/blog/20-places-you-need-to-visit-in-india-with-your-best-friend/",
                "https://www.tripoto.com/travel-guide/bangalore/places-to-visit",
                "https://www.quora.com/What-are-some-good-places-to-visit-near-bangalore-for-a-one-two-day-trip",
                "http://www.hoparoundindia.com/karnataka/attractions/bellary.aspx",
                "http://harishoutings.blogspot.com/2008/07/sangam-mekedatu-and-chunchi-falls.html",
                "https://www.tripoto.com/places-to-visit/india/bangalore",
                "https://www.tripoto.com/travel-guide/kanakapura/trips",
                "https://en.wikipedia.org/wiki/Bellary",
                "https://www.thrillophilia.com/resorts-around-bangalore",
                "http://www.indiatravelblog.com/resources/3597-Visiting-Places-Sandur-Bellary-Karnataka.aspx",
                "https://www.quora.com/What-are-the-best-weekend-road-trips-from-Bangalore",
                "https://en.wikipedia.org/wiki/Tourism_in_Karnataka",
                "http://www.mapsofindia.com/karnataka/tourism/"
            ],
            "address": "Bengaluru, Bangalore Urban, Karnataka, 560001, India",
            "locType": "city",
            "longitude": "77.5912997"
        },
        "central jail of bellary": {
            "closest_to": "kanakapura",
            "latitude": "15.15050865",
            "blogLinks": [
                "https://en.wikipedia.org/wiki/Bellary"
            ],
            "address": "Ballari Central Jail, Jail Road, Ballari, Bellary taluk, Bellary district, Karnataka, 583101, India",
            "locType": "prison",
            "longitude": "76.9253840594437"
        },
        "cubbon park": {
            "closest_to": "kanakapura",
            "latitude": "12.9808487",
            "blogLinks": [
                "https://www.tripoto.com/places-to-visit/india/bangalore",
                "http://www.mapsofindia.com/karnataka/tourism/",
                "https://www.tripoto.com/travel-guide/bangalore/places-to-visit"
            ],
            "address": "Cubbon Park, Cubbon Road, Tasker Town, Shivajinagar, Bengaluru, Bangalore Urban, Karnataka, 560001, India",
            "locType": "station",
            "longitude": "77.5977565"
        },
        "bhadra river": {
            "closest_to": "kanakapura",
            "latitude": "13.4888356",
            "blogLinks": [
                "https://en.wikipedia.org/wiki/Tourism_in_Karnataka"
            ],
            "address": "Bhadra, Chikkamagaluru taluku, Chikkamagaluru district, Karnataka, India",
            "locType": "river",
            "longitude": "75.527118"
        },
        "hal museum": {
            "closest_to": "kanakapura",
            "latitude": "12.955129",
            "blogLinks": [
                "https://www.tripoto.com/travel-guide/bangalore/places-to-visit"
            ],
            "address": "HAL Aerospace Museum, Varthur Road, Ananda Nagara, Marathahalli, Bengaluru, Bangalore Urban, Karnataka, 560001, India",
            "locType": "museum",
            "longitude": "77.6807403"
        },
        "mallikarjuna": {
            "closest_to": "bellary",
            "latitude": "17.8106693",
            "blogLinks": [
                "https://en.wikipedia.org/wiki/Tourism_in_Karnataka"
            ],
            "address": "Mallikarjuna Vadi, Basavakalyana taluku, Bidar district, Karnataka, India",
            "locType": "village",
            "longitude": "77.0590502"
        },
        "chitradurga": {
            "closest_to": "kanakapura",
            "latitude": "14.2266443",
            "blogLinks": [
                "https://en.wikipedia.org/wiki/Tourism_in_Karnataka",
                "https://en.wikipedia.org/wiki/Bellary",
                "http://www.mapsofindia.com/maps/karnataka/"
            ],
            "address": "Chitradurga, Chitradurga taluku, Chitradurga district, Karnataka, 577500, India",
            "locType": "town",
            "longitude": "76.4005122"
        },
        "kannada": {
            "closest_to": "kanakapura",
            "latitude": "12.8114089",
            "blogLinks": [
                "https://www.quora.com/What-are-some-good-places-to-visit-near-bangalore-for-a-one-two-day-trip",
                "https://en.wikipedia.org/wiki/Bellary",
                "http://harishoutings.blogspot.com/2008/07/sangam-mekedatu-and-chunchi-falls.html",
                "https://www.quora.com/What-are-the-best-weekend-road-trips-from-Bangalore"
            ],
            "address": "Dakshina Kannada, Karnataka, India",
            "locType": "administrative",
            "longitude": "75.1008028650794"
        },
        "malnad": {
            "closest_to": "kanakapura",
            "latitude": "13.3160351",
            "blogLinks": [
                "https://www.quora.com/What-are-the-best-weekend-road-trips-from-Bangalore"
            ],
            "address": "Malnad Hospital, Mudigere-Kadur Road, Chikkamagaluru, Chikkamagaluru taluku, Chikkamagaluru district, Karnataka, 577101, India",
            "locType": "hospital",
            "longitude": "75.7715495"
        },
        "dharwad": {
            "closest_to": "bellary",
            "latitude": "15.4540505",
            "blogLinks": [
                "https://en.wikipedia.org/wiki/Tourism_in_Karnataka",
                "http://www.mapsofindia.com/maps/karnataka/"
            ],
            "address": "Dharwad, Dharawada taluku, Dharwad district, Karnataka, 580001, India",
            "locType": "city",
            "longitude": "75.0066516"
        },
        "manchanabele": {
            "closest_to": "kanakapura",
            "latitude": "12.8668921",
            "blogLinks": [
                "https://www.quora.com/What-are-some-good-places-to-visit-near-bangalore-for-a-one-two-day-trip",
                "https://www.quora.com/What-are-the-best-weekend-road-trips-from-Bangalore"
            ],
            "address": "Manchanabele, Magadi taluku, Ramanagara district, Karnataka, India",
            "locType": "village",
            "longitude": "77.3344212"
        },
        "sakleshpur": {
            "closest_to": "kanakapura",
            "latitude": "12.9434349",
            "blogLinks": [
                "https://www.quora.com/What-are-the-best-weekend-road-trips-from-Bangalore"
            ],
            "address": "Sakaleshpura, Sakaleshapura taluk, Hassan district, Karnataka, 573134, India",
            "locType": "town",
            "longitude": "75.7862318"
        },
        "bmc": {
            "closest_to": "kanakapura",
            "latitude": "15.15578195",
            "blogLinks": [
                "https://www.quora.com/What-are-some-good-places-to-visit-near-bangalore-for-a-one-two-day-trip"
            ],
            "address": "Basaveshwara Medical Center, Basaveshwara Nagar 1st Cross, Ballari, Bellary taluk, Bellary district, Karnataka, 583103, India",
            "locType": "yes",
            "longitude": "76.9436322232617"
        },
        "nandi hills": {
            "closest_to": "kanakapura",
            "latitude": "13.268142",
            "blogLinks": [
                "https://www.quora.com/What-are-some-good-places-to-visit-near-bangalore-for-a-one-two-day-trip",
                "http://www.mapsofindia.com/karnataka/tourism/",
                "https://www.quora.com/What-are-the-best-weekend-road-trips-from-Bangalore"
            ],
            "address": "Nandi Upahara, Nandhi Hills Road, Kottige Thimmanahalli, Devanahalli taluk, Bangalore Rural, Karnataka, India",
            "locType": "hotel",
            "longitude": "77.7194741670394"
        },
        "belur": {
            "closest_to": "kanakapura",
            "latitude": "13.1645671",
            "blogLinks": [
                "http://www.mapsofindia.com/karnataka/tourism/"
            ],
            "address": "Belur, Beluru taluk, Hassan district, Karnataka, 573115, India",
            "locType": "town",
            "longitude": "75.8634851"
        },
        "coorg": {
            "closest_to": "kanakapura",
            "latitude": "12.4204003",
            "blogLinks": [
                "https://www.quora.com/What-are-some-good-places-to-visit-near-bangalore-for-a-one-two-day-trip"
            ],
            "address": "Madikeri, Madikeri taluku, Kodagu, Karnataka, India",
            "locType": "town",
            "longitude": "75.740031"
        },
        "kurnool": {
            "closest_to": "bellary",
            "latitude": "15.9394081",
            "blogLinks": [
                "https://en.wikipedia.org/wiki/Bellary"
            ],
            "address": "Karnataka Guest House, Jadcherla - Hagari Road, Kurnool, Andhra Pradesh, India",
            "locType": "hotel",
            "longitude": "77.4217916"
        },
        "bangalore-mangalore highway": {
            "closest_to": "kanakapura",
            "latitude": "12.9699132",
            "blogLinks": [
                "https://www.quora.com/What-are-the-best-weekend-road-trips-from-Bangalore"
            ],
            "address": "Bangalore Mangalore Highway, Irubanahalli, Nagamangala taluk, Mandya district, Karnataka, India",
            "locType": "trunk",
            "longitude": "76.7990601"
        },
        "banashankari temple": {
            "closest_to": "kanakapura",
            "latitude": "12.91568785",
            "blogLinks": [
                "https://en.wikipedia.org/wiki/Tourism_in_Karnataka"
            ],
            "address": "Banashankari Temple, Kanakapura Road, JP Nagar 1st Phase, Kaderenahalli, Bengaluru, Bangalore Urban, Karnataka, 560001, India",
            "locType": "place_of_worship",
            "longitude": "77.5731752886765"
        },
        "lucknow": {
            "closest_to": "kanakapura",
            "latitude": "13.0367811",
            "blogLinks": [
                "http://www.thrillophilia.com/blog/20-places-you-need-to-visit-in-india-with-your-best-friend/"
            ],
            "address": "Via Lucknow, New BEL Road, Dollar Colony, Raj Mahal Vilas, Jaladarshini Layout, Bangalore Urban, Karnataka, 560094, India",
            "locType": "restaurant",
            "longitude": "77.5660503"
        },
        "chunchi falls": {
            "closest_to": "kanakapura",
            "latitude": "12.3515083",
            "blogLinks": [
                "https://www.tripoto.com/places-to-visit/india/bangalore"
            ],
            "address": "Chunchi Falls, Kanakapura taluk, Ramanagara district, Karnataka, India",
            "locType": "waterfall",
            "longitude": "77.4459464"
        },
        "windsor": {
            "closest_to": "kanakapura",
            "latitude": "12.9698614",
            "blogLinks": [
                "https://www.tripoto.com/travel-guide/bangalore/places-to-visit"
            ],
            "address": "Windsor, 12th Main Road, HAL 2nd Stage, Indiranagar, Bengaluru, Bangalore Urban, Karnataka, 560001, India",
            "locType": "pub",
            "longitude": "77.6392137"
        },
        "kannur": {
            "closest_to": "kanakapura",
            "latitude": "12.8487602",
            "blogLinks": [
                "http://www.thrillophilia.com/blog/20-places-you-need-to-visit-in-india-with-your-best-friend/"
            ],
            "address": "Netravati bridge - Kannur Bypass Road (Proposed), Padil, Bajal, Mangaluru taluk, Dakshina Kannada, Karnataka, 575007, India",
            "locType": "construction",
            "longitude": "74.8858161"
        },
        "kotilingeshwara": {
            "closest_to": "kanakapura",
            "latitude": "12.99473275",
            "blogLinks": [
                "https://www.thrillophilia.com/resorts-around-bangalore"
            ],
            "address": "Kotilingeshwara Temple, SH95, Robertsonpet, Pichchahalli, Bangarapet taluk, Kolar district, Karnataka, 563122, India",
            "locType": "place_of_worship",
            "longitude": "78.2953283564827"
        },
        "maharashtra": {
            "closest_to": "kanakapura",
            "latitude": "12.9049455",
            "blogLinks": [
                "https://en.wikipedia.org/wiki/Tourism_in_Karnataka",
                "http://www.mapsofindia.com/maps/karnataka/",
                "https://en.wikipedia.org/wiki/Bellary",
                "http://www.thrillophilia.com/blog/20-places-you-need-to-visit-in-india-with-your-best-friend/",
                "https://www.tripoto.com/travel-guide/bangalore/places-to-visit"
            ],
            "address": "Bank of Maharashtra, 24th Main, K R Layout, Puttenahalli, Bengaluru, Bangalore Urban, Karnataka, 560001, India",
            "locType": "bank",
            "longitude": "77.5856013"
        },
        "bandaje falls": {
            "closest_to": "kanakapura",
            "latitude": "13.0801279",
            "blogLinks": [
                "https://www.quora.com/What-are-some-good-places-to-visit-near-bangalore-for-a-one-two-day-trip",
                "https://www.quora.com/What-are-the-best-weekend-road-trips-from-Bangalore"
            ],
            "address": "Bandaje to Bandaje falls, Bangadi, Beltangadi taluk, Dakshina Kannada, Karnataka, 574290, India",
            "locType": "track",
            "longitude": "75.3809448"
        },
        "venkatappa art gallery": {
            "closest_to": "kanakapura",
            "latitude": "12.9742592",
            "blogLinks": [
                "http://www.mapsofindia.com/karnataka/tourism/"
            ],
            "address": "Venkatappa Art Gallery, Kasturba Road, Shantala Nagar, MacIvor Town, Bengaluru, Bangalore Urban, Karnataka, 560001, India",
            "locType": "museum",
            "longitude": "77.5952077"
        },
        "hoysaleswara temple": {
            "closest_to": "kanakapura",
            "latitude": "13.2127193",
            "blogLinks": [
                "http://www.mapsofindia.com/karnataka/tourism/"
            ],
            "address": "Hoysaleswara Temple, SH21, Halebidu, Beluru taluk, Hassan district, Karnataka, 573121, India",
            "locType": "place_of_worship",
            "longitude": "75.9941649"
        },
        "ulsoor lake": {
            "closest_to": "kanakapura",
            "latitude": "12.9823891",
            "blogLinks": [
                "http://www.mapsofindia.com/karnataka/tourism/",
                "https://www.tripoto.com/travel-guide/bangalore/places-to-visit"
            ],
            "address": "Halasuru lake, Annaswamy Mudaliar Road, Kothandram Layout, Halasuru, Bengaluru, Bangalore Urban, Karnataka, 560001, India",
            "locType": "water",
            "longitude": "77.6191669052984"
        },
        "rock garden": {
            "closest_to": "kanakapura",
            "latitude": "12.2248591",
            "blogLinks": [
                "https://en.wikipedia.org/wiki/Tourism_in_Karnataka"
            ],
            "address": "Waterfalls by the Rock site, Madikeri taluku, Kodagu, Karnataka, India",
            "locType": "waterfall",
            "longitude": "75.6142269"
        },
        "mysore": {
            "closest_to": "kanakapura",
            "latitude": "12.3051828",
            "blogLinks": [
                "https://www.tripoto.com/travel-guide/bangalore/places-to-visit",
                "https://www.quora.com/What-are-some-good-places-to-visit-near-bangalore-for-a-one-two-day-trip",
                "https://www.quora.com/What-are-the-best-weekend-road-trips-from-Bangalore"
            ],
            "address": "Mysuru, Mysuru taluk, Mysuru district, Karnataka, 570001, India",
            "locType": "city",
            "longitude": "76.6553609"
        },
        "kanakapura taluk": {
            "closest_to": "kanakapura",
            "latitude": "12.5199223",
            "blogLinks": [
                "https://en.wikipedia.org/wiki/Kanakapura",
                "https://www.quora.com/What-are-some-good-places-to-visit-near-bangalore-for-a-one-two-day-trip",
                "https://www.quora.com/What-are-the-best-weekend-road-trips-from-Bangalore"
            ],
            "address": "Kanakapura taluk, Ramanagara district, Karnataka, India",
            "locType": "administrative",
            "longitude": "77.4224204245398"
        },
        "ramanagar district": {
            "closest_to": "kanakapura",
            "latitude": "12.649356",
            "blogLinks": [
                "https://www.tripoto.com/places-to-visit/india/bangalore"
            ],
            "address": "Ramanagar-Kanakapura Road, Avverahalli, Ramanagara taluk, Ramanagara district, Karnataka, 562159, India",
            "locType": "primary",
            "longitude": "77.3418018"
        },
        "karnataka state": {
            "closest_to": "kanakapura",
            "latitude": "12.315382",
            "blogLinks": [
                "http://www.indiatravelblog.com/resources/3597-Visiting-Places-Sandur-Bellary-Karnataka.aspx"
            ],
            "address": "Karnataka State Open University, \u0cb9\u0cc1\u0ca3\u0cb8\u0cc2\u0cb0\u0cc1 \u0cb0\u0cb8\u0ccd\u0ca4\u0cc6, Gokulam, Mysuru, Mysuru taluk, Mysuru district, Karnataka, 570001, India",
            "locType": "university",
            "longitude": "76.6236231"
        },
        "narasimha swamy temple": {
            "closest_to": "kanakapura",
            "latitude": "13.0943931",
            "blogLinks": [
                "https://en.wikipedia.org/wiki/Tourism_in_Karnataka"
            ],
            "address": "Narasimha Swamy Temple, Attavara Mudigere Road, Attavara, Hasana taluk, Hassan district, Karnataka, India",
            "locType": "place_of_worship",
            "longitude": "76.2427318"
        },
        "outer ring road": {
            "closest_to": "kanakapura",
            "latitude": "12.9210769",
            "blogLinks": [
                "https://www.tripoto.com/places-to-visit/india/bangalore",
                "https://www.tripoto.com/travel-guide/bangalore/places-to-visit"
            ],
            "address": "Outer Ring Road, Green Glen Layout, Iblur, Bengaluru, Bangalore Urban, Karnataka, 560001, India",
            "locType": "trunk",
            "longitude": "77.6632088"
        },
        "gujarat": {
            "closest_to": "bellary",
            "latitude": "15.3595169",
            "blogLinks": [
                "http://www.thrillophilia.com/blog/20-places-you-need-to-visit-in-india-with-your-best-friend/"
            ],
            "address": "Gujarat Bhavan, Casualty and Emergency, Ashok Nagar, Vidyanagar, Hubballi - \u0cb9\u0cc1\u0cac\u0ccd\u0cac\u0cb3\u0ccd\u0cb3\u0cbf, Hubballi taluku, Dharwad district, Karnataka, 580020, India",
            "locType": "yes",
            "longitude": "75.1370469"
        },
        "kanakapura": {
            "closest_to": "kanakapura",
            "latitude": "12.5450268",
            "blogLinks": [
                "https://en.wikipedia.org/wiki/Kanakapura",
                "https://www.quora.com/What-are-some-good-places-to-visit-near-bangalore-for-a-one-two-day-trip",
                "https://www.tripoto.com/travel-guide/kanakapura/trips",
                "https://en.wikipedia.org/wiki/Bellary",
                "https://www.thrillophilia.com/resorts-around-bangalore",
                "https://www.quora.com/What-are-the-best-weekend-road-trips-from-Bangalore"
            ],
            "address": "Kanakapura, Kanakapura taluk, Ramanagara district, Karnataka, 562117, India",
            "locType": "town",
            "longitude": "77.4199095"
        },
        "anantapur": {
            "closest_to": "kanakapura",
            "latitude": "13.7972948",
            "blogLinks": [
                "https://en.wikipedia.org/wiki/Bellary"
            ],
            "address": "RTO Karnataka, Srinagar - Kanyakumari Highway, Paragodu, Bagepalli taluk, Chikkaballapura district, Karnataka, 561207, India",
            "locType": "yes",
            "longitude": "77.7596024"
        },
        "sangam": {
            "closest_to": "kanakapura",
            "latitude": "12.9718928",
            "blogLinks": [
                "http://harishoutings.blogspot.com/2008/07/sangam-mekedatu-and-chunchi-falls.html"
            ],
            "address": "Sangam, FM Cariappa Road (Residency Road), Shantala Nagar, MacIvor Town, Bengaluru, Bangalore Urban, Karnataka, 560001, India",
            "locType": "restaurant",
            "longitude": "77.6065672"
        },
        "jindal vijaynagar airport": {
            "closest_to": "kanakapura",
            "latitude": "15.1743056",
            "blogLinks": [
                "https://en.wikipedia.org/wiki/Bellary"
            ],
            "address": "Jindal Vijaynagar Airport, Kudligi Road, Vaddu, Sanduru taluk, Bellary district, Karnataka, 583123, India",
            "locType": "aerodrome",
            "longitude": "76.6334746"
        },
        "hadagali": {
            "closest_to": "bellary",
            "latitude": "16.8109502",
            "blogLinks": [
                "https://en.wikipedia.org/wiki/Bellary"
            ],
            "address": "Hadagali, Vijayapura taluk, Bijapur district, Karnataka, India",
            "locType": "village",
            "longitude": "75.9370122"
        },
        "frazer town": {
            "closest_to": "kanakapura",
            "latitude": "12.996845",
            "blogLinks": [
                "https://www.quora.com/What-are-some-good-places-to-visit-near-bangalore-for-a-one-two-day-trip"
            ],
            "address": "Frazer Town, Bengaluru, Bangalore Urban, Karnataka, 560001, India",
            "locType": "suburb",
            "longitude": "77.6130165"
        },
        "andhra": {
            "closest_to": "kanakapura",
            "latitude": "13.6841958",
            "blogLinks": [
                "https://www.quora.com/What-are-some-good-places-to-visit-near-bangalore-for-a-one-two-day-trip",
                "https://www.quora.com/What-are-the-best-weekend-road-trips-from-Bangalore"
            ],
            "address": "Karnataka, West Mada Street, Srivari Temple, Tirumala, Chittoor, Andhra Pradesh, 517504, India",
            "locType": "hotel",
            "longitude": "79.3452447"
        },
        "anegundi": {
            "closest_to": "bellary",
            "latitude": "15.3509583",
            "blogLinks": [
                "https://en.wikipedia.org/wiki/Tourism_in_Karnataka"
            ],
            "address": "Anegundi, Gangavati taluku, Koppal district, Karnataka, India",
            "locType": "village",
            "longitude": "76.4924232"
        },
        "kerala": {
            "closest_to": "kanakapura",
            "latitude": "12.9726449",
            "blogLinks": [
                "http://www.thrillophilia.com/blog/20-places-you-need-to-visit-in-india-with-your-best-friend/",
                "https://www.quora.com/What-are-some-good-places-to-visit-near-bangalore-for-a-one-two-day-trip",
                "https://www.tripoto.com/places-to-visit/india/bangalore",
                "http://www.indiatravelblog.com/resources/3597-Visiting-Places-Sandur-Bellary-Karnataka.aspx",
                "https://www.quora.com/What-are-the-best-weekend-road-trips-from-Bangalore",
                "http://www.mapsofindia.com/maps/karnataka/"
            ],
            "address": "New Life Kerala Mess, Sai Baba Mandira Road, Mottappanapalaya, Indiranagar, Bengaluru, Bangalore Urban, Karnataka, 560001, India",
            "locType": "restaurant",
            "longitude": "77.6382683"
        },
        "delhi": {
            "closest_to": "kanakapura",
            "latitude": "12.9212473",
            "blogLinks": [
                "https://en.wikipedia.org/wiki/Bellary",
                "http://www.thrillophilia.com/blog/20-places-you-need-to-visit-in-india-with-your-best-friend/"
            ],
            "address": "Outer Ring Road, Green Glen Layout, Iblur, Bengaluru, Bangalore Urban, Karnataka, 560001, India",
            "locType": "trunk",
            "longitude": "77.6666062"
        },
        "belgaum district": {
            "closest_to": "bellary",
            "latitude": "16.1631253",
            "blogLinks": [
                "http://www.indiatravelblog.com/resources/3597-Visiting-Places-Sandur-Bellary-Karnataka.aspx"
            ],
            "address": "Belgaum district, Karnataka, India",
            "locType": "administrative",
            "longitude": "74.8896592460527"
        },
        "kr hills": {
            "closest_to": "kanakapura",
            "latitude": "12.9069945",
            "blogLinks": [
                "http://www.indiatravelblog.com/resources/3597-Visiting-Places-Sandur-Bellary-Karnataka.aspx"
            ],
            "address": "KR Hospital, Dr. Vishnuvardhan Road, Seven Hills Layout, Chikkalasandra, Bengaluru, Bangalore Urban, Karnataka, 560001, India",
            "locType": "bus_stop",
            "longitude": "77.5461096"
        },
        "mount abu": {
            "closest_to": "kanakapura",
            "latitude": "12.9429538",
            "blogLinks": [
                "http://www.thrillophilia.com/blog/20-places-you-need-to-visit-in-india-with-your-best-friend/"
            ],
            "address": "Masjid Abu Bakr (RAA), 3rd Cross Road, Pukraj Layout, Someshwaranagar, Bengaluru, Bangalore Urban, Karnataka, 560001, India",
            "locType": "place_of_worship",
            "longitude": "77.5927317"
        },
        "beluru": {
            "closest_to": "kanakapura",
            "latitude": "13.1645671",
            "blogLinks": [
                "https://en.wikipedia.org/wiki/Tourism_in_Karnataka"
            ],
            "address": "Belur, Beluru taluk, Hassan district, Karnataka, 573115, India",
            "locType": "town",
            "longitude": "75.8634851"
        },
        "badami": {
            "closest_to": "bellary",
            "latitude": "15.9203874",
            "blogLinks": [
                "https://en.wikipedia.org/wiki/Tourism_in_Karnataka"
            ],
            "address": "Badami, Badami taluku, Bagalkote district, Karnataka, 587200, India",
            "locType": "town",
            "longitude": "75.6807865"
        },
        "lalbagh botanical gardens": {
            "closest_to": "kanakapura",
            "latitude": "12.9489367",
            "blogLinks": [
                "https://www.tripoto.com/places-to-visit/india/bangalore",
                "https://www.tripoto.com/travel-guide/bangalore/places-to-visit"
            ],
            "address": "Lalbagh Botanical Gardens, Siddapura Road, Mavalli, Someshwaranagar, Bengaluru, Bangalore Urban, Karnataka, 560001, India",
            "locType": "attraction",
            "longitude": "77.5869868789796"
        },
        "kodachadri": {
            "closest_to": "bellary",
            "latitude": "13.8565758",
            "blogLinks": [
                "https://en.wikipedia.org/wiki/Tourism_in_Karnataka"
            ],
            "address": "Kodachadri, \u0c95\u0cc1\u0c82\u0ca6\u0cbe\u0caa\u0cc1\u0cb0 \u0ca4\u0cbe\u0cb2\u0cc2\u0c95\u0cc1, Udupi district, Karnataka, India",
            "locType": "peak",
            "longitude": "74.8705395"
        },
        "andhra pradesh": {
            "closest_to": "kanakapura",
            "latitude": "13.6841958",
            "blogLinks": [
                "http://www.thrillophilia.com/blog/20-places-you-need-to-visit-in-india-with-your-best-friend/",
                "https://www.tripoto.com/travel-guide/bangalore/places-to-visit",
                "https://www.quora.com/What-are-some-good-places-to-visit-near-bangalore-for-a-one-two-day-trip",
                "https://en.wikipedia.org/wiki/Bellary",
                "https://www.quora.com/What-are-the-best-weekend-road-trips-from-Bangalore",
                "http://www.mapsofindia.com/maps/karnataka/"
            ],
            "address": "Karnataka, West Mada Street, Srivari Temple, Tirumala, Chittoor, Andhra Pradesh, 517504, India",
            "locType": "hotel",
            "longitude": "79.3452447"
        },
        "chittoor district": {
            "closest_to": "kanakapura",
            "latitude": "13.1560277",
            "blogLinks": [
                "https://www.quora.com/What-are-some-good-places-to-visit-near-bangalore-for-a-one-two-day-trip"
            ],
            "address": "Bangalore-Chittoor road, Mulabagilu, Mulubagilu taluk, Kolar district, Karnataka, 563131, India",
            "locType": "trunk",
            "longitude": "78.4044091"
        },
        "manjusha museum": {
            "closest_to": "kanakapura",
            "latitude": "12.95116975",
            "blogLinks": [
                "https://en.wikipedia.org/wiki/Tourism_in_Karnataka"
            ],
            "address": "Manjusha Museum, SH37, Dharmasthala, Beltangadi taluk, Dakshina Kannada, Karnataka, 574216, India",
            "locType": "museum",
            "longitude": "75.3821342838196"
        },
        "south karnataka": {
            "closest_to": "kanakapura",
            "latitude": "13.2942848",
            "blogLinks": [
                "https://en.wikipedia.org/wiki/Tourism_in_Karnataka"
            ],
            "address": "s, Vijayapura, Devanahalli taluk, Bangalore Rural, Karnataka, 562135, India",
            "locType": "residential",
            "longitude": "77.8040874"
        },
        "dharma river": {
            "closest_to": "kanakapura",
            "latitude": "12.98914885",
            "blogLinks": [
                "https://en.wikipedia.org/wiki/Tourism_in_Karnataka"
            ],
            "address": "Dharma Naidu Udhyanavana, 44th cross, Rajajinagar 4th Block, Rajaji Nagar, Bengaluru, Bangalore Urban, Karnataka, 560001, India",
            "locType": "park",
            "longitude": "77.5575864485219"
        },
        "tumkur road": {
            "closest_to": "kanakapura",
            "latitude": "13.0311896",
            "blogLinks": [
                "https://www.tripoto.com/places-to-visit/india/bangalore",
                "https://www.thrillophilia.com/resorts-around-bangalore",
                "https://www.tripoto.com/travel-guide/bangalore/places-to-visit"
            ],
            "address": "Tumkur Road, Goragunte Palya, Peenya, Bengaluru, Bangalore Urban, Karnataka, 560001, India",
            "locType": "trunk",
            "longitude": "77.5360458"
        },
        "kolkata": {
            "closest_to": "kanakapura",
            "latitude": "12.9845159",
            "blogLinks": [
                "http://www.thrillophilia.com/blog/20-places-you-need-to-visit-in-india-with-your-best-friend/"
            ],
            "address": "Kolkata Biryani And Rolls, 1st Main Basaveshwaranagar, Rajajinagar 3rd Block, Dasarahalli, Bengaluru, Bangalore Urban, Karnataka, 560010, India",
            "locType": "restaurant",
            "longitude": "77.5478044"
        },
        "bagalkot district": {
            "closest_to": "bellary",
            "latitude": "16.1853166",
            "blogLinks": [
                "https://en.wikipedia.org/wiki/Tourism_in_Karnataka"
            ],
            "address": "Bagalakote, Bagalakote taluk, Bagalkote district, Karnataka, India",
            "locType": "city",
            "longitude": "75.6967919"
        },
        "tibet": {
            "closest_to": "kanakapura",
            "latitude": "12.9722398",
            "blogLinks": [
                "http://www.thrillophilia.com/blog/20-places-you-need-to-visit-in-india-with-your-best-friend/"
            ],
            "address": "Tibet Bazaar, Brigade Road, Tasker Town, Ashok Nagar, Bengaluru, Bangalore Urban, Karnataka, 560001, India",
            "locType": "supermarket",
            "longitude": "77.6068828"
        },
        "gulbarga": {
            "closest_to": "bellary",
            "latitude": "17.166667",
            "blogLinks": [
                "https://en.wikipedia.org/wiki/Tourism_in_Karnataka",
                "http://www.mapsofindia.com/maps/karnataka/"
            ],
            "address": "Kalaburgi, Kalaburagi district, Karnataka, India",
            "locType": "county",
            "longitude": "77.083333"
        },
        "state highway": {
            "closest_to": "kanakapura",
            "latitude": "13.0330479",
            "blogLinks": [
                "http://www.indiatravelblog.com/resources/3597-Visiting-Places-Sandur-Bellary-Karnataka.aspx"
            ],
            "address": "Karnataka Bank, Mount Poonamallee Highway, Sri Laxmi Nagar, Ramapuram, Chennai City Corporation Limits, Kanchipuram, Thiruvallur district, Tamil Nadu, 600125, India",
            "locType": "atm",
            "longitude": "80.161486"
        },
        "pattadakal": {
            "closest_to": "bellary",
            "latitude": "15.9506349",
            "blogLinks": [
                "https://en.wikipedia.org/wiki/Tourism_in_Karnataka",
                "http://www.mapsofindia.com/karnataka/tourism/"
            ],
            "address": "Pattadakal Temples, SH14, \u0cac\u0cbe\u0c9a\u0cbf\u0ca8\u0c97\u0cc1\u0ca1\u0ccd\u0ca1, Badami taluku, Bagalkote district, Karnataka, 587211, India",
            "locType": "attraction",
            "longitude": "75.815884048161"
        },
        "black lake": {
            "closest_to": "kanakapura",
            "latitude": "12.9698964",
            "blogLinks": [
                "https://en.wikipedia.org/wiki/Bellary"
            ],
            "address": "The Black Rabbit, 100 Feet Road( S K Karim Khan Road), Appareddipalaya, Indiranagar, Bengaluru, Bangalore Urban, Karnataka, 560001, India",
            "locType": "bar",
            "longitude": "77.6411436"
        },
        "mysore district": {
            "closest_to": "kanakapura",
            "latitude": "12.3051828",
            "blogLinks": [
                "https://en.wikipedia.org/wiki/Tourism_in_Karnataka"
            ],
            "address": "Mysuru, Mysuru taluk, Mysuru district, Karnataka, 570001, India",
            "locType": "city",
            "longitude": "76.6553609"
        },
        "west bengal": {
            "closest_to": "kanakapura",
            "latitude": "13.0492646",
            "blogLinks": [
                "http://www.thrillophilia.com/blog/20-places-you-need-to-visit-in-india-with-your-best-friend/"
            ],
            "address": "Bengal Lamps, Konadasapura, Bangalore Urban, Karnataka, 560066, India",
            "locType": "industrial",
            "longitude": "77.7517038151245"
        },
        "ranganathittu bird sanctuary": {
            "closest_to": "kanakapura",
            "latitude": "12.4238524",
            "blogLinks": [
                "https://en.wikipedia.org/wiki/Tourism_in_Karnataka"
            ],
            "address": "Ranganathittu Bird Sanctuary, SH154, Palahalli, Srirangapattana taluk, Mandya district, Karnataka, 571438, India",
            "locType": "attraction",
            "longitude": "76.6553081"
        },
        "ballari district": {
            "closest_to": "kanakapura",
            "latitude": "15.1467299",
            "blogLinks": [
                "https://en.wikipedia.org/wiki/Bellary"
            ],
            "address": "Ballari, Bellary taluk, Bellary district, Karnataka, India",
            "locType": "city",
            "longitude": "76.9125211"
        },
        "sai baba": {
            "closest_to": "kanakapura",
            "latitude": "12.9698115",
            "blogLinks": [
                "https://www.tripoto.com/travel-guide/bangalore/places-to-visit"
            ],
            "address": "Sai Baba Mandira Road, Cambridge Layout, Halasuru, Bengaluru, Bangalore Urban, Karnataka, 560001, India",
            "locType": "tertiary",
            "longitude": "77.6307903"
        },
        "shivanasamudra": {
            "closest_to": "kanakapura",
            "latitude": "12.2719056",
            "blogLinks": [
                "https://en.wikipedia.org/wiki/Tourism_in_Karnataka"
            ],
            "address": "Shivanasamudra, Kollegala taluk, Chamarajanagar district, Karnataka, India",
            "locType": "village",
            "longitude": "77.1703215"
        },
        "lalbagh rock": {
            "closest_to": "kanakapura",
            "latitude": "12.94871895",
            "blogLinks": [
                "https://www.tripoto.com/places-to-visit/india/bangalore",
                "https://www.tripoto.com/travel-guide/bangalore/places-to-visit"
            ],
            "address": "Lalbagh Rock, Siddapura Road, Mavalli, Someshwaranagar, Bengaluru, Bangalore Urban, Karnataka, 560001, India",
            "locType": "bare_rock",
            "longitude": "77.5892075522266"
        },
        "golden woods": {
            "closest_to": "kanakapura",
            "latitude": "12.90951585",
            "blogLinks": [
                "https://www.quora.com/What-are-some-good-places-to-visit-near-bangalore-for-a-one-two-day-trip"
            ],
            "address": "Golden Woods Row Houses, Iblur, Doddakannelli, Bangalore Urban, Karnataka, 560035, India",
            "locType": "residential",
            "longitude": "77.6745001421117"
        },
        "samse": {
            "closest_to": "kanakapura",
            "latitude": "13.1894244",
            "blogLinks": [
                "https://www.quora.com/What-are-some-good-places-to-visit-near-bangalore-for-a-one-two-day-trip",
                "https://www.quora.com/What-are-the-best-weekend-road-trips-from-Bangalore"
            ],
            "address": "Samse, Mudigere taluk, Chikkamagaluru district, Karnataka, India",
            "locType": "village",
            "longitude": "75.3332678"
        },
        "shirdi": {
            "closest_to": "bellary",
            "latitude": "15.3748524",
            "blogLinks": [
                "https://www.quora.com/What-are-some-good-places-to-visit-near-bangalore-for-a-one-two-day-trip"
            ],
            "address": "Shirdi Saibaba Temple, Nrupathunga Betta Road, Shakti Colony, Vishweshwara Nagar, Hubballi - \u0cb9\u0cc1\u0cac\u0ccd\u0cac\u0cb3\u0ccd\u0cb3\u0cbf, Hubballi taluku, Dharwad district, Karnataka, 580020, India",
            "locType": "place_of_worship",
            "longitude": "75.1271532"
        },
        "chikkaballapur": {
            "closest_to": "kanakapura",
            "latitude": "13.4352549",
            "blogLinks": [
                "http://www.mapsofindia.com/maps/karnataka/"
            ],
            "address": "Chikkaballapura, Chikkaballapura taluk, Chikkaballapura district, Karnataka, 562101, India",
            "locType": "town",
            "longitude": "77.7306866"
        },
        "india": {
            "closest_to": "kanakapura",
            "latitude": "14.5203896",
            "blogLinks": [
                "https://en.wikipedia.org/wiki/Kanakapura",
                "http://www.thrillophilia.com/blog/20-places-you-need-to-visit-in-india-with-your-best-friend/",
                "https://www.tripoto.com/travel-guide/bangalore/places-to-visit",
                "http://distancecalculator.globefeed.com/India_Distance_Calculator.asp?state=19",
                "https://www.quora.com/What-are-some-good-places-to-visit-near-bangalore-for-a-one-two-day-trip",
                "https://www.tripoto.com/places-to-visit/india/bangalore",
                "https://en.wikipedia.org/wiki/Bellary",
                "https://www.thrillophilia.com/resorts-around-bangalore",
                "http://www.indiatravelblog.com/resources/3597-Visiting-Places-Sandur-Bellary-Karnataka.aspx",
                "https://www.quora.com/What-are-the-best-weekend-road-trips-from-Bangalore",
                "https://en.wikipedia.org/wiki/Tourism_in_Karnataka",
                "http://www.mapsofindia.com/karnataka/tourism/",
                "http://www.mapsofindia.com/maps/karnataka/"
            ],
            "address": "Karnataka, India",
            "locType": "administrative",
            "longitude": "75.7223521"
        },
        "hassan district": {
            "closest_to": "kanakapura",
            "latitude": "13.0315068",
            "blogLinks": [
                "https://en.wikipedia.org/wiki/Tourism_in_Karnataka"
            ],
            "address": "Hassan district, Karnataka, India",
            "locType": "administrative",
            "longitude": "76.1745460751981"
        },
        "thippagondanahalli": {
            "closest_to": "kanakapura",
            "latitude": "13.9900134",
            "blogLinks": [
                "https://www.quora.com/What-are-some-good-places-to-visit-near-bangalore-for-a-one-two-day-trip"
            ],
            "address": "Thippagondanahalli, Channagiri taluku, Davanagere district, Karnataka, India",
            "locType": "village",
            "longitude": "75.9468344"
        },
        "venkateshwara temple": {
            "closest_to": "kanakapura",
            "latitude": "12.9167091",
            "blogLinks": [
                "https://www.tripoto.com/places-to-visit/india/bangalore"
            ],
            "address": "Venkateshwara Temple, C J Venkatesa Das Road, Seven Hills Layout, Padmanabha Nagar, Bengaluru, Bangalore Urban, Karnataka, 560001, India",
            "locType": "place_of_worship",
            "longitude": "77.5588384"
        },
        "national park": {
            "closest_to": "kanakapura",
            "latitude": "12.77900335",
            "blogLinks": [
                "http://www.thrillophilia.com/blog/20-places-you-need-to-visit-in-india-with-your-best-friend/",
                "https://www.quora.com/What-are-the-best-weekend-road-trips-from-Bangalore"
            ],
            "address": "Bannerghatta National Park, Anekal Road, Begihalli, Bangalore Urban, Karnataka, 560076, India",
            "locType": "national_park",
            "longitude": "77.5722783830694"
        },
        "gokarna": {
            "closest_to": "bellary",
            "latitude": "14.5439629",
            "blogLinks": [
                "https://en.wikipedia.org/wiki/Tourism_in_Karnataka",
                "http://www.mapsofindia.com/karnataka/tourism/"
            ],
            "address": "Gokarna, Kumata taluk, Uttara Kannada, Karnataka, 581326, India",
            "locType": "town",
            "longitude": "74.3184418"
        },
        "srinagar": {
            "closest_to": "kanakapura",
            "latitude": "12.9438817",
            "blogLinks": [
                "https://www.tripoto.com/travel-guide/bangalore/places-to-visit"
            ],
            "address": "Srinagar, Bengaluru, Bangalore Urban, Karnataka, 560001, India",
            "locType": "suburb",
            "longitude": "77.5541768"
        },
        "belthangady": {
            "closest_to": "kanakapura",
            "latitude": "12.9899316",
            "blogLinks": [
                "https://www.quora.com/What-are-some-good-places-to-visit-near-bangalore-for-a-one-two-day-trip",
                "https://www.quora.com/What-are-the-best-weekend-road-trips-from-Bangalore"
            ],
            "address": "Government Model Primary School Belthangady, NH73, Guruvayankere, Beltangadi taluk, Dakshina Kannada, Karnataka, India",
            "locType": "school",
            "longitude": "75.2789924801603"
        },
        "gadag": {
            "closest_to": "bellary",
            "latitude": "15.4263647",
            "blogLinks": [
                "https://en.wikipedia.org/wiki/Tourism_in_Karnataka",
                "http://www.mapsofindia.com/maps/karnataka/"
            ],
            "address": "Gadag, Gadag taluk, Gadag district, Karnataka, 582101, India",
            "locType": "town",
            "longitude": "75.6300786"
        },
        "sagara": {
            "closest_to": "bellary",
            "latitude": "14.1666594",
            "blogLinks": [
                "https://en.wikipedia.org/wiki/Tourism_in_Karnataka"
            ],
            "address": "Sagara, Sagara taluk, Shimoga district, Karnataka, 577400, India",
            "locType": "town",
            "longitude": "75.0262551"
        },
        "sirigere": {
            "closest_to": "kanakapura",
            "latitude": "14.2840739",
            "blogLinks": [
                "https://en.wikipedia.org/wiki/Tourism_in_Karnataka"
            ],
            "address": "Sirigere, Chitradurga taluku, Chitradurga district, Karnataka, India",
            "locType": "village",
            "longitude": "76.2051907"
        },
        "ganjam": {
            "closest_to": "kanakapura",
            "latitude": "12.414365",
            "blogLinks": [
                "http://www.indiatravelblog.com/resources/3597-Visiting-Places-Sandur-Bellary-Karnataka.aspx"
            ],
            "address": "Ganjam, Srirangapattana taluk, Mandya district, Karnataka, India",
            "locType": "village",
            "longitude": "76.7059545"
        },
        "uttara kannada district": {
            "closest_to": "bellary",
            "latitude": "14.883333",
            "blogLinks": [
                "https://www.quora.com/What-are-some-good-places-to-visit-near-bangalore-for-a-one-two-day-trip",
                "https://www.quora.com/What-are-the-best-weekend-road-trips-from-Bangalore"
            ],
            "address": "Uttara Kannada, Karnataka, India",
            "locType": "county",
            "longitude": "74.583333"
        },
        "mysuru": {
            "closest_to": "kanakapura",
            "latitude": "12.3051828",
            "blogLinks": [
                "http://www.indiatravelblog.com/resources/3597-Visiting-Places-Sandur-Bellary-Karnataka.aspx"
            ],
            "address": "Mysuru, Mysuru taluk, Mysuru district, Karnataka, 570001, India",
            "locType": "city",
            "longitude": "76.6553609"
        },
        "nagareshwara": {
            "closest_to": "bellary",
            "latitude": "16.8662525",
            "blogLinks": [
                "https://en.wikipedia.org/wiki/Tourism_in_Karnataka"
            ],
            "address": "Nagareshwara Temple, SH126, Dantapur, Yadagiri taluku, Yadagiri district, Karnataka, India",
            "locType": "place_of_worship",
            "longitude": "77.3934679"
        },
        "sanganakallu": {
            "closest_to": "kanakapura",
            "latitude": "15.1738536",
            "blogLinks": [
                "https://en.wikipedia.org/wiki/Bellary"
            ],
            "address": "Sanganakallu, Bellary taluk, Bellary district, Karnataka, India",
            "locType": "village",
            "longitude": "76.9671823"
        },
        "kanakapura road": {
            "closest_to": "kanakapura",
            "latitude": "12.9064528",
            "blogLinks": [
                "https://en.wikipedia.org/wiki/Tourism_in_Karnataka",
                "https://www.tripoto.com/places-to-visit/india/bangalore",
                "https://www.tripoto.com/travel-guide/kanakapura/trips",
                "https://www.tripoto.com/travel-guide/bangalore/places-to-visit"
            ],
            "address": "Kanakapura Road, Rajotsava Nagar, Kaderenahalli, Bengaluru, Bangalore Urban, Karnataka, 560001, India",
            "locType": "trunk",
            "longitude": "77.5733483"
        },
        "ring road": {
            "closest_to": "bellary",
            "latitude": "17.3625832",
            "blogLinks": [
                "https://www.tripoto.com/places-to-visit/india/bangalore",
                "https://www.tripoto.com/travel-guide/bangalore/places-to-visit"
            ],
            "address": "Ring Road, Rauza, Kalaburagi, Gulbarga taluku, Kalaburagi district, Karnataka, 585101, India",
            "locType": "trunk",
            "longitude": "76.8229563"
        },
        "indira nagar": {
            "closest_to": "kanakapura",
            "latitude": "12.9732913",
            "blogLinks": [
                "https://www.tripoto.com/travel-guide/bangalore/places-to-visit"
            ],
            "address": "Indiranagar, Bengaluru, Bangalore Urban, Karnataka, 560001, India",
            "locType": "suburb",
            "longitude": "77.6404672"
        },
        "virupaksha temple": {
            "closest_to": "bellary",
            "latitude": "15.3351754",
            "blogLinks": [
                "https://en.wikipedia.org/wiki/Tourism_in_Karnataka"
            ],
            "address": "Virupaksha Temple, Hampi Bazaar, Hampe, Hosapete taluk, Bellary district, Karnataka, 583239, India",
            "locType": "place_of_worship",
            "longitude": "76.4587777156223"
        },
        "kabini": {
            "closest_to": "kanakapura",
            "latitude": "12.0140065",
            "blogLinks": [
                "https://en.wikipedia.org/wiki/Tourism_in_Karnataka",
                "https://www.quora.com/What-are-the-best-weekend-road-trips-from-Bangalore"
            ],
            "address": "Kabini, Heggadadevanakote taluk, Mysuru district, Karnataka, India",
            "locType": "river",
            "longitude": "76.4152088"
        },
        "old madras road": {
            "closest_to": "kanakapura",
            "latitude": "13.0076952",
            "blogLinks": [
                "https://www.tripoto.com/places-to-visit/india/bangalore",
                "https://www.tripoto.com/travel-guide/bangalore/places-to-visit"
            ],
            "address": "Old Madras Road, Devasandra, ITI Colony, Garudacharpalya, Bangalore Urban, Karnataka, 560048, India",
            "locType": "trunk",
            "longitude": "77.689988"
        },
        "tirupati": {
            "closest_to": "kanakapura",
            "latitude": "13.3289007",
            "blogLinks": [
                "https://www.tripoto.com/travel-guide/bangalore/places-to-visit",
                "https://www.quora.com/What-are-some-good-places-to-visit-near-bangalore-for-a-one-two-day-trip",
                "https://en.wikipedia.org/wiki/Bellary",
                "https://www.quora.com/What-are-the-best-weekend-road-trips-from-Bangalore"
            ],
            "address": "Malekallu Tirupathi, Arasikere taluku, Hassan district, Karnataka, India",
            "locType": "village",
            "longitude": "76.2727455"
        },
        "devanahalli": {
            "closest_to": "kanakapura",
            "latitude": "13.2483502",
            "blogLinks": [
                "https://www.thrillophilia.com/resorts-around-bangalore"
            ],
            "address": "Devanahalli, Devanahalli taluk, Bangalore Rural, Karnataka, India",
            "locType": "town",
            "longitude": "77.7134377"
        },
        "kishkindha": {
            "closest_to": "bellary",
            "latitude": "15.3546186",
            "blogLinks": [
                "http://www.indiatravelblog.com/resources/3597-Visiting-Places-Sandur-Bellary-Karnataka.aspx"
            ],
            "address": "Kishkindha, SH130, Basapura, Koppala taluku, Koppal district, Karnataka, India",
            "locType": "place_of_worship",
            "longitude": "76.4696373"
        },
        "london": {
            "closest_to": "kanakapura",
            "latitude": "14.5203896",
            "blogLinks": [
                "https://www.tripoto.com/travel-guide/bangalore/places-to-visit"
            ],
            "address": "Karnataka, India",
            "locType": "administrative",
            "longitude": "75.7223521"
        },
        "bellary airport": {
            "closest_to": "kanakapura",
            "latitude": "15.1615409",
            "blogLinks": [
                "https://en.wikipedia.org/wiki/Bellary"
            ],
            "address": "Bellary Airport, Hosapete Road, Ballari, Bellary taluk, Bellary district, Karnataka, 583104, India",
            "locType": "aerodrome",
            "longitude": "76.8813908"
        },
        "hyderabad": {
            "closest_to": "bellary",
            "latitude": "17.9003114",
            "blogLinks": [
                "https://en.wikipedia.org/wiki/Bellary",
                "https://www.quora.com/What-are-the-best-weekend-road-trips-from-Bangalore"
            ],
            "address": "Hyderabad Road, Old City, Bidar, Bidar taluku, Bidar district, Karnataka, 585400, India",
            "locType": "primary",
            "longitude": "77.5344002"
        },
        "irupu falls": {
            "closest_to": "kanakapura",
            "latitude": "11.9667954",
            "blogLinks": [
                "https://en.wikipedia.org/wiki/Tourism_in_Karnataka"
            ],
            "address": "Iruppu Falls, SH89, Taila, Virajpet taluk, Kodagu, Karnataka, 571217, India",
            "locType": "attraction",
            "longitude": "75.9839484"
        },
        "mahabaleshwar": {
            "closest_to": "kanakapura",
            "latitude": "12.962625",
            "blogLinks": [
                "http://www.thrillophilia.com/blog/20-places-you-need-to-visit-in-india-with-your-best-friend/"
            ],
            "address": "Mahabaleshwar Temple, Mission Road (Kalinga Rao Road), Sampangirama Nagar, Shanti Nagar, Bengaluru, Bangalore Urban, Karnataka, 560001, India",
            "locType": "place_of_worship",
            "longitude": "77.5899443"
        },
        "switzerland": {
            "closest_to": "kanakapura",
            "latitude": "12.9733671",
            "blogLinks": [
                "http://www.thrillophilia.com/blog/20-places-you-need-to-visit-in-india-with-your-best-friend/"
            ],
            "address": "Consulate General of Switzerland, 26, Rest House Crescent Road, Shantala Nagar, Ashok Nagar, Bengaluru, Bangalore Urban, Karnataka, 560001, India",
            "locType": "embassy",
            "longitude": "77.6055981047125"
        },
        "uttara kannada": {
            "closest_to": "bellary",
            "latitude": "14.6726379",
            "blogLinks": [
                "https://en.wikipedia.org/wiki/Tourism_in_Karnataka",
                "http://www.thrillophilia.com/blog/20-places-you-need-to-visit-in-india-with-your-best-friend/"
            ],
            "address": "Uttara Kannada, Karnataka, India",
            "locType": "administrative",
            "longitude": "74.4729163045979"
        },
        "ujire": {
            "closest_to": "kanakapura",
            "latitude": "12.9954619",
            "blogLinks": [
                "https://www.quora.com/What-are-some-good-places-to-visit-near-bangalore-for-a-one-two-day-trip",
                "https://www.quora.com/What-are-the-best-weekend-road-trips-from-Bangalore"
            ],
            "address": "Ujire, Beltangadi taluk, Dakshina Kannada, Karnataka, India",
            "locType": "village",
            "longitude": "75.3301061"
        },
        "ramanagar": {
            "closest_to": "kanakapura",
            "latitude": "12.649356",
            "blogLinks": [
                "https://en.wikipedia.org/wiki/Kanakapura",
                "https://www.tripoto.com/travel-guide/kanakapura/trips"
            ],
            "address": "Ramanagar-Kanakapura Road, Avverahalli, Ramanagara taluk, Ramanagara district, Karnataka, 562159, India",
            "locType": "primary",
            "longitude": "77.3418018"
        },
        "banashankari": {
            "closest_to": "bellary",
            "latitude": "15.8876779",
            "blogLinks": [
                "http://harishoutings.blogspot.com/2008/07/sangam-mekedatu-and-chunchi-falls.html"
            ],
            "address": "Banashankari, Badami taluku, Bagalkote district, Karnataka, India",
            "locType": "hamlet",
            "longitude": "75.7046777"
        },
        "new delhi": {
            "closest_to": "kanakapura",
            "latitude": "12.30911465",
            "blogLinks": [
                "https://en.wikipedia.org/wiki/Bellary"
            ],
            "address": "Regional Institute of Education, Chaduranga Road, Jayalakshmipuram, Mysuru, Mysuru taluk, Mysuru district, Karnataka, 570001, India",
            "locType": "college",
            "longitude": "76.6142178649055"
        },
        "chikmagalur": {
            "closest_to": "kanakapura",
            "latitude": "13.5",
            "blogLinks": [
                "https://www.quora.com/What-are-the-best-weekend-road-trips-from-Bangalore"
            ],
            "address": "Chikmagalur, Chikkamagaluru district, Karnataka, India",
            "locType": "county",
            "longitude": "75.5"
        },
        "south": {
            "closest_to": "kanakapura",
            "latitude": "13.2942848",
            "blogLinks": [
                "https://en.wikipedia.org/wiki/Tourism_in_Karnataka",
                "http://www.thrillophilia.com/blog/20-places-you-need-to-visit-in-india-with-your-best-friend/"
            ],
            "address": "s, Vijayapura, Devanahalli taluk, Bangalore Rural, Karnataka, 562135, India",
            "locType": "residential",
            "longitude": "77.8040874"
        },
        "kabini river": {
            "closest_to": "kanakapura",
            "latitude": "12.0780998",
            "blogLinks": [
                "https://en.wikipedia.org/wiki/Tourism_in_Karnataka"
            ],
            "address": "Kabini right bank canal, Nanjanagudu taluk, Mysuru district, Karnataka, India",
            "locType": "canal",
            "longitude": "76.6477184"
        },