{
    "mentions": {
        "hasanamba": {
            "locType": "place_of_worship",
            "blogLinks": [
                "http://visitingplacesofgreatindia.blogspot.com/2013/07/hassan-district-karnataka.html"
            ],
            "longitude": "76.0946142",
            "closest_to": "belur",
            "latitude": "13.0027589",
            "address": "Sri Hasanamba Temple, Hosaline Road, Ravindra Nagar, Santhe Pete, Hassan, Hasana taluk, Hassan district, Karnataka, 573201, India"
        },
        "hoysaleswara temple": {
            "locType": "place_of_worship",
            "blogLinks": [
                "http://www.holidayiq.com/Halebid-and-Belur-Sightseeing-651.html",
                "http://visitingplacesofgreatindia.blogspot.com/2013/07/hassan-district-karnataka.html"
            ],
            "longitude": "75.9941649",
            "closest_to": "chitradurga",
            "latitude": "13.2127193",
            "address": "Hoysaleswara Temple, SH21, Halebidu, Beluru taluk, Hassan district, Karnataka, 573121, India"
        },
        "malnad": {
            "locType": "hospital",
            "blogLinks": [
                "http://visitingplacesofgreatindia.blogspot.com/2013/07/hassan-district-karnataka.html"
            ],
            "longitude": "75.7715495",
            "closest_to": "chitradurga",
            "latitude": "13.3160351",
            "address": "Malnad Hospital, Mudigere-Kadur Road, Chikkamagaluru, Chikkamagaluru taluku, Chikkamagaluru district, Karnataka, 577101, India"
        },
        "koravangala": {
            "locType": "village",
            "blogLinks": [
                "http://visitingplacesofgreatindia.blogspot.com/2013/07/hassan-district-karnataka.html"
            ],
            "longitude": "76.1763955",
            "closest_to": "belur",
            "latitude": "13.0524021",
            "address": "Koravangala, Hasana taluk, Hassan district, Karnataka, India"
        },
        "tungabhadra river": {
            "locType": "river",
            "blogLinks": [
                "https://en.wikipedia.org/wiki/Chitradurga_Fort"
            ],
            "longitude": "76.4931607",
            "closest_to": "chitradurga",
            "latitude": "15.3446123",
            "address": "Tungabhadra, Gangavati taluku, Koppal district, Karnataka, India"
        },
        "arkalgud": {
            "locType": "town",
            "blogLinks": [
                "http://visitingplacesofgreatindia.blogspot.com/2013/07/hassan-district-karnataka.html"
            ],
            "longitude": "76.0623411",
            "closest_to": "belur",
            "latitude": "12.7627771",
            "address": "Arkalgud, Arakalagudu taluk, Hassan district, Karnataka, 573102, India"
        },
        "coorg": {
            "locType": "town",
            "blogLinks": [
                "http://www.indiamike.com/india/karnataka-f38/places-to-go-in-south-karnataka-t102701/"
            ],
            "longitude": "75.740031",
            "closest_to": "belur",
            "latitude": "12.4204003",
            "address": "Madikeri, Madikeri taluku, Kodagu, Karnataka, India"
        },
        "karnataka state": {
            "locType": "university",
            "blogLinks": [
                "https://en.wikipedia.org/wiki/Chitradurga_Fort"
            ],
            "longitude": "76.6236231",
            "closest_to": "belur",
            "latitude": "12.315382",
            "address": "Karnataka State Open University, \u0cb9\u0cc1\u0ca3\u0cb8\u0cc2\u0cb0\u0cc1 \u0cb0\u0cb8\u0ccd\u0ca4\u0cc6, Gokulam, Mysuru, Mysuru taluk, Mysuru district, Karnataka, 570001, India"
        },
        "chitradurga": {
            "locType": "town",
            "blogLinks": [
                "https://en.wikipedia.org/wiki/Chitradurga_Fort",
                "http://visitingplacesofgreatindia.blogspot.com/2013/07/hassan-district-karnataka.html",
                "https://www.travelblog.org/Asia/India/Karnataka/blog-830024.html",
                "http://www.holidayiq.com/Chitradurga-Sightseeing-650.html",
                "http://www.nivalink.com/destination/chitradurga"
            ],
            "longitude": "76.4005122",
            "closest_to": "chitradurga",
            "latitude": "14.2266443",
            "address": "Chitradurga, Chitradurga taluku, Chitradurga district, Karnataka, 577500, India"
        },
        "chennakeshava": {
            "locType": "place_of_worship",
            "blogLinks": [
                "http://visitingplacesofgreatindia.blogspot.com/2013/07/hassan-district-karnataka.html"
            ],
            "longitude": "76.1294164",
            "closest_to": "chitradurga",
            "latitude": "13.3748908",
            "address": "Chennakeshava Temple, NH73, Arakere, Arasikere taluku, Hassan district, Karnataka, 573112, India"
        },
        "chitradurga fort": {
            "locType": "attraction",
            "blogLinks": [
                "https://en.wikipedia.org/wiki/Chitradurga_Fort",
                "http://goindia.about.com/od/karnataka/tp/karnataka.htm"
            ],
            "longitude": "76.3948635401208",
            "closest_to": "chitradurga",
            "latitude": "14.21296355",
            "address": "Chitradurga Fort, Kote Road, Devalagiri 1st Phase, Chitradurga, Chitradurga taluku, Chitradurga district, Karnataka, 577500, India"
        },
        "hemavathi": {
            "locType": "dam",
            "blogLinks": [
                "http://visitingplacesofgreatindia.blogspot.com/2013/07/hassan-district-karnataka.html"
            ],
            "longitude": "76.0556931",
            "closest_to": "belur",
            "latitude": "12.8267596",
            "address": "Hemavathi Reservoir, Hasana taluk, Hassan district, Karnataka, India"
        },
        "halebid": {
            "locType": "village",
            "blogLinks": [
                "https://www.travelblog.org/Asia/India/Karnataka/blog-830024.html",
                "http://www.holidayiq.com/Halebid-and-Belur-Sightseeing-651.html",
                "http://www.karnatakatourism.org/"
            ],
            "longitude": "75.9918793",
            "closest_to": "chitradurga",
            "latitude": "13.2167959",
            "address": "Halebidu, Beluru taluk, Hassan district, Karnataka, 573121, India"
        },
        "nilgiri": {
            "locType": "primary",
            "blogLinks": [
                "http://visitingplacesofgreatindia.blogspot.com/2013/07/hassan-district-karnataka.html"
            ],
            "longitude": "76.658639",
            "closest_to": "belur",
            "latitude": "12.304105",
            "address": "Bangalore Nilgiri Road, Ittigegudu, Mysuru, Mysuru taluk, Mysuru district, Karnataka, 570001, India"
        },
        "chandragupta": {
            "locType": "secondary",
            "blogLinks": [
                "http://visitingplacesofgreatindia.blogspot.com/2013/07/hassan-district-karnataka.html"
            ],
            "longitude": "76.6575533",
            "closest_to": "belur",
            "latitude": "12.3103038",
            "address": "Chandragupta Road, Mandi Mohalla, Mysuru, Mysuru taluk, Mysuru district, Karnataka, 570001, India"
        },
        "chennakeshava temple": {
            "locType": "place_of_worship",
            "blogLinks": [
                "http://www.holidayiq.com/Halebid-and-Belur-Sightseeing-651.html",
                "http://visitingplacesofgreatindia.blogspot.com/2013/07/hassan-district-karnataka.html"
            ],
            "longitude": "76.1294164",
            "closest_to": "chitradurga",
            "latitude": "13.3748908",
            "address": "Chennakeshava Temple, NH73, Arakere, Arasikere taluku, Hassan district, Karnataka, 573112, India"
        },
        "tumkur": {
            "locType": "county",
            "blogLinks": [
                "http://wikitravel.org/en/Chikmagalur"
            ],
            "longitude": "77.0002445",
            "closest_to": "chitradurga",
            "latitude": "13.4999406",
            "address": "Tumakuru, Tumkur district, Karnataka, India"
        },
        "belur": {
            "locType": "town",
            "blogLinks": [
                "http://www.nivalink.com/destination/belur",
                "http://www.nivalink.com/destination/hassan",
                "https://www.travelblog.org/Asia/India/Karnataka/blog-830024.html",
                "http://visitingplacesofgreatindia.blogspot.com/2013/07/hassan-district-karnataka.html",
                "http://wikitravel.org/en/Chikmagalur",
                "http://www.indiamike.com/india/karnataka-f38/places-to-go-in-south-karnataka-t102701/",
                "http://goindia.about.com/od/karnataka/tp/karnataka.htm"
            ],
            "longitude": "75.8634851",
            "closest_to": "chitradurga",
            "latitude": "13.1645671",
            "address": "Belur, Beluru taluk, Hassan district, Karnataka, 573115, India"
        },
        "mysore district": {
            "locType": "city",
            "blogLinks": [
                "http://visitingplacesofgreatindia.blogspot.com/2013/07/hassan-district-karnataka.html"
            ],
            "longitude": "76.6553609",
            "closest_to": "belur",
            "latitude": "12.3051828",
            "address": "Mysuru, Mysuru taluk, Mysuru district, Karnataka, 570001, India"
        },
        "gomateshwara": {
            "locType": "place_of_worship",
            "blogLinks": [
                "http://www.nivalink.com/destination/hassan",
                "http://visitingplacesofgreatindia.blogspot.com/2013/07/hassan-district-karnataka.html"
            ],
            "longitude": "76.4846128",
            "closest_to": "belur",
            "latitude": "12.8540505",
            "address": "Bahubali Statue, SH8, Shravanabelagola, Channarayapattana taluk, Hassan district, Karnataka, 573135, India"
        },
        "golden temple": {
            "locType": "place_of_worship",
            "blogLinks": [
                "http://goindia.about.com/od/karnataka/tp/karnataka.htm"
            ],
            "longitude": "75.9674656",
            "closest_to": "belur",
            "latitude": "12.430821",
            "address": "Padmasambhava Buddhist Vihara (Golden Temple), MDR21, Koppa, Piriyapattana taluk, Mysuru district, Karnataka, India"
        },
        "chikkamagalur": {
            "locType": "station",
            "blogLinks": [
                "http://www.nivalink.com/destination/belur"
            ],
            "longitude": "75.789501",
            "closest_to": "chitradurga",
            "latitude": "13.3030706",
            "address": "Chikkamagalur, SH57, Hosamane Badavane, Hiremagaluru, Chikkamagaluru taluku, Chikkamagaluru district, Karnataka, 577101, India"
        },
        "shantigrama": {
            "locType": "village",
            "blogLinks": [
                "http://visitingplacesofgreatindia.blogspot.com/2013/07/hassan-district-karnataka.html"
            ],
            "longitude": "76.2166763",
            "closest_to": "belur",
            "latitude": "12.983428",
            "address": "Shantigrama, Hasana taluk, Hassan district, Karnataka, India"
        },
        "mosale": {
            "locType": "village",
            "blogLinks": [
                "http://visitingplacesofgreatindia.blogspot.com/2013/07/hassan-district-karnataka.html"
            ],
            "longitude": "76.0947424",
            "closest_to": "chitradurga",
            "latitude": "13.3275104",
            "address": "Mosale, Arasikere taluku, Hassan district, Karnataka, India"
        },
        "dakshina kannada": {
            "locType": "administrative",
            "blogLinks": [
                "http://visitingplacesofgreatindia.blogspot.com/2013/07/hassan-district-karnataka.html"
            ],
            "longitude": "75.1008028650794",
            "closest_to": "belur",
            "latitude": "12.8114089",
            "address": "Dakshina Kannada, Karnataka, India"
        },
        "shravana": {
            "locType": "school",
            "blogLinks": [
                "http://visitingplacesofgreatindia.blogspot.com/2013/07/hassan-district-karnataka.html"
            ],
            "longitude": "76.38333",
            "closest_to": "belur",
            "latitude": "12.36212",
            "address": "Government Lower Primary School Shravana Halli, NH275, Jadaganakoppalu, Hunasuru taluk, Mysuru district, Karnataka, India"
        },
        "south east": {
            "locType": "administrative",
            "blogLinks": [
                "http://heavensofkarnataka.com/",
                "http://visitingplacesofgreatindia.blogspot.com/2013/07/hassan-district-karnataka.html"
            ],
            "longitude": "75.7223521",
            "closest_to": "chitradurga",
            "latitude": "14.5203896",
            "address": "Karnataka, India"
        },
        "river yagachi": {
            "locType": "river",
            "blogLinks": [
                "http://www.holidayiq.com/Halebid-and-Belur-Sightseeing-651.html"
            ],
            "longitude": "75.950911",
            "closest_to": "belur",
            "latitude": "13.0658494",
            "address": "Yagachi, Beluru taluk, Hassan district, Karnataka, India"
        },
        "vedavati river": {
            "locType": "river",
            "blogLinks": [
                "http://www.holidayiq.com/Chitradurga-Sightseeing-650.html",
                "https://en.wikipedia.org/wiki/Chitradurga_Fort"
            ],
            "longitude": "76.1347937",
            "closest_to": "chitradurga",
            "latitude": "13.6048777",
            "address": "Vedavati, Kaduru taluk, Chikkamagaluru district, Karnataka, India"
        },
        "yagachi river": {
            "locType": "river",
            "blogLinks": [
                "http://visitingplacesofgreatindia.blogspot.com/2013/07/hassan-district-karnataka.html"
            ],
            "longitude": "75.950911",
            "closest_to": "belur",
            "latitude": "13.0658494",
            "address": "Yagachi, Beluru taluk, Hassan district, Karnataka, India"
        },
        "hebbe": {
            "locType": "attraction",
            "blogLinks": [
                "http://wikitravel.org/en/Chikmagalur"
            ],
            "longitude": "75.7253701",
            "closest_to": "chitradurga",
            "latitude": "13.5414025",
            "address": "Hebbe falls, Kemmannagundi Road, Attigundi, Chikkamagaluru taluku, Chikkamagaluru district, Karnataka, India"
        },
        "gorur": {
            "locType": "village",
            "blogLinks": [
                "http://visitingplacesofgreatindia.blogspot.com/2013/07/hassan-district-karnataka.html"
            ],
            "longitude": "76.0644435",
            "closest_to": "belur",
            "latitude": "12.8238999",
            "address": "Gorur, Hasana taluk, Hassan district, Karnataka, 573120, India"
        },
        "kaimara": {
            "locType": "village",
            "blogLinks": [
                "http://wikitravel.org/en/Chikmagalur"
            ],
            "longitude": "75.7448654",
            "closest_to": "chitradurga",
            "latitude": "13.3713857",
            "address": "Kaimara, Chikkamagaluru taluku, Chikkamagaluru district, Karnataka, India"
        },
        "yagachi": {
            "locType": "river",
            "blogLinks": [
                "http://wikitravel.org/en/Chikmagalur"
            ],
            "longitude": "75.950911",
            "closest_to": "belur",
            "latitude": "13.0658494",
            "address": "Yagachi, Beluru taluk, Hassan district, Karnataka, India"
        },
        "amrutapura": {
            "locType": "village",
            "blogLinks": [
                "http://wikitravel.org/en/Chikmagalur"
            ],
            "longitude": "75.8535015",
            "closest_to": "chitradurga",
            "latitude": "13.7425193",
            "address": "Amrutapura, Tarikere taluku, Chikkamagaluru district, Karnataka, India"
        },
        "manikyadhara": {
            "locType": "attraction",
            "blogLinks": [
                "http://wikitravel.org/en/Chikmagalur"
            ],
            "longitude": "75.7701434",
            "closest_to": "chitradurga",
            "latitude": "13.4220248",
            "address": "Manikyadhara, Bababudangiri Road, Inam Dattatreya Pitha, Chikkamagaluru taluku, Chikkamagaluru district, Karnataka, India"
        },
        "kadur": {
            "locType": "trunk",
            "blogLinks": [
                "http://wikitravel.org/en/Chikmagalur"
            ],
            "longitude": "75.7820095",
            "closest_to": "chitradurga",
            "latitude": "13.3283654",
            "address": "Mudigere-Kadur Road, Basavannahalli, Chikkamagaluru, Chikkamagaluru taluku, Chikkamagaluru district, Karnataka, 577101, India"
        },
        "sringeri": {
            "locType": "town",
            "blogLinks": [
                "http://www.indiamike.com/india/karnataka-f38/places-to-go-in-south-karnataka-t102701/"
            ],
            "longitude": "75.2553718",
            "closest_to": "belur",
            "latitude": "13.4261724",
            "address": "Sringeri, Sringeri taluku, Chikkamagaluru district, Karnataka, 577592, India"
        },
        "hampi": {
            "locType": "village",
            "blogLinks": [
                "https://www.travelblog.org/Asia/India/Karnataka/blog-830024.html",
                "https://en.wikipedia.org/wiki/Chitradurga_Fort",
                "http://goindia.about.com/od/karnataka/tp/karnataka.htm"
            ],
            "longitude": "76.4606199",
            "closest_to": "chitradurga",
            "latitude": "15.3359769",
            "address": "Hampe, Hosapete taluk, Bellary district, Karnataka, 583239, India"
        },
        "halebidu": {
            "locType": "village",
            "blogLinks": [
                "http://www.indiamike.com/india/karnataka-f38/places-to-go-in-south-karnataka-t102701/",
                "http://www.nivalink.com/destination/hassan",
                "http://www.nivalink.com/destination/belur",
                "http://visitingplacesofgreatindia.blogspot.com/2013/07/hassan-district-karnataka.html"
            ],
            "longitude": "76.4607075",
            "closest_to": "belur",
            "latitude": "12.359893",
            "address": "Halebidu, Hunasuru taluk, Mysuru district, Karnataka, India"
        },
        "mysore maharaja": {
            "locType": "hotel",
            "blogLinks": [
                "http://www.godakshin.com/?q=travel-guides/chitradurga-sightseeing-158.html"
            ],
            "longitude": "76.6596385",
            "closest_to": "belur",
            "latitude": "12.3112197",
            "address": "Maharaja Hotel Mysore, Bangalore Nilgiri Road, Mandi Mohalla, Mysuru, Mysuru taluk, Mysuru district, Karnataka, 570001, India"
        },
        "north east": {
            "locType": "administrative",
            "blogLinks": [
                "http://heavensofkarnataka.com/"
            ],
            "longitude": "75.7223521",
            "closest_to": "chitradurga",
            "latitude": "14.5203896",
            "address": "Karnataka, India"
        },
        "mangalore": {
            "locType": "city",
            "blogLinks": [
                "http://wikitravel.org/en/Chikmagalur",
                "http://www.nivalink.com/destination/hassan",
                "http://visitingplacesofgreatindia.blogspot.com/2013/07/hassan-district-karnataka.html",
                "http://goindia.about.com/od/karnataka/tp/karnataka.htm"
            ],
            "longitude": "74.8430082",
            "closest_to": "belur",
            "latitude": "12.8698101",
            "address": "Mangaluru, Mangaluru taluk, Dakshina Kannada, Karnataka, 575001, India"
        },
        "kudremukh": {
            "locType": "village",
            "blogLinks": [
                "http://wikitravel.org/en/Chikmagalur"
            ],
            "longitude": "75.2523304",
            "closest_to": "belur",
            "latitude": "13.2144007",
            "address": "Kudremukha, Mudigere taluk, Chikkamagaluru district, Karnataka, India"
        },
        "hemavati": {
            "locType": "river",
            "blogLinks": [
                "http://visitingplacesofgreatindia.blogspot.com/2013/07/hassan-district-karnataka.html",
                "http://wikitravel.org/en/Chikmagalur"
            ],
            "longitude": "76.0723187",
            "closest_to": "belur",
            "latitude": "12.8179996",
            "address": "Hemavati, Hasana taluk, Hassan district, Karnataka, India"
        },
        "chennakesava temple": {
            "locType": "place_of_worship",
            "blogLinks": [
                "http://www.holidayiq.com/Halebid-and-Belur-Sightseeing-651.html"
            ],
            "longitude": "75.8603311",
            "closest_to": "belur",
            "latitude": "13.1629239",
            "address": "Chennakesava Temple, NH73, Navilahalli, Beluru taluk, Hassan district, Karnataka, India"
        },
        "hassan district of karnataka": {
            "locType": "administrative",
            "blogLinks": [
                "http://www.holidayiq.com/Halebid-and-Belur-Sightseeing-651.html"
            ],
            "longitude": "76.1745460751981",
            "closest_to": "belur",
            "latitude": "13.0315068",
            "address": "Hassan district, Karnataka, India"
        },
        "kannada": {
            "locType": "administrative",
            "blogLinks": [
                "http://www.godakshin.com/?q=travel-guides/chitradurga-sightseeing-158.html",
                "https://en.wikipedia.org/wiki/Chitradurga_Fort",
                "http://visitingplacesofgreatindia.blogspot.com/2013/07/hassan-district-karnataka.html"
            ],
            "longitude": "75.1008028650794",
            "closest_to": "belur",
            "latitude": "12.8114089",
            "address": "Dakshina Kannada, Karnataka, India"
        },
        "shravanabelagola": {
            "locType": "town",
            "blogLinks": [
                "http://goindia.about.com/od/karnataka/tp/karnataka.htm"
            ],
            "longitude": "76.4869997",
            "closest_to": "belur",
            "latitude": "12.8581305",
            "address": "Shravanabelagola, Channarayapattana taluk, Hassan district, Karnataka, 573135, India"
        },
        "channakeshava": {
            "locType": "place_of_worship",
            "blogLinks": [
                "http://visitingplacesofgreatindia.blogspot.com/2013/07/hassan-district-karnataka.html"
            ],
            "longitude": "76.3420625",
            "closest_to": "belur",
            "latitude": "12.9110113",
            "address": "Sri Channakeshava Temple, SH112A, Hampanahalli, Channarayapattana taluk, Hassan district, Karnataka, India"
        },
        "ranganathaswamy temple": {
            "locType": "place_of_worship",
            "blogLinks": [
                "http://www.holidayiq.com/Chitradurga-Sightseeing-650.html"
            ],
            "longitude": "76.1812411",
            "closest_to": "belur",
            "latitude": "12.854149",
            "address": "Ranganathaswamy Temple, Steps to Ranganathaswami Temple, Halekote, Hole Narasipura taluk, Hassan district, Karnataka, 573211, India"
        },
        "adagur": {
            "locType": "water",
            "blogLinks": [
                "http://visitingplacesofgreatindia.blogspot.com/2013/07/hassan-district-karnataka.html"
            ],
            "longitude": "76.0521269048741",
            "closest_to": "chitradurga",
            "latitude": "13.16333205",
            "address": "Adagur lake, Salagame Road, Ballenahalli, Hasana taluk, Hassan district, Karnataka, 573219, India"
        },
        "maradi": {
            "locType": "village",
            "blogLinks": [
                "http://wikitravel.org/en/Chikmagalur"
            ],
            "longitude": "76.0757799",
            "closest_to": "belur",
            "latitude": "12.8130205",
            "address": "Maradi, Arakalagudu taluk, Hassan district, Karnataka, India"
        },
        "kodagu": {
            "locType": "administrative",
            "blogLinks": [
                "http://visitingplacesofgreatindia.blogspot.com/2013/07/hassan-district-karnataka.html",
                "http://goindia.about.com/od/karnataka/tp/karnataka.htm"
            ],
            "longitude": "75.6677235950852",
            "closest_to": "belur",
            "latitude": "12.38117345",
            "address": "Kodagu, Karnataka, India"
        },
        "gowdahalli": {
            "locType": "village",
            "blogLinks": [
                "http://wikitravel.org/en/Chikmagalur"
            ],
            "longitude": "75.5981999",
            "closest_to": "belur",
            "latitude": "13.0422415",
            "address": "Gowdahalli, Mudigere taluk, Chikkamagaluru district, Karnataka, India"
        },
        "chikmagalur": {
            "locType": "county",
            "blogLinks": [
                "http://wikitravel.org/en/Chikmagalur"
            ],
            "longitude": "75.5",
            "closest_to": "chitradurga",
            "latitude": "13.5",
            "address": "Chikmagalur, Chikkamagaluru district, Karnataka, India"
        },
        "hemavathy river": {
            "locType": "canal",
            "blogLinks": [
                "http://visitingplacesofgreatindia.blogspot.com/2013/07/hassan-district-karnataka.html"
            ],
            "longitude": "76.5150009",
            "closest_to": "chitradurga",
            "latitude": "13.2293083",
            "address": "T Subramanian Hemavathy Irrigation Canal, Tipaturu taluk, Tumkur district, Karnataka, India"
        },
        "hampapura": {
            "locType": "village",
            "blogLinks": [
                "http://visitingplacesofgreatindia.blogspot.com/2013/07/hassan-district-karnataka.html"
            ],
            "longitude": "76.8445235",
            "closest_to": "belur",
            "latitude": "12.6396071",
            "address": "Hampapura, Mandya taluk, Mandya district, Karnataka, India"
        },
        "brahmagiri": {
            "locType": "peak",
            "blogLinks": [
                "http://www.godakshin.com/?q=travel-guides/chitradurga-sightseeing-158.html",
                "https://en.wikipedia.org/wiki/Chitradurga_Fort"
            ],
            "longitude": "75.490746",
            "closest_to": "belur",
            "latitude": "12.3868578",
            "address": "Brahmagiri, Madikeri taluku, Kodagu, Karnataka, India"
        },
        "vedavati": {
            "locType": "river",
            "blogLinks": [
                "http://wikitravel.org/en/Chikmagalur"
            ],
            "longitude": "76.1347937",
            "closest_to": "chitradurga",
            "latitude": "13.6048777",
            "address": "Vedavati, Kaduru taluk, Chikkamagaluru district, Karnataka, India"
        },
        "hosadurga": {
            "locType": "town",
            "blogLinks": [
                "http://wikitravel.org/en/Chikmagalur"
            ],
            "longitude": "76.2831034",
            "closest_to": "chitradurga",
            "latitude": "13.7987759",
            "address": "Hosadurga, Hosadurga taluku, Chitradurga district, Karnataka, 577527, India"
        },
        "chikkamagaluru": {
            "locType": "city",
            "blogLinks": [
                "http://wikitravel.org/en/Chikmagalur"
            ],
            "longitude": "75.7738743",
            "closest_to": "chitradurga",
            "latitude": "13.318014",
            "address": "Chikkamagaluru, Chikkamagaluru taluku, Chikkamagaluru district, Karnataka, 577101, India"
        },
        "' hassan": {
            "locType": "town",
            "blogLinks": [
                "http://visitingplacesofgreatindia.blogspot.com/2013/07/hassan-district-karnataka.html"
            ],
            "longitude": "76.0992703",
            "closest_to": "belur",
            "latitude": "13.0070817",
            "address": "Hassan, Hasana taluk, Hassan district, Karnataka, 573201, India"
        },
        "sakaleshapura": {
            "locType": "administrative",
            "blogLinks": [
                "http://visitingplacesofgreatindia.blogspot.com/2013/07/hassan-district-karnataka.html"
            ],
            "longitude": "75.7266693539484",
            "closest_to": "belur",
            "latitude": "12.8549792",
            "address": "Sakaleshapura taluk, Hassan district, Karnataka, India"
        },
        "kemmannagundi": {
            "locType": "village",
            "blogLinks": [
                "http://wikitravel.org/en/Chikmagalur"
            ],
            "longitude": "75.7520082",
            "closest_to": "chitradurga",
            "latitude": "13.5463048",
            "address": "Kemmannagundi, Tarikere taluku, Chikkamagaluru district, Karnataka, India"
        },
        "yagachi dam": {
            "locType": "dam",
            "blogLinks": [
                "http://www.holidayiq.com/Halebid-and-Belur-Sightseeing-651.html"
            ],
            "longitude": "75.8678438",
            "closest_to": "chitradurga",
            "latitude": "13.1812074",
            "address": "Yagachi Dam, Beluru taluk, Hassan district, Karnataka, India"
        },
        "ooty": {
            "locType": "primary",
            "blogLinks": [
                "http://www.indiamike.com/india/karnataka-f38/places-to-go-in-south-karnataka-t102701/",
                "http://www.nivalink.com/destination/hassan"
            ],
            "longitude": "76.6586807",
            "closest_to": "belur",
            "latitude": "12.2774807",
            "address": "Ooty Road, Vidyaranyapuram, Mysuru, Mysuru taluk, Mysuru district, Karnataka, 570001, India"
        },
        "india": {
            "locType": "administrative",
            "blogLinks": [
                "http://www.nivalink.com/destination/hassan",
                "http://www.holidayiq.com/Halebid-and-Belur-Sightseeing-651.html",
                "https://en.wikipedia.org/wiki/Chitradurga_Fort",
                "http://wikitravel.org/en/Chikmagalur",
                "http://visitingplacesofgreatindia.blogspot.com/2013/07/hassan-district-karnataka.html",
                "http://goindia.about.com/od/karnataka/tp/karnataka.htm",
                "http://www.nivalink.com/destination/chitradurga"
            ],
            "longitude": "75.7223521",
            "closest_to": "chitradurga",
            "latitude": "14.5203896",
            "address": "Karnataka, India"
        },
        "nuggehalli": {
            "locType": "village",
            "blogLinks": [
                "http://visitingplacesofgreatindia.blogspot.com/2013/07/hassan-district-karnataka.html"
            ],
            "longitude": "76.4772001",
            "closest_to": "belur",
            "latitude": "13.0095337",
            "address": "Nuggehalli, Channarayapattana taluk, Hassan district, Karnataka, India"
        },
        "holenarasipura": {
            "locType": "town",
            "blogLinks": [
                "http://visitingplacesofgreatindia.blogspot.com/2013/07/hassan-district-karnataka.html"
            ],
            "longitude": "76.2431266",
            "closest_to": "belur",
            "latitude": "12.7852158",
            "address": "Holenarasipura, Hole Narasipura taluk, Hassan district, Karnataka, 573211, India"
        },
        "arsikere": {
            "locType": "station",
            "blogLinks": [
                "http://visitingplacesofgreatindia.blogspot.com/2013/07/hassan-district-karnataka.html"
            ],
            "longitude": "76.2528992",
            "closest_to": "chitradurga",
            "latitude": "13.313613",
            "address": "Arsikere Junction, Subrahmanya Temple Road, Lakshmi Puram, Arasikere, Arasikere taluku, Hassan district, Karnataka, 573103, India"
        },
        "doddagaddavalli": {
            "locType": "village",
            "blogLinks": [
                "http://visitingplacesofgreatindia.blogspot.com/2013/07/hassan-district-karnataka.html"
            ],
            "longitude": "76.0035887",
            "closest_to": "belur",
            "latitude": "13.0984567",
            "address": "Doddagaddavalli, Hasana taluk, Hassan district, Karnataka, India"
        },
        "kalasa": {
            "locType": "town",
            "blogLinks": [
                "http://wikitravel.org/en/Chikmagalur"
            ],
            "longitude": "75.3582366",
            "closest_to": "belur",
            "latitude": "13.2322235",
            "address": "Kalasa, Mudigere taluk, Chikkamagaluru district, Karnataka, 577124, India"
        },
        "belagola": {
            "locType": "town",
            "blogLinks": [
                "http://visitingplacesofgreatindia.blogspot.com/2013/07/hassan-district-karnataka.html"
            ],
            "longitude": "76.4869997",
            "closest_to": "belur",
            "latitude": "12.8581305",
            "address": "Shravanabelagola, Channarayapattana taluk, Hassan district, Karnataka, 573135, India"
        },
        "hasanamba temple": {
            "locType": "place_of_worship",
            "blogLinks": [
                "http://www.nivalink.com/destination/hassan"
            ],
            "longitude": "76.0946142",
            "closest_to": "belur",
            "latitude": "13.0027589",
            "address": "Sri Hasanamba Temple, Hosaline Road, Ravindra Nagar, Santhe Pete, Hassan, Hasana taluk, Hassan district, Karnataka, 573201, India"
        },
        "ombattu gudda": {
            "locType": "peak",
            "blogLinks": [
                "http://visitingplacesofgreatindia.blogspot.com/2013/07/hassan-district-karnataka.html"
            ],
            "longitude": "75.5851409",
            "closest_to": "belur",
            "latitude": "12.9408479",
            "address": "Ombaattu Gudde, Mudigere taluk, Chikkamagaluru district, Karnataka, India"
        },
        "kashi": {
            "locType": "town",
            "blogLinks": [
                "http://visitingplacesofgreatindia.blogspot.com/2013/07/hassan-district-karnataka.html"
            ],
            "longitude": "74.9977469",
            "closest_to": "belur",
            "latitude": "13.0699218",
            "address": "Moodabidri, Mangaluru taluk, Dakshina Kannada, Karnataka, 574227, India"
        },
        "chikmagalur district": {
            "locType": "county",
            "blogLinks": [
                "http://visitingplacesofgreatindia.blogspot.com/2013/07/hassan-district-karnataka.html"
            ],
            "longitude": "75.5",
            "closest_to": "chitradurga",
            "latitude": "13.5",
            "address": "Chikmagalur, Chikkamagaluru district, Karnataka, India"
        },
        "karnataka": {
            "locType": "atm",
            "blogLinks": [
                "http://heavensofkarnataka.com/",
                "http://www.nivalink.com/destination/belur",
                "http://www.holidayiq.com/Chitradurga-Sightseeing-650.html",
                "http://www.nivalink.com/destination/hassan",
                "https://www.travelblog.org/Asia/India/Karnataka/blog-830024.html",
                "http://www.karnatakatourism.org/",
                "https://en.wikipedia.org/wiki/Chitradurga_Fort",
                "http://wikitravel.org/en/Chikmagalur",
                "http://visitingplacesofgreatindia.blogspot.com/2013/07/hassan-district-karnataka.html",
                "http://www.indiamike.com/india/karnataka-f38/places-to-go-in-south-karnataka-t102701/",
                "http://goindia.about.com/od/karnataka/tp/karnataka.htm",
                "http://www.godakshin.com/?q=travel-guides/chitradurga-sightseeing-158.html",
                "http://www.nivalink.com/destination/chitradurga"
            ],
            "longitude": "76.6639936",
            "closest_to": "belur",
            "latitude": "12.3084901",
            "address": "Karnataka, Shalivahana Road, Nazarbad, Mysuru, Mysuru taluk, Mysuru district, Karnataka, 570001, India"
        },
        "river hemavathi": {
            "locType": "dam",
            "blogLinks": [
                "http://www.nivalink.com/destination/hassan"
            ],
            "longitude": "76.0556931",
            "closest_to": "belur",
            "latitude": "12.8267596",
            "address": "Hemavathi Reservoir, Hasana taluk, Hassan district, Karnataka, India"
        },
        "coastal karnataka": {
            "locType": "industrial",
            "blogLinks": [
                "http://heavensofkarnataka.com/"
            ],
            "longitude": "74.8137275833157",
            "closest_to": "belur",
            "latitude": "12.96014675",
            "address": "Bharat Petroleum Mangalore Coastal Installation, Baikampady, Mangaluru taluk, Dakshina Kannada, Karnataka, 575014, India"
        },
        "chitradurga district": {
            "locType": "administrative",
            "blogLinks": [
                "https://en.wikipedia.org/wiki/Chitradurga_Fort",
                "http://www.holidayiq.com/Chitradurga-Sightseeing-650.html",
                "http://www.nivalink.com/destination/chitradurga"
            ],
            "longitude": "76.5299366059272",
            "closest_to": "chitradurga",
            "latitude": "14.3051049",
            "address": "Chitradurga district, Karnataka, India"
        },
        "il": {
            "locType": "administrative",
            "blogLinks": [
                "https://en.wikipedia.org/wiki/Chitradurga_Fort"
            ],
            "longitude": "75.7223521",
            "closest_to": "chitradurga",
            "latitude": "14.5203896",
            "address": "Karnataka, India"
        },
        "aralaguppe": {
            "locType": "village",
            "blogLinks": [
                "http://www.nivalink.com/destination/hassan"
            ],
            "longitude": "76.6165598",
            "closest_to": "chitradurga",
            "latitude": "13.2517886",
            "address": "Aralaguppe, Tipaturu taluk, Tumkur district, Karnataka, India"
        },
        "nageshwara": {
            "locType": "yes",
            "blogLinks": [
                "http://www.nivalink.com/destination/hassan",
                "http://visitingplacesofgreatindia.blogspot.com/2013/07/hassan-district-karnataka.html"
            ],
            "longitude": "77.095092",
            "closest_to": "chitradurga",
            "latitude": "13.3632898",
            "address": "Nageshwara, #4, Honnenahalli Road, Satyamangala, Tumkur taluk, Tumkur district, Karnataka, 572101, India"
        },
        "hassan": {
            "locType": "town",
            "blogLinks": [
                "http://visitingplacesofgreatindia.blogspot.com/2013/07/hassan-district-karnataka.html",
                "http://goindia.about.com/od/karnataka/tp/karnataka.htm"
            ],
            "longitude": "76.0992703",
            "closest_to": "belur",
            "latitude": "13.0070817",
            "address": "Hassan, Hasana taluk, Hassan district, Karnataka, 573201, India"
        },
        "kalaseshwara temple": {
            "locType": "place_of_worship",
            "blogLinks": [
                "http://www.nivalink.com/destination/hassan",
                "http://www.nivalink.com/destination/belur",
                "http://www.nivalink.com/destination/chitradurga"
            ],
            "longitude": "75.363446975",
            "closest_to": "belur",
            "latitude": "13.23228505",
            "address": "Kalaseshwara Temple, SH66, Kalasa, Mudigere taluk, Chikkamagaluru district, Karnataka, 577124, India"
        },
        "kannur": {
            "locType": "construction",
            "blogLinks": [
                "http://www.nivalink.com/destination/hassan",
                "http://www.nivalink.com/destination/belur"
            ],
            "longitude": "74.8858161",
            "closest_to": "belur",
            "latitude": "12.8487602",
            "address": "Netravati bridge - Kannur Bypass Road (Proposed), Padil, Bajal, Mangaluru taluk, Dakshina Kannada, Karnataka, 575007, India"
        },
        "lakshminarayana": {
            "locType": "place_of_worship",
            "blogLinks": [
                "http://visitingplacesofgreatindia.blogspot.com/2013/07/hassan-district-karnataka.html"
            ],
            "longitude": "76.4786794480367",
            "closest_to": "belur",
            "latitude": "12.64241745",
            "address": "Sri Lakshminarayana Swami Temple, SH85, Kattaraghatta, Krishnarajapete taluk, Mandya district, Karnataka, India"
        },
        "hosadurga taluk": {
            "locType": "village",
            "blogLinks": [
                "http://www.holidayiq.com/Chitradurga-Sightseeing-650.html"
            ],
            "longitude": "77.2095258",
            "closest_to": "chitradurga",
            "latitude": "14.2608929",
            "address": "Hosadurga, Pavagada taluk, Tumkur district, Karnataka, India"
        },
        "kondajji": {
            "locType": "village",
            "blogLinks": [
                "http://visitingplacesofgreatindia.blogspot.com/2013/07/hassan-district-karnataka.html"
            ],
            "longitude": "75.8718161",
            "closest_to": "chitradurga",
            "latitude": "14.5688705",
            "address": "Kondajji, Harihara taluku, Davanagere district, Karnataka, India"
        }
    },
    "belur": {
        "osm_id": "245618812",
        "display_name": "Belur, Beluru taluk, Hassan district, Karnataka, 573115, India",
        "importance": 0.5,
        "place_id": "633330",
        "class": "place",
        "boundingbox": [
            "13.1245671",
            "13.2045671",
            "75.8234851",
            "75.9034851"
        ],
        "type": "town",
        "lon": "75.8634851",
        "licence": "Data \u00a9 OpenStreetMap contributors, ODbL 1.0. http://www.openstreetmap.org/copyright",
        "osm_type": "node",
        "lat": "13.1645671",
        "icon": "https://nominatim.openstreetmap.org/images/mapicons/poi_place_town.p.20.png"
    },
    "chitradurga": {
        "osm_id": "571409087",
        "display_name": "Chitradurga, Chitradurga taluku, Chitradurga district, Karnataka, 577500, India",
        "importance": 0.5,
        "place_id": "4897275",
        "class": "place",
        "boundingbox": [
            "14.1866443",
            "14.2666443",
            "76.3605122",
            "76.4405122"
        ],
        "type": "town",
        "lon": "76.4005122",
        "licence": "Data \u00a9 OpenStreetMap contributors, ODbL 1.0. http://www.openstreetmap.org/copyright",
        "osm_type": "node",
        "lat": "14.2266443",
        "icon": "https://nominatim.openstreetmap.org/images/mapicons/poi_place_town.p.20.png"
    }
}