{
    "mentions": {
        "kannada": {
            "locType": "administrative",
            "blogLinks": [
                "http://harishoutings.blogspot.com/2008/07/sangam-mekedatu-and-chunchi-falls.html"
            ],
            "longitude": "75.1008028650794",
            "closest_to": "belur",
            "latitude": "12.8114089",
            "address": "Dakshina Kannada, Karnataka, India"
        },
        "kanakpura": {
            "locType": "yes",
            "blogLinks": [
                "http://harishoutings.blogspot.com/2008/07/sangam-mekedatu-and-chunchi-falls.html"
            ],
            "longitude": "77.5438085908703",
            "closest_to": "kanakapura",
            "latitude": "12.8866679",
            "address": "H 902, Mantri Tranquil, Gubbalala, Off Kanakpura Road, Bengaluru - 61, Subramanyapura Main Road, Singapore Gardens, Uttarahalli, Gubbalala, Bangalore Urban, Karnataka, 560086, India"
        },
        "kanakapura road": {
            "locType": "trunk",
            "blogLinks": [
                "https://www.tripoto.com/travel-guide/kanakapura"
            ],
            "longitude": "77.5733483",
            "closest_to": "kanakapura",
            "latitude": "12.9064528",
            "address": "Kanakapura Road, Rajotsava Nagar, Kaderenahalli, Bengaluru, Bangalore Urban, Karnataka, 560001, India"
        },
        "hoysaleswara temple": {
            "locType": "place_of_worship",
            "blogLinks": [
                "http://www.holidayiq.com/Halebid-and-Belur-Sightseeing-651.html"
            ],
            "longitude": "75.9941649",
            "closest_to": "kanakapura",
            "latitude": "13.2127193",
            "address": "Hoysaleswara Temple, SH21, Halebidu, Beluru taluk, Hassan district, Karnataka, 573121, India"
        },
        "rameshwara": {
            "locType": "place_of_worship",
            "blogLinks": [
                "http://www.nivalink.com/destination/belur"
            ],
            "longitude": "77.5678621969321",
            "closest_to": "kanakapura",
            "latitude": "12.99365815",
            "address": "Rameshwara Temple, Kranthikavi Sarvagnya Road, Rajajinagar 4th Block, Sriramapura, Bengaluru, Bangalore Urban, Karnataka, 560001, India"
        },
        "kanakapura": {
            "locType": "town",
            "blogLinks": [
                "https://www.tripoto.com/places-to-visit/india/howrah",
                "http://www.holidayiq.com/destinations/halebid-and-belur/photos/p2.html",
                "http://www.holidayiq.com/Halebid-and-Belur-Sightseeing-651.html",
                "https://www.tripoto.com/travel-guide/kanakapura",
                "https://www.distancecalculator.net/from-belur-to-kanakapura"
            ],
            "longitude": "77.4199095",
            "closest_to": "kanakapura",
            "latitude": "12.5450268",
            "address": "Kanakapura, Kanakapura taluk, Ramanagara district, Karnataka, 562117, India"
        },
        "udipi": {
            "locType": "restaurant",
            "blogLinks": [
                "http://www.nivalink.com/destination/belur"
            ],
            "longitude": "77.652888",
            "closest_to": "kanakapura",
            "latitude": "12.9530588",
            "address": "Udipi Park, 2nd Cross Road, Muniyappa Layout, Murugeshpalaya, Belure Ambedkar Nagar, Bangalore Urban, Karnataka, 560067, India"
        },
        "bangalore": {
            "locType": "city",
            "blogLinks": [
                "http://harishoutings.blogspot.com/2008/07/sangam-mekedatu-and-chunchi-falls.html",
                "https://www.distancecalculator.net/from-belur-to-kanakapura",
                "http://www.nivalink.com/destination/belur",
                "http://travel.india.com/articles/bangalore-belur-reach-belur-bangalore-road/",
                "https://www.tripoto.com/travel-guide/kanakapura",
                "https://www.tripoto.com/trip/belur-halebidu-5896"
            ],
            "longitude": "77.5912997",
            "closest_to": "kanakapura",
            "latitude": "12.9791198",
            "address": "Bengaluru, Bangalore Urban, Karnataka, 560001, India"
        },
        "halebid": {
            "locType": "village",
            "blogLinks": [
                "https://www.travelblog.org/Asia/India/Karnataka/Hassan/blog-5839.html",
                "http://www.holidayiq.com/Halebid-and-Belur-Sightseeing-651.html",
                "https://www.tripoto.com/travel-guide/kanakapura",
                "http://www.nivalink.com/destination/belur"
            ],
            "longitude": "75.9918793",
            "closest_to": "kanakapura",
            "latitude": "13.2167959",
            "address": "Halebidu, Beluru taluk, Hassan district, Karnataka, 573121, India"
        },
        "hong kong": {
            "locType": "restaurant",
            "blogLinks": [
                "https://www.travelblog.org/Asia/India/Karnataka/Hassan/blog-5839.html"
            ],
            "longitude": "77.6768991",
            "closest_to": "kanakapura",
            "latitude": "13.020749",
            "address": "Hong Kong Noodles, Kalkere Main road, Ramamurthy Nagar, Varanasi, Bangalore Urban, Karnataka, 600042, India"
        },
        "yagachi dam": {
            "locType": "dam",
            "blogLinks": [
                "http://www.holidayiq.com/Halebid-and-Belur-Sightseeing-651.html"
            ],
            "longitude": "75.8678438",
            "closest_to": "belur",
            "latitude": "13.1812074",
            "address": "Yagachi Dam, Beluru taluk, Hassan district, Karnataka, India"
        },
        "cauvery river": {
            "locType": "unclassified",
            "blogLinks": [
                "http://harishoutings.blogspot.com/2008/07/sangam-mekedatu-and-chunchi-falls.html"
            ],
            "longitude": "77.635647",
            "closest_to": "kanakapura",
            "latitude": "12.9327668",
            "address": "Temple Trees Rd, Cauvery Colony, ST Bed Layout, Koramangala, Bengaluru, Bangalore Urban, Karnataka, 560001, India"
        },
        "kundapura": {
            "locType": "town",
            "blogLinks": [
                "http://www.nivalink.com/destination/belur"
            ],
            "longitude": "74.6915722",
            "closest_to": "belur",
            "latitude": "13.6250993",
            "address": "Kundapura, \u0c95\u0cc1\u0c82\u0ca6\u0cbe\u0caa\u0cc1\u0cb0 \u0ca4\u0cbe\u0cb2\u0cc2\u0c95\u0cc1, Udupi district, Karnataka, 576200, India"
        },
        "madurai": {
            "locType": "restaurant",
            "blogLinks": [
                "https://www.tripoto.com/trip/belur-halebidu-5896"
            ],
            "longitude": "77.6320535",
            "closest_to": "kanakapura",
            "latitude": "12.9185419",
            "address": "Madurai Idly Shop, 5th Main Road, Teachers Colony, HSR Layout, Bengaluru, Bangalore Urban, Karnataka, 560001, India"
        },
        "india": {
            "locType": "administrative",
            "blogLinks": [
                "https://www.travelblog.org/Asia/India/Karnataka/Hassan/blog-5839.html",
                "https://www.tripoto.com/places-to-visit/india/howrah",
                "https://www.tripoto.com/trip/belur-halebidu-5896",
                "https://www.distancecalculator.net/from-belur-to-kanakapura"
            ],
            "longitude": "75.7223521",
            "closest_to": "belur",
            "latitude": "14.5203896",
            "address": "Karnataka, India"
        },
        "belur": {
            "locType": "town",
            "blogLinks": [
                "https://www.travelblog.org/Asia/India/Karnataka/Hassan/blog-5839.html",
                "https://www.tripoto.com/places-to-visit/india/howrah",
                "https://www.tripoto.com/trip/belur-halebidu-5896",
                "http://www.nivalink.com/destination/belur"
            ],
            "longitude": "75.8634851",
            "closest_to": "kanakapura",
            "latitude": "13.1645671",
            "address": "Belur, Beluru taluk, Hassan district, Karnataka, 573115, India"
        },
        "hoysala": {
            "locType": "administrative",
            "blogLinks": [
                "https://www.travelblog.org/Asia/India/Karnataka/Hassan/blog-5839.html",
                "https://www.tripoto.com/trip/belur-halebidu-5896"
            ],
            "longitude": "77.6375990817051",
            "closest_to": "kanakapura",
            "latitude": "12.97813815",
            "address": "Hoysala Nagar, Bengaluru, Bangalore Urban, Karnataka, 560001, India"
        },
        "halebidu": {
            "locType": "village",
            "blogLinks": [
                "https://www.tripoto.com/trip/belur-halebidu-5896",
                "http://www.nivalink.com/destination/belur"
            ],
            "longitude": "76.4607075",
            "closest_to": "kanakapura",
            "latitude": "12.359893",
            "address": "Halebidu, Hunasuru taluk, Mysuru district, Karnataka, India"
        },
        "kolkata": {
            "locType": "restaurant",
            "blogLinks": [
                "https://www.tripoto.com/places-to-visit/india/howrah",
                "http://harishoutings.blogspot.com/2008/07/sangam-mekedatu-and-chunchi-falls.html"
            ],
            "longitude": "77.5478044",
            "closest_to": "kanakapura",
            "latitude": "12.9845159",
            "address": "Kolkata Biryani And Rolls, 1st Main Basaveshwaranagar, Rajajinagar 3rd Block, Dasarahalli, Bengaluru, Bangalore Urban, Karnataka, 560010, India"
        },
        "chikkamagalur": {
            "locType": "station",
            "blogLinks": [
                "http://www.nivalink.com/destination/belur"
            ],
            "longitude": "75.789501",
            "closest_to": "belur",
            "latitude": "13.3030706",
            "address": "Chikkamagalur, SH57, Hosamane Badavane, Hiremagaluru, Chikkamagaluru taluku, Chikkamagaluru district, Karnataka, 577101, India"
        },
        "sangam": {
            "locType": "restaurant",
            "blogLinks": [
                "http://harishoutings.blogspot.com/2008/07/sangam-mekedatu-and-chunchi-falls.html"
            ],
            "longitude": "77.6065672",
            "closest_to": "kanakapura",
            "latitude": "12.9718928",
            "address": "Sangam, FM Cariappa Road (Residency Road), Shantala Nagar, MacIvor Town, Bengaluru, Bangalore Urban, Karnataka, 560001, India"
        },
        "halebeedu": {
            "locType": "secondary",
            "blogLinks": [
                "http://travel.india.com/articles/bangalore-belur-reach-belur-bangalore-road/"
            ],
            "longitude": "76.000043",
            "closest_to": "kanakapura",
            "latitude": "13.1681662",
            "address": "Halebeedu Hagare Road, Harubihalli, Beluru taluk, Hassan district, Karnataka, 573121, India"
        },
        "river yagachi": {
            "locType": "river",
            "blogLinks": [
                "http://www.holidayiq.com/Halebid-and-Belur-Sightseeing-651.html"
            ],
            "longitude": "75.950911",
            "closest_to": "kanakapura",
            "latitude": "13.0658494",
            "address": "Yagachi, Beluru taluk, Hassan district, Karnataka, India"
        },
        "river kaveri": {
            "locType": "river",
            "blogLinks": [
                "http://www.holidayiq.com/Halebid-and-Belur-Sightseeing-651.html"
            ],
            "longitude": "77.0635531",
            "closest_to": "kanakapura",
            "latitude": "12.1687878",
            "address": "Kaveri, Kollegala taluk, Chamarajanagar district, Karnataka, India"
        },
        "calcutta": {
            "locType": "restaurant",
            "blogLinks": [
                "https://www.tripoto.com/places-to-visit/india/howrah"
            ],
            "longitude": "77.6031547",
            "closest_to": "kanakapura",
            "latitude": "12.9753406",
            "address": "Oh! Calcutta, Church Street, Tasker Town, Ashok Nagar, Bengaluru, Bangalore Urban, Karnataka, 560001, India"
        },
        "raman road": {
            "locType": "college",
            "blogLinks": [
                "http://travel.india.com/articles/bangalore-belur-reach-belur-bangalore-road/"
            ],
            "longitude": "77.5811493999963",
            "closest_to": "kanakapura",
            "latitude": "13.01380695",
            "address": "Raman Research Institute, CV Raman Road, RMV Stage II - 1st Block, Sadhashivanagar, Bengaluru, Bangalore Urban, Karnataka, 560001, India"
        },
        "singapore": {
            "locType": "neighbourhood",
            "blogLinks": [
                "https://www.travelblog.org/Asia/India/Karnataka/Hassan/blog-5839.html"
            ],
            "longitude": "77.5483703",
            "closest_to": "kanakapura",
            "latitude": "12.8861812",
            "address": "Singapore Gardens, Vajrahalli, Bengaluru, Bangalore Urban, Karnataka, 560001, India"
        },
        "kolkata station": {
            "locType": "restaurant",
            "blogLinks": [
                "https://www.tripoto.com/places-to-visit/india/howrah"
            ],
            "longitude": "77.5478044",
            "closest_to": "kanakapura",
            "latitude": "12.9845159",
            "address": "Kolkata Biryani And Rolls, 1st Main Basaveshwaranagar, Rajajinagar 3rd Block, Dasarahalli, Bengaluru, Bangalore Urban, Karnataka, 560010, India"
        },
        "yagachi river": {
            "locType": "river",
            "blogLinks": [
                "http://travel.india.com/articles/bangalore-belur-reach-belur-bangalore-road/"
            ],
            "longitude": "75.950911",
            "closest_to": "kanakapura",
            "latitude": "13.0658494",
            "address": "Yagachi, Beluru taluk, Hassan district, Karnataka, India"
        },
        "hasana": {
            "locType": "town",
            "blogLinks": [
                "http://travel.india.com/articles/bangalore-belur-reach-belur-bangalore-road/"
            ],
            "longitude": "76.0992703",
            "closest_to": "kanakapura",
            "latitude": "13.0070817",
            "address": "Hassan, Hasana taluk, Hassan district, Karnataka, 573201, India"
        },
        "karnataka": {
            "locType": "atm",
            "blogLinks": [
                "http://www.karnatakatourism.org/",
                "http://harishoutings.blogspot.com/2008/07/sangam-mekedatu-and-chunchi-falls.html",
                "http://www.nivalink.com/destination/belur",
                "http://travel.india.com/articles/bangalore-belur-reach-belur-bangalore-road/",
                "https://www.tripoto.com/travel-guide/kanakapura",
                "https://www.tripoto.com/trip/belur-halebidu-5896"
            ],
            "longitude": "76.6639936",
            "closest_to": "kanakapura",
            "latitude": "12.3084901",
            "address": "Karnataka, Shalivahana Road, Nazarbad, Mysuru, Mysuru taluk, Mysuru district, Karnataka, 570001, India"
        },
        "queens road": {
            "locType": "primary",
            "blogLinks": [
                "http://travel.india.com/articles/bangalore-belur-reach-belur-bangalore-road/"
            ],
            "longitude": "77.5970635",
            "closest_to": "kanakapura",
            "latitude": "12.9821324",
            "address": "Queen's Road, Tasker Town, Shivajinagar, Bengaluru, Bangalore Urban, Karnataka, 560001, India"
        },
        "ramanagar": {
            "locType": "primary",
            "blogLinks": [
                "https://www.tripoto.com/travel-guide/kanakapura"
            ],
            "longitude": "77.3418018",
            "closest_to": "kanakapura",
            "latitude": "12.649356",
            "address": "Ramanagar-Kanakapura Road, Avverahalli, Ramanagara taluk, Ramanagara district, Karnataka, 562159, India"
        },
        "belur road": {
            "locType": "town",
            "blogLinks": [
                "http://travel.india.com/articles/bangalore-belur-reach-belur-bangalore-road/"
            ],
            "longitude": "75.8634851",
            "closest_to": "kanakapura",
            "latitude": "13.1645671",
            "address": "Belur, Beluru taluk, Hassan district, Karnataka, 573115, India"
        },
        "shalimar station": {
            "locType": "hotel",
            "blogLinks": [
                "https://www.tripoto.com/places-to-visit/india/howrah"
            ],
            "longitude": "77.6373978",
            "closest_to": "kanakapura",
            "latitude": "12.9783904",
            "address": "Shalimar, Chinmaya Mission Hospital Road, Indiranagar 1st Stage, Hoysala Nagar, Bengaluru, Bangalore Urban, Karnataka, 560001, India"
        },
        "chennakeshava temple": {
            "locType": "place_of_worship",
            "blogLinks": [
                "http://www.holidayiq.com/Halebid-and-Belur-Sightseeing-651.html"
            ],
            "longitude": "76.1294164",
            "closest_to": "kanakapura",
            "latitude": "13.3748908",
            "address": "Chennakeshava Temple, NH73, Arakere, Arasikere taluku, Hassan district, Karnataka, 573112, India"
        },
        "north kerala": {
            "locType": "restaurant",
            "blogLinks": [
                "http://www.nivalink.com/destination/belur"
            ],
            "longitude": "77.6382683",
            "closest_to": "kanakapura",
            "latitude": "12.9726449",
            "address": "New Life Kerala Mess, Sai Baba Mandira Road, Mottappanapalaya, Indiranagar, Bengaluru, Bangalore Urban, Karnataka, 560001, India"
        },
        "kalaseshwara temple": {
            "locType": "place_of_worship",
            "blogLinks": [
                "http://www.nivalink.com/destination/belur"
            ],
            "longitude": "75.363446975",
            "closest_to": "belur",
            "latitude": "13.23228505",
            "address": "Kalaseshwara Temple, SH66, Kalasa, Mudigere taluk, Chikkamagaluru district, Karnataka, 577124, India"
        },
        "mangalore": {
            "locType": "city",
            "blogLinks": [
                "https://www.tripoto.com/trip/belur-halebidu-5896"
            ],
            "longitude": "74.8430082",
            "closest_to": "belur",
            "latitude": "12.8698101",
            "address": "Mangaluru, Mangaluru taluk, Dakshina Kannada, Karnataka, 575001, India"
        },
        "tibet": {
            "locType": "supermarket",
            "blogLinks": [
                "https://www.travelblog.org/Asia/India/Karnataka/Hassan/blog-5839.html"
            ],
            "longitude": "77.6068828",
            "closest_to": "kanakapura",
            "latitude": "12.9722398",
            "address": "Tibet Bazaar, Brigade Road, Tasker Town, Ashok Nagar, Bengaluru, Bangalore Urban, Karnataka, 560001, India"
        },
        "kannur": {
            "locType": "construction",
            "blogLinks": [
                "http://www.nivalink.com/destination/belur"
            ],
            "longitude": "74.8858161",
            "closest_to": "belur",
            "latitude": "12.8487602",
            "address": "Netravati bridge - Kannur Bypass Road (Proposed), Padil, Bajal, Mangaluru taluk, Dakshina Kannada, Karnataka, 575007, India"
        },
        "belavadi": {
            "locType": "village",
            "blogLinks": [
                "https://www.tripoto.com/trip/belur-halebidu-5896"
            ],
            "longitude": "75.3760773",
            "closest_to": "belur",
            "latitude": "13.5284899",
            "address": "Belavadi, Koppa taluk, Chikkamagaluru district, Karnataka, India"
        },
        "malleshwara": {
            "locType": "village",
            "blogLinks": [
                "http://travel.india.com/articles/bangalore-belur-reach-belur-bangalore-road/"
            ],
            "longitude": "75.5892576",
            "closest_to": "belur",
            "latitude": "13.9355872",
            "address": "Malleshwara Nagar, Shivamogga taluku, Shimoga district, Karnataka, India"
        },
        "china": {
            "locType": "restaurant",
            "blogLinks": [
                "https://www.travelblog.org/Asia/India/Karnataka/Hassan/blog-5839.html"
            ],
            "longitude": "77.6074274",
            "closest_to": "kanakapura",
            "latitude": "12.9708868",
            "address": "Highland China, Magrath Road, Tasker Town, Ashok Nagar, Bengaluru, Bangalore Urban, Karnataka, 560001, India"
        },
        "chennakesava temple": {
            "locType": "place_of_worship",
            "blogLinks": [
                "http://www.holidayiq.com/destinations/halebid-and-belur/photos/p2.html",
                "http://www.holidayiq.com/Halebid-and-Belur-Sightseeing-651.html"
            ],
            "longitude": "75.8603311",
            "closest_to": "belur",
            "latitude": "13.1629239",
            "address": "Chennakesava Temple, NH73, Navilahalli, Beluru taluk, Hassan district, Karnataka, India"
        },
        "mekedatu": {
            "locType": "attraction",
            "blogLinks": [
                "http://harishoutings.blogspot.com/2008/07/sangam-mekedatu-and-chunchi-falls.html"
            ],
            "longitude": "77.4475194",
            "closest_to": "kanakapura",
            "latitude": "12.2584997",
            "address": "Mekedatu, SH92, Mahalli, Kanakapura taluk, Ramanagara district, Karnataka, India"
        },
        "hassan district of karnataka": {
            "locType": "administrative",
            "blogLinks": [
                "http://www.holidayiq.com/destinations/halebid-and-belur/photos/p2.html",
                "http://www.holidayiq.com/Halebid-and-Belur-Sightseeing-651.html"
            ],
            "longitude": "76.1745460751981",
            "closest_to": "kanakapura",
            "latitude": "13.0315068",
            "address": "Hassan district, Karnataka, India"
        },
        "west bank": {
            "locType": "fire_station",
            "blogLinks": [
                "https://www.tripoto.com/places-to-visit/india/howrah"
            ],
            "longitude": "77.6453326499353",
            "closest_to": "kanakapura",
            "latitude": "13.01091195",
            "address": "Banasawadi Fire Station, Banaswadi Main Road, Vijaya Bank Colony, Banaswadi, Bengaluru, Bangalore Urban, Karnataka, 560001, India"
        }
    },
    "belur": {
        "osm_id": "245618812",
        "display_name": "Belur, Beluru taluk, Hassan district, Karnataka, 573115, India",
        "importance": 0.5,
        "place_id": "633330",
        "class": "place",
        "boundingbox": [
            "13.1245671",
            "13.2045671",
            "75.8234851",
            "75.9034851"
        ],
        "type": "town",
        "lon": "75.8634851",
        "licence": "Data \u00a9 OpenStreetMap contributors, ODbL 1.0. http://www.openstreetmap.org/copyright",
        "osm_type": "node",
        "lat": "13.1645671",
        "icon": "https://nominatim.openstreetmap.org/images/mapicons/poi_place_town.p.20.png"
    },
    "kanakapura": {
        "osm_id": "313178025",
        "display_name": "Kanakapura, Kanakapura taluk, Ramanagara district, Karnataka, 562117, India",
        "importance": 0.5,
        "place_id": "1366054",
        "class": "place",
        "boundingbox": [
            "12.5050268",
            "12.5850268",
            "77.3799095",
            "77.4599095"
        ],
        "type": "town",
        "lon": "77.4199095",
        "licence": "Data \u00a9 OpenStreetMap contributors, ODbL 1.0. http://www.openstreetmap.org/copyright",
        "osm_type": "node",
        "lat": "12.5450268",
        "icon": "https://nominatim.openstreetmap.org/images/mapicons/poi_place_town.p.20.png"
    }
}