{
    "virajpet": {
        "lat": "12.1972711",
        "class": "place",
        "importance": 0.5,
        "osm_type": "node",
        "lon": "75.8033421",
        "place_id": "3770481",
        "display_name": "Virajpet, Virajpet taluk, Kodagu, Karnataka, 571218, India",
        "osm_id": "412854951",
        "boundingbox": [
            "12.1572711",
            "12.2372711",
            "75.7633421",
            "75.8433421"
        ],
        "type": "town",
        "licence": "Data \u00a9 OpenStreetMap contributors, ODbL 1.0. http://www.openstreetmap.org/copyright",
        "icon": "https://nominatim.openstreetmap.org/images/mapicons/poi_place_town.p.20.png"
    },
    "bidar": {
        "lat": "18.083333",
        "class": "place",
        "importance": 0.65,
        "osm_type": "node",
        "lon": "77.333333",
        "place_id": "1400874",
        "display_name": "Bidar, Bidar district, Karnataka, India",
        "osm_id": "316417319",
        "boundingbox": [
            "17.443333",
            "18.723333",
            "76.693333",
            "77.973333"
        ],
        "type": "county",
        "licence": "Data \u00a9 OpenStreetMap contributors, ODbL 1.0. http://www.openstreetmap.org/copyright",
        "icon": "https://nominatim.openstreetmap.org/images/mapicons/poi_boundary_administrative.p.20.png"
    },
    "mentions": {
        "kamala": {
            "blogLinks": [
                "https://en.wikipedia.org/wiki/Tourism_in_Karnataka"
            ],
            "longitude": "77.5664867",
            "address": "Kamala Nehru Patashala (Emmanual English School), 5th A Cross Road, Yediyur, Thyagaraja Nagar, Bengaluru, Bangalore Urban, Karnataka, 560001, India",
            "latitude": "12.9339482",
            "locType": "school",
            "closest_to": "virajpet"
        },
        "varaha": {
            "blogLinks": [
                "https://en.wikipedia.org/wiki/Tourism_in_Karnataka"
            ],
            "longitude": "75.3718812",
            "address": "Varaha, Hirekeruru taluk, Haveri district, Karnataka, India",
            "latitude": "14.390777",
            "locType": "village",
            "closest_to": "virajpet"
        },
        "railway station": {
            "blogLinks": [
                "https://www.tripoto.com/weekend-getaways/from-virajpet"
            ],
            "longitude": "77.515738",
            "address": "Railway Station, Gauribidanuru taluk, Chikkaballapura district, Karnataka, India",
            "latitude": "13.5029417",
            "locType": "village",
            "closest_to": "virajpet"
        },
        "river kaveri": {
            "blogLinks": [
                "http://wikitravel.org/en/Kodagu",
                "https://en.wikipedia.org/wiki/Kodagu_district"
            ],
            "longitude": "77.0635531",
            "address": "Kaveri, Kollegala taluk, Chamarajanagar district, Karnataka, India",
            "latitude": "12.1687878",
            "locType": "river",
            "closest_to": "virajpet"
        },
        "narasimha swamy temple": {
            "blogLinks": [
                "https://en.wikipedia.org/wiki/Tourism_in_Karnataka"
            ],
            "longitude": "76.2427318",
            "address": "Narasimha Swamy Temple, Attavara Mudigere Road, Attavara, Hasana taluk, Hassan district, Karnataka, India",
            "latitude": "13.0943931",
            "locType": "place_of_worship",
            "closest_to": "virajpet"
        },
        "kagal": {
            "blogLinks": [
                "https://en.wikipedia.org/wiki/Tourism_in_Karnataka"
            ],
            "longitude": "74.3575302591262",
            "address": "Kagal Fort, Birkodi Village, Kumata taluk, Uttara Kannada, Karnataka, India",
            "latitude": "14.5055819",
            "locType": "grass",
            "closest_to": "virajpet"
        },
        "ranganathittu bird sanctuary": {
            "blogLinks": [
                "https://en.wikipedia.org/wiki/Tourism_in_Karnataka"
            ],
            "longitude": "76.6553081",
            "address": "Ranganathittu Bird Sanctuary, SH154, Palahalli, Srirangapattana taluk, Mandya district, Karnataka, 571438, India",
            "latitude": "12.4238524",
            "locType": "attraction",
            "closest_to": "virajpet"
        },
        "malaprabha": {
            "blogLinks": [
                "https://en.wikipedia.org/wiki/Tourism_in_Karnataka"
            ],
            "longitude": "75.1982668",
            "address": "Malaprabha, Ramadurga taluku, Belgaum district, Karnataka, India",
            "latitude": "15.8914192",
            "locType": "river",
            "closest_to": "virajpet"
        },
        "ramanagara": {
            "blogLinks": [
                "http://www.mapsofindia.com/maps/karnataka/"
            ],
            "longitude": "74.4900863",
            "address": "Ramanagara, Khanapura taluku, Belgaum district, Karnataka, India",
            "latitude": "15.422047",
            "locType": "town",
            "closest_to": "virajpet"
        },
        "lokapura": {
            "blogLinks": [
                "https://en.wikipedia.org/wiki/Tourism_in_Karnataka"
            ],
            "longitude": "75.3685939",
            "address": "Lokapura, Mudhola taluku, Bagalkote district, Karnataka, 587122, India",
            "latitude": "16.1627427",
            "locType": "town",
            "closest_to": "virajpet"
        },
        "mangalore international airport": {
            "blogLinks": [
                "http://traveltriangle.com/blog/places-to-visit-in-coorg/",
                "https://en.wikipedia.org/wiki/Kodagu_district"
            ],
            "longitude": "74.887492668144",
            "address": "Mangalore International Airport, Airport Entry Road, Gandhinagar, Kenjar, Mangaluru taluk, Dakshina Kannada, Karnataka, 575015, India",
            "latitude": "12.95518575",
            "locType": "aerodrome",
            "closest_to": "virajpet"
        },
        "vishnu": {
            "blogLinks": [
                "https://en.wikipedia.org/wiki/Tourism_in_Karnataka"
            ],
            "longitude": "77.7198022157059",
            "address": "Vishnu Residency Apartments, Thubarahalli, Siddapura, Bangalore Urban, Karnataka, 560066, India",
            "latitude": "12.95388635",
            "locType": "residential",
            "closest_to": "virajpet"
        },
        "kalyani": {
            "blogLinks": [
                "https://en.wikipedia.org/wiki/Tourism_in_Karnataka"
            ],
            "longitude": "77.6286090192686",
            "address": "Kalyani, Neeladri Road, Electronics City Phase 1, Bettadasana Pura, Bangalore Urban, Karnataka, 560100, India",
            "latitude": "12.8406466",
            "locType": "water",
            "closest_to": "virajpet"
        },
        "rameshwara": {
            "blogLinks": [
                "https://en.wikipedia.org/wiki/Kodagu_district"
            ],
            "longitude": "77.5678621969321",
            "address": "Rameshwara Temple, Kranthikavi Sarvagnya Road, Rajajinagar 4th Block, Sriramapura, Bengaluru, Bangalore Urban, Karnataka, 560001, India",
            "latitude": "12.99365815",
            "locType": "place_of_worship",
            "closest_to": "virajpet"
        },
        "kumta": {
            "blogLinks": [
                "https://en.wikipedia.org/wiki/Tourism_in_Karnataka"
            ],
            "longitude": "74.4107617",
            "address": "Kumta, Kumata taluk, Uttara Kannada, Karnataka, India",
            "latitude": "14.4261647",
            "locType": "town",
            "closest_to": "virajpet"
        },
        "chennai": {
            "blogLinks": [
                "https://www.tripoto.com/weekend-getaways/from-virajpet",
                "https://en.wikipedia.org/wiki/Tourism_in_Karnataka"
            ],
            "longitude": "80.2197941",
            "address": "Karnataka Bank, Postal Colony 2nd Street, Postal Colony, Ashok Nagar, Chennai City Corporation Limits, Chennai district, Tamil Nadu, 600033, India",
            "latitude": "13.0365141",
            "locType": "bank",
            "closest_to": "virajpet"
        },
        "tamil nadu": {
            "blogLinks": [
                "https://www.tripoto.com/weekend-getaways/from-virajpet",
                "http://www.mapsofindia.com/maps/karnataka/",
                "https://en.wikipedia.org/wiki/Tourism_in_Karnataka"
            ],
            "longitude": "76.9514152",
            "address": "KARNATAKA BANK, Diwan Bhadur Road, Five Corner, RS Puram, Coimbatore, Coimbatore district, Tamil Nadu, 641001, India",
            "latitude": "11.0025894",
            "locType": "bank",
            "closest_to": "virajpet"
        },
        "mekedatu": {
            "blogLinks": [
                "https://en.wikipedia.org/wiki/Tourism_in_Karnataka"
            ],
            "longitude": "77.4475194",
            "address": "Mekedatu, SH92, Mahalli, Kanakapura taluk, Ramanagara district, Karnataka, India",
            "latitude": "12.2584997",
            "locType": "attraction",
            "closest_to": "virajpet"
        },
        "mysore district": {
            "blogLinks": [
                "https://en.wikipedia.org/wiki/Tourism_in_Karnataka"
            ],
            "longitude": "76.6553609",
            "address": "Mysuru, Mysuru taluk, Mysuru district, Karnataka, 570001, India",
            "latitude": "12.3051828",
            "locType": "city",
            "closest_to": "virajpet"
        },
        "siddapur road": {
            "blogLinks": [
                "http://traveltriangle.com/blog/places-to-visit-in-coorg/"
            ],
            "longitude": "74.8045675",
            "address": "Siddapur Road, Boppanalli, Shirasi taluk, Uttara Kannada, Karnataka, India",
            "latitude": "14.5657186",
            "locType": "tertiary_link",
            "closest_to": "virajpet"
        },
        "kodachadri": {
            "blogLinks": [
                "https://en.wikipedia.org/wiki/Tourism_in_Karnataka"
            ],
            "longitude": "74.8705395",
            "address": "Kodachadri, \u0c95\u0cc1\u0c82\u0ca6\u0cbe\u0caa\u0cc1\u0cb0 \u0ca4\u0cbe\u0cb2\u0cc2\u0c95\u0cc1, Udupi district, Karnataka, India",
            "latitude": "13.8565758",
            "locType": "peak",
            "closest_to": "virajpet"
        },
        "dubare": {
            "blogLinks": [
                "https://en.wikipedia.org/wiki/Kodagu_district"
            ],
            "longitude": "75.9066719",
            "address": "Dubare Elephant Camp, SH91, Dodda Bettageri, Somawarpet taluk, Kodagu, Karnataka, India",
            "latitude": "12.3716865",
            "locType": "attraction",
            "closest_to": "virajpet"
        },
        "bengaluru": {
            "blogLinks": [
                "https://www.tripoto.com/weekend-getaways/from-virajpet"
            ],
            "longitude": "77.5912997",
            "address": "Bengaluru, Bangalore Urban, Karnataka, 560001, India",
            "latitude": "12.9791198",
            "locType": "city",
            "closest_to": "virajpet"
        },
        "karnataka state": {
            "blogLinks": [
                "https://en.wikipedia.org/wiki/Kodagu_district"
            ],
            "longitude": "76.6236231",
            "address": "Karnataka State Open University, \u0cb9\u0cc1\u0ca3\u0cb8\u0cc2\u0cb0\u0cc1 \u0cb0\u0cb8\u0ccd\u0ca4\u0cc6, Gokulam, Mysuru, Mysuru taluk, Mysuru district, Karnataka, 570001, India",
            "latitude": "12.315382",
            "locType": "university",
            "closest_to": "virajpet"
        },
        "palani": {
            "blogLinks": [
                "https://www.tripoto.com/weekend-getaways/from-virajpet"
            ],
            "longitude": "77.6168951",
            "address": "Palani, Neelasandra Bazaar Street, Austin Town BDA Layout, Neelasandra, Bengaluru, Bangalore Urban, Karnataka, 560001, India",
            "latitude": "12.9537341",
            "locType": "recycling",
            "closest_to": "virajpet"
        },
        "bhatkal": {
            "blogLinks": [
                "https://en.wikipedia.org/wiki/Tourism_in_Karnataka"
            ],
            "longitude": "74.5485295",
            "address": "Bhatkal, Bhatkala taluk, Uttara Kannada, Karnataka, 581320, India",
            "latitude": "13.9952114",
            "locType": "town",
            "closest_to": "virajpet"
        },
        "irupu falls": {
            "blogLinks": [
                "http://www.nivalink.com/destination/coorg-(virajpet)",
                "https://en.wikipedia.org/wiki/Tourism_in_Karnataka"
            ],
            "longitude": "75.9839484",
            "address": "Iruppu Falls, SH89, Taila, Virajpet taluk, Kodagu, Karnataka, 571217, India",
            "latitude": "11.9667954",
            "locType": "attraction",
            "closest_to": "virajpet"
        },
        "dakshina kannada": {
            "blogLinks": [
                "http://www.mapsofindia.com/maps/karnataka/",
                "https://en.wikipedia.org/wiki/Tourism_in_Karnataka",
                "https://en.wikipedia.org/wiki/Kodagu_district"
            ],
            "longitude": "75.1008028650794",
            "address": "Dakshina Kannada, Karnataka, India",
            "latitude": "12.8114089",
            "locType": "administrative",
            "closest_to": "virajpet"
        },
        "unchalli falls": {
            "blogLinks": [
                "https://en.wikipedia.org/wiki/Tourism_in_Karnataka"
            ],
            "longitude": "74.7477592",
            "address": "\u0c89\u0c82\u0c9a\u0cb3\u0ccd\u0cb3\u0cbf \u0c9c\u0cb2\u0caa\u0cbe\u0ca4, Siddapura taluk, Uttara Kannada, Karnataka, India",
            "latitude": "14.4097755",
            "locType": "waterfall",
            "closest_to": "virajpet"
        },
        "kumarakom": {
            "blogLinks": [
                "https://www.tripoto.com/weekend-getaways/from-virajpet"
            ],
            "longitude": "77.6382858",
            "address": "Kumarakom, 23, 15th Cross Road, Sector 4, HSR Layout, Bengaluru, Bangalore Urban, Karnataka, 560102, India",
            "latitude": "12.9143715",
            "locType": "restaurant",
            "closest_to": "virajpet"
        },
        "lakshmeshwar": {
            "blogLinks": [
                "https://en.wikipedia.org/wiki/Tourism_in_Karnataka"
            ],
            "longitude": "75.4741167",
            "address": "Lakshmeshwar KSRTC Bus stand, SH6, Bastibana, Lakshmeshvara, Shirahatti taluku, Gadag district, Karnataka, 582116, India",
            "latitude": "15.12373",
            "locType": "bus_station",
            "closest_to": "virajpet"
        },
        "bagamandala": {
            "blogLinks": [
                "https://en.wikipedia.org/wiki/Tourism_in_Karnataka"
            ],
            "longitude": "75.748408",
            "address": "Madikeri - Bagamandala ,Tala Kaveri Road, Mekeri, Madikeri taluku, Kodagu, Karnataka, India",
            "latitude": "12.388062",
            "locType": "primary",
            "closest_to": "virajpet"
        },
        "shivanasamudra": {
            "blogLinks": [
                "https://en.wikipedia.org/wiki/Tourism_in_Karnataka"
            ],
            "longitude": "77.1703215",
            "address": "Shivanasamudra, Kollegala taluk, Chamarajanagar district, Karnataka, India",
            "latitude": "12.2719056",
            "locType": "village",
            "closest_to": "virajpet"
        },
        "madras": {
            "blogLinks": [
                "https://www.tripoto.com/weekend-getaways/from-virajpet",
                "https://en.wikipedia.org/wiki/Kodagu_district"
            ],
            "longitude": "77.6449595",
            "address": "Swami Vivekananda Road, Swamy Vivekananda Road (Old Madras Road), Sudgunte Palya, Baiyyappanahalli, Benniganahalli, Bangalore Urban, Karnataka, 560016, India",
            "latitude": "12.9859442",
            "locType": "station",
            "closest_to": "virajpet"
        },
        "switzerland": {
            "blogLinks": [
                "http://wikitravel.org/en/Kodagu"
            ],
            "longitude": "77.6055981047125",
            "address": "Consulate General of Switzerland, 26, Rest House Crescent Road, Shantala Nagar, Ashok Nagar, Bengaluru, Bangalore Urban, Karnataka, 560001, India",
            "latitude": "12.9733671",
            "locType": "embassy",
            "closest_to": "virajpet"
        },
        "kohinoor road": {
            "blogLinks": [
                "http://wikitravel.org/en/Kodagu"
            ],
            "longitude": "74.8302988354928",
            "address": "kohinoor industies, Kukkikatte, Udupi taluku, Udupi district, Karnataka, India",
            "latitude": "13.398788",
            "locType": "industrial",
            "closest_to": "virajpet"
        },
        "ooty": {
            "blogLinks": [
                "https://www.tripoto.com/weekend-getaways/from-virajpet"
            ],
            "longitude": "76.6586807",
            "address": "Ooty Road, Vidyaranyapuram, Mysuru, Mysuru taluk, Mysuru district, Karnataka, 570001, India",
            "latitude": "12.2774807",
            "locType": "primary",
            "closest_to": "virajpet"
        },
        "mookambika": {
            "blogLinks": [
                "https://en.wikipedia.org/wiki/Tourism_in_Karnataka"
            ],
            "longitude": "74.8145296",
            "address": "Mukambika Devasthana, NH766C;SH26, Halkal, \u0c95\u0cc1\u0c82\u0ca6\u0cbe\u0caa\u0cc1\u0cb0 \u0ca4\u0cbe\u0cb2\u0cc2\u0c95\u0cc1, Udupi district, Karnataka, 576220, India",
            "latitude": "13.8638043",
            "locType": "place_of_worship",
            "closest_to": "virajpet"
        },
        "garden city": {
            "blogLinks": [
                "https://www.tripoto.com/weekend-getaways/from-virajpet"
            ],
            "longitude": "80.2197941",
            "address": "Karnataka Bank, Postal Colony 2nd Street, Postal Colony, Ashok Nagar, Chennai City Corporation Limits, Chennai district, Tamil Nadu, 600033, India",
            "latitude": "13.0365141",
            "locType": "bank",
            "closest_to": "virajpet"
        },
        "manipal": {
            "blogLinks": [
                "https://en.wikipedia.org/wiki/Tourism_in_Karnataka"
            ],
            "longitude": "74.7870308",
            "address": "Manipal, Udupi taluku, Udupi district, Karnataka, India",
            "latitude": "13.3519723",
            "locType": "town",
            "closest_to": "virajpet"
        },
        "chalukya": {
            "blogLinks": [
                "https://en.wikipedia.org/wiki/Tourism_in_Karnataka"
            ],
            "longitude": "77.5192989605445",
            "address": "Chalukya Nagar, Chandra Layout, GKW Layout, Bangalore Urban, Karnataka, 560072, India",
            "latitude": "12.9617207",
            "locType": "residential",
            "closest_to": "virajpet"
        },
        "lushington falls": {
            "blogLinks": [
                "https://en.wikipedia.org/wiki/Tourism_in_Karnataka"
            ],
            "longitude": "74.7477592",
            "address": "\u0c89\u0c82\u0c9a\u0cb3\u0ccd\u0cb3\u0cbf \u0c9c\u0cb2\u0caa\u0cbe\u0ca4, Siddapura taluk, Uttara Kannada, Karnataka, India",
            "latitude": "14.4097755",
            "locType": "waterfall",
            "closest_to": "virajpet"
        },
        "bengal": {
            "blogLinks": [
                "https://www.tripoto.com/weekend-getaways/from-virajpet"
            ],
            "longitude": "77.7517038151245",
            "address": "Bengal Lamps, Konadasapura, Bangalore Urban, Karnataka, 560066, India",
            "latitude": "13.0492646",
            "locType": "industrial",
            "closest_to": "virajpet"
        },
        "malpe": {
            "blogLinks": [
                "https://en.wikipedia.org/wiki/Tourism_in_Karnataka"
            ],
            "longitude": "74.7036914",
            "address": "Malpe, Udupi taluku, Udupi district, Karnataka, India",
            "latitude": "13.3507423",
            "locType": "village",
            "closest_to": "virajpet"
        },
        "itagi": {
            "blogLinks": [
                "https://en.wikipedia.org/wiki/Tourism_in_Karnataka"
            ],
            "longitude": "75.6701043",
            "address": "Itagi, Ranebennuru taluk, Haveri district, Karnataka, India",
            "latitude": "14.550374",
            "locType": "village",
            "closest_to": "virajpet"
        },
        "gokak": {
            "blogLinks": [
                "https://en.wikipedia.org/wiki/Tourism_in_Karnataka"
            ],
            "longitude": "74.8224338",
            "address": "Gokak, Gokak taluku, Belgaum district, Karnataka, 591307, India",
            "latitude": "16.1693033",
            "locType": "town",
            "closest_to": "virajpet"
        },
        "gadag": {
            "blogLinks": [
                "http://www.mapsofindia.com/maps/karnataka/",
                "https://en.wikipedia.org/wiki/Tourism_in_Karnataka"
            ],
            "longitude": "75.6300786",
            "address": "Gadag, Gadag taluk, Gadag district, Karnataka, 582101, India",
            "latitude": "15.4263647",
            "locType": "town",
            "closest_to": "virajpet"
        },
        "nagarhole national park": {
            "blogLinks": [
                "https://en.wikipedia.org/wiki/Tourism_in_Karnataka"
            ],
            "longitude": "76.1537073415874",
            "address": "Nagarahole National Park, Virajpet taluk, Kodagu, Karnataka, India",
            "latitude": "12.0600362",
            "locType": "national_park",
            "closest_to": "virajpet"
        },
        "hoysala": {
            "blogLinks": [
                "https://en.wikipedia.org/wiki/Tourism_in_Karnataka"
            ],
            "longitude": "77.6375990817051",
            "address": "Hoysala Nagar, Bengaluru, Bangalore Urban, Karnataka, 560001, India",
            "latitude": "12.97813815",
            "locType": "administrative",
            "closest_to": "virajpet"
        },
        "virupaksha temple": {
            "blogLinks": [
                "https://en.wikipedia.org/wiki/Tourism_in_Karnataka"
            ],
            "longitude": "76.4587777156223",
            "address": "Virupaksha Temple, Hampi Bazaar, Hampe, Hosapete taluk, Bellary district, Karnataka, 583239, India",
            "latitude": "15.3351754",
            "locType": "place_of_worship",
            "closest_to": "virajpet"
        },
        "gudavi": {
            "blogLinks": [
                "https://en.wikipedia.org/wiki/Tourism_in_Karnataka"
            ],
            "longitude": "75.009649",
            "address": "Gudavi, Soraba taluk, Shimoga district, Karnataka, India",
            "latitude": "14.4400296",
            "locType": "village",
            "closest_to": "virajpet"
        },
        "gokarna": {
            "blogLinks": [
                "https://en.wikipedia.org/wiki/Tourism_in_Karnataka"
            ],
            "longitude": "74.3184418",
            "address": "Gokarna, Kumata taluk, Uttara Kannada, Karnataka, 581326, India",
            "latitude": "14.5439629",
            "locType": "town",
            "closest_to": "virajpet"
        },
        "panambur": {
            "blogLinks": [
                "https://en.wikipedia.org/wiki/Kodagu_district"
            ],
            "longitude": "74.8031577",
            "address": "Panambur, Mangaluru taluk, Dakshina Kannada, Karnataka, India",
            "latitude": "12.9535736",
            "locType": "village",
            "closest_to": "virajpet"
        },
        "haveri": {
            "blogLinks": [
                "http://www.mapsofindia.com/maps/karnataka/",
                "https://en.wikipedia.org/wiki/Tourism_in_Karnataka"
            ],
            "longitude": "75.3996731",
            "address": "Haveri, Haveri taluku, Haveri district, Karnataka, 581110, India",
            "latitude": "14.7874825",
            "locType": "town",
            "closest_to": "virajpet"
        },
        "kaveri river": {
            "blogLinks": [
                "http://traveltriangle.com/blog/places-to-visit-in-coorg/"
            ],
            "longitude": "77.1600751",
            "address": "Kaveri, Malavalli taluk, Mandya district, Karnataka, India",
            "latitude": "12.2873835",
            "locType": "river",
            "closest_to": "virajpet"
        },
        "kushalanagara": {
            "blogLinks": [
                "https://en.wikipedia.org/wiki/Kodagu_district"
            ],
            "longitude": "75.961437",
            "address": "Kushalanagara, Somawarpet taluk, Kodagu, Karnataka, 571234, India",
            "latitude": "12.4585525",
            "locType": "town",
            "closest_to": "virajpet"
        },
        "coimbatore": {
            "blogLinks": [
                "http://www.nivalink.com/destination/coorg-(virajpet)",
                "https://www.tripoto.com/weekend-getaways/from-virajpet",
                "http://www.nivalink.com/destination/coorg-(madikeri)"
            ],
            "longitude": "76.6318246",
            "address": "Gundlupet - Coimbatore Highway, Bandipur, Gundlupet taluk, Chamarajanagar district, Karnataka, India",
            "latitude": "11.6793976",
            "locType": "trunk",
            "closest_to": "virajpet"
        },
        "snake river": {
            "blogLinks": [
                "http://wikitravel.org/en/Kodagu"
            ],
            "longitude": "76.66743",
            "address": "Snake Zone, \u0cae\u0cc1\u0c96\u0ccd\u0caf \u0cb0\u0cb8\u0ccd\u0ca4\u0cc6, Race Course, Mysuru, Mysuru taluk, Mysuru district, Karnataka, 570001, India",
            "latitude": "12.3003272",
            "locType": "attraction",
            "closest_to": "virajpet"
        },
        "karkala": {
            "blogLinks": [
                "https://en.wikipedia.org/wiki/Tourism_in_Karnataka"
            ],
            "longitude": "74.9959586",
            "address": "Karkala, Karkala taluk, Udupi district, Karnataka, 574104, India",
            "latitude": "13.2112826",
            "locType": "town",
            "closest_to": "virajpet"
        },
        "goa": {
            "blogLinks": [
                "https://www.tripoto.com/weekend-getaways/from-virajpet",
                "https://en.wikipedia.org/wiki/Tourism_in_Karnataka"
            ],
            "longitude": "77.6200027",
            "address": "Carnival De Goa, Bhaskaran Road, Gupta Layout, Halasuru, Bengaluru, Bangalore Urban, Karnataka, 560001, India",
            "latitude": "12.9750047",
            "locType": "restaurant",
            "closest_to": "virajpet"
        },
        "koppal district": {
            "blogLinks": [
                "https://en.wikipedia.org/wiki/Tourism_in_Karnataka"
            ],
            "longitude": "76.310639117029",
            "address": "Koppal district, Karnataka, India",
            "latitude": "15.57825725",
            "locType": "administrative",
            "closest_to": "virajpet"
        },
        "bannerghatta national park": {
            "blogLinks": [
                "https://en.wikipedia.org/wiki/Tourism_in_Karnataka"
            ],
            "longitude": "77.5722783830694",
            "address": "Bannerghatta National Park, Anekal Road, Begihalli, Bangalore Urban, Karnataka, 560076, India",
            "latitude": "12.77900335",
            "locType": "national_park",
            "closest_to": "virajpet"
        },
        "sharavati": {
            "blogLinks": [
                "https://en.wikipedia.org/wiki/Tourism_in_Karnataka"
            ],
            "longitude": "74.7647294",
            "address": "Sharavati, Sagara taluk, Shimoga district, Karnataka, India",
            "latitude": "14.2360979",
            "locType": "river",
            "closest_to": "virajpet"
        },
        "nataraja": {
            "blogLinks": [
                "https://www.tripoto.com/weekend-getaways/from-virajpet"
            ],
            "longitude": "77.5730381173154",
            "address": "Nataraja, Sirur Park Road, Vyalikaval, Seshadripuram, Bengaluru, Bangalore Urban, Karnataka, 560001, India",
            "latitude": "12.9900332",
            "locType": "cinema",
            "closest_to": "virajpet"
        },
        "kerala": {
            "blogLinks": [
                "http://www.nivalink.com/destination/coorg-(virajpet)",
                "http://www.nivalink.com/destination/coorg-(madikeri)"
            ],
            "longitude": "77.6382683",
            "address": "New Life Kerala Mess, Sai Baba Mandira Road, Mottappanapalaya, Indiranagar, Bengaluru, Bangalore Urban, Karnataka, 560001, India",
            "latitude": "12.9726449",
            "locType": "restaurant",
            "closest_to": "virajpet"
        },
        "bhadra river": {
            "blogLinks": [
                "https://en.wikipedia.org/wiki/Tourism_in_Karnataka"
            ],
            "longitude": "75.527118",
            "address": "Bhadra, Chikkamagaluru taluku, Chikkamagaluru district, Karnataka, India",
            "latitude": "13.4888356",
            "locType": "river",
            "closest_to": "virajpet"
        },
        "madikere": {
            "blogLinks": [
                "https://www.thrillophilia.com/places-to-visit-in-coorg"
            ],
            "longitude": "78.0895724",
            "address": "Madikere, Chintamani taluk, Chikkaballapura district, Karnataka, India",
            "latitude": "13.3755097",
            "locType": "village",
            "closest_to": "virajpet"
        },
        "emerald lake": {
            "blogLinks": [
                "https://www.tripoto.com/weekend-getaways/from-virajpet"
            ],
            "longitude": "77.8188013",
            "address": "Emerald Isle Resort, NH75, Lakshmisagara, Kolar taluk, Kolar district, Karnataka, 563133, India",
            "latitude": "13.0833534",
            "locType": "hotel",
            "closest_to": "virajpet"
        },
        "anshi national park": {
            "blogLinks": [
                "https://en.wikipedia.org/wiki/Tourism_in_Karnataka"
            ],
            "longitude": "74.3934408094182",
            "address": "Anshi National Park, SH46, Bidoli, Joida taluk, Uttara Kannada, Karnataka, India",
            "latitude": "14.9994424",
            "locType": "national_park",
            "closest_to": "virajpet"
        },
        "nethrani island": {
            "blogLinks": [
                "https://en.wikipedia.org/wiki/Tourism_in_Karnataka"
            ],
            "longitude": "74.3272086675849",
            "address": "Netrani, Uttara Kannada, Karnataka, India",
            "latitude": "14.0174924",
            "locType": "island",
            "closest_to": "virajpet"
        },
        "somwarpet": {
            "blogLinks": [
                "http://wikitravel.org/en/Kodagu",
                "https://en.wikipedia.org/wiki/Kodagu_district"
            ],
            "longitude": "75.8457638",
            "address": "Somwarpet, Somawarpet taluk, Kodagu, Karnataka, 571236, India",
            "latitude": "12.6004446",
            "locType": "town",
            "closest_to": "virajpet"
        },
        "karwar": {
            "blogLinks": [
                "https://en.wikipedia.org/wiki/Tourism_in_Karnataka"
            ],
            "longitude": "74.1319229",
            "address": "Karwar, Karavara taluk, Uttara Kannada, Karnataka, 581300, India",
            "latitude": "14.8120931",
            "locType": "town",
            "closest_to": "virajpet"
        },
        "bellary district": {
            "blogLinks": [
                "https://en.wikipedia.org/wiki/Tourism_in_Karnataka"
            ],
            "longitude": "76.7137978546465",
            "address": "Bellary district, Karnataka, India",
            "latitude": "15.20597305",
            "locType": "administrative",
            "closest_to": "virajpet"
        },
        "south karnataka": {
            "blogLinks": [
                "https://en.wikipedia.org/wiki/Tourism_in_Karnataka"
            ],
            "longitude": "77.8040874",
            "address": "s, Vijayapura, Devanahalli taluk, Bangalore Rural, Karnataka, 562135, India",
            "latitude": "13.2942848",
            "locType": "residential",
            "closest_to": "virajpet"
        },
        "nilgiris": {
            "blogLinks": [
                "https://www.tripoto.com/weekend-getaways/from-virajpet",
                "https://en.wikipedia.org/wiki/Tourism_in_Karnataka"
            ],
            "longitude": "77.6069792",
            "address": "Nilgiris, Brigade Road, Tasker Town, Ashok Nagar, Bengaluru, Bangalore Urban, Karnataka, 560001, India",
            "latitude": "12.9725052",
            "locType": "supermarket",
            "closest_to": "virajpet"
        },
        "hampi": {
            "blogLinks": [
                "https://en.wikipedia.org/wiki/Tourism_in_Karnataka"
            ],
            "longitude": "76.4606199",
            "address": "Hampe, Hosapete taluk, Bellary district, Karnataka, 583239, India",
            "latitude": "15.3359769",
            "locType": "village",
            "closest_to": "virajpet"
        },
        "koppal": {
            "blogLinks": [
                "http://www.mapsofindia.com/maps/karnataka/",
                "https://en.wikipedia.org/wiki/Tourism_in_Karnataka"
            ],
            "longitude": "76.1547421",
            "address": "Koppala, Koppala taluku, Koppal district, Karnataka, 583231, India",
            "latitude": "15.3484144",
            "locType": "town",
            "closest_to": "virajpet"
        },
        "mastikatte": {
            "blogLinks": [
                "https://en.wikipedia.org/wiki/Tourism_in_Karnataka"
            ],
            "longitude": "74.4604101",
            "address": "Mastikatte, Ankola taluk, Uttara Kannada, Karnataka, India",
            "latitude": "14.6857168",
            "locType": "village",
            "closest_to": "virajpet"
        },
        "harangi dam": {
            "blogLinks": [
                "https://www.thrillophilia.com/places-to-visit-in-coorg"
            ],
            "longitude": "75.9056999171375",
            "address": "Harangi dam, Somawarpet taluk, Kodagu, Karnataka, India",
            "latitude": "12.4928663",
            "locType": "dam",
            "closest_to": "virajpet"
        },
        "netravati": {
            "blogLinks": [
                "https://en.wikipedia.org/wiki/Tourism_in_Karnataka"
            ],
            "longitude": "75.1562182",
            "address": "Netravati, Bantwal taluk, Dakshina Kannada, Karnataka, India",
            "latitude": "12.8537655",
            "locType": "river",
            "closest_to": "virajpet"
        },
        "kabini river": {
            "blogLinks": [
                "https://en.wikipedia.org/wiki/Tourism_in_Karnataka"
            ],
            "longitude": "76.6477184",
            "address": "Kabini right bank canal, Nanjanagudu taluk, Mysuru district, Karnataka, India",
            "latitude": "12.0780998",
            "locType": "canal",
            "closest_to": "virajpet"
        },
        "us": {
            "blogLinks": [
                "https://en.wikipedia.org/wiki/Kodagu_district"
            ],
            "longitude": "75.7223521",
            "address": "Karnataka, India",
            "latitude": "14.5203896",
            "locType": "administrative",
            "closest_to": "virajpet"
        },
        "banashankari temple": {
            "blogLinks": [
                "https://en.wikipedia.org/wiki/Tourism_in_Karnataka"
            ],
            "longitude": "77.5731752886765",
            "address": "Banashankari Temple, Kanakapura Road, JP Nagar 1st Phase, Kaderenahalli, Bengaluru, Bangalore Urban, Karnataka, 560001, India",
            "latitude": "12.91568785",
            "locType": "place_of_worship",
            "closest_to": "virajpet"
        },
        "west": {
            "blogLinks": [
                "http://www.nivalink.com/destination/coorg-(virajpet)"
            ],
            "longitude": "77.5960999",
            "address": "w, Balmuri Main Road, Hulimavu,, Bannerghatta Road, Mico Arekere Layout 1st Stage, Hulimavu, Bengaluru, Bangalore Urban, Karnataka, 560076, India",
            "latitude": "12.8759384",
            "locType": "clothes",
            "closest_to": "virajpet"
        },
        "lakshmana tirtha river": {
            "blogLinks": [
                "http://www.nivalink.com/destination/coorg-(virajpet)",
                "https://en.wikipedia.org/wiki/Kodagu_district"
            ],
            "longitude": "75.9839484",
            "address": "Iruppu Falls, SH89, Taila, Virajpet taluk, Kodagu, Karnataka, 571217, India",
            "latitude": "11.9667954",
            "locType": "attraction",
            "closest_to": "virajpet"
        },
        "gotagodi village": {
            "blogLinks": [
                "https://en.wikipedia.org/wiki/Tourism_in_Karnataka"
            ],
            "longitude": "75.0452834",
            "address": "Gotagodi, Hanagal taluk, Haveri district, Karnataka, India",
            "latitude": "14.7634556",
            "locType": "village",
            "closest_to": "virajpet"
        },
        "andhra pradesh": {
            "blogLinks": [
                "http://www.mapsofindia.com/maps/karnataka/"
            ],
            "longitude": "79.3452447",
            "address": "Karnataka, West Mada Street, Srivari Temple, Tirumala, Chittoor, Andhra Pradesh, 517504, India",
            "latitude": "13.6841958",
            "locType": "hotel",
            "closest_to": "virajpet"
        },
        "ayodhya": {
            "blogLinks": [
                "https://en.wikipedia.org/wiki/Kodagu_district"
            ],
            "longitude": "76.5832762",
            "address": "Ayodhya, Gangavati taluku, Koppal district, Karnataka, India",
            "latitude": "15.4313866",
            "locType": "village",
            "closest_to": "virajpet"
        },
        "doddamakali": {
            "blogLinks": [
                "http://www.nivalink.com/destination/coorg-(virajpet)",
                "http://www.nivalink.com/destination/coorg-(madikeri)"
            ],
            "longitude": "77.2173416",
            "address": "Doddamakali, Dalanakatte, Malavalli taluk, Mandya district, Karnataka, India",
            "latitude": "12.3096676",
            "locType": "locality",
            "closest_to": "virajpet"
        },
        "mercara": {
            "blogLinks": [
                "http://wikitravel.org/en/Kodagu",
                "https://en.wikipedia.org/wiki/Tourism_in_Karnataka",
                "https://en.wikipedia.org/wiki/Kodagu_district"
            ],
            "longitude": "75.740031",
            "address": "Madikeri, Madikeri taluku, Kodagu, Karnataka, India",
            "latitude": "12.4204003",
            "locType": "town",
            "closest_to": "virajpet"
        },
        "kotebetta": {
            "blogLinks": [
                "http://wikitravel.org/en/Kodagu"
            ],
            "longitude": "76.7953096",
            "address": "Kotebetta, Nagamangala taluk, Mandya district, Karnataka, India",
            "latitude": "12.8458901",
            "locType": "village",
            "closest_to": "virajpet"
        },
        "afzalpur": {
            "blogLinks": [
                "https://en.wikipedia.org/wiki/Tourism_in_Karnataka"
            ],
            "longitude": "76.3605783",
            "address": "Afzalpur, Afzalpura taluku, Kalaburagi district, Karnataka, 585301, India",
            "latitude": "17.2005764",
            "locType": "town",
            "closest_to": "virajpet"
        },
        "sannati": {
            "blogLinks": [
                "https://en.wikipedia.org/wiki/Tourism_in_Karnataka"
            ],
            "longitude": "76.9080631",
            "address": "Sannati, Chitapura taluku, Kalaburagi district, Karnataka, India",
            "latitude": "16.8293201",
            "locType": "village",
            "closest_to": "virajpet"
        },
        "chelavara falls": {
            "blogLinks": [
                "https://www.thrillophilia.com/places-to-visit-in-coorg",
                "http://wikitravel.org/en/Kodagu"
            ],
            "longitude": "75.6734811730693",
            "address": "Chelavara Falls, Madikeri taluku, Kodagu, Karnataka, India",
            "latitude": "12.20601005",
            "locType": "waterfall",
            "closest_to": "virajpet"
        },
        "uttara kannada": {
            "blogLinks": [
                "https://en.wikipedia.org/wiki/Tourism_in_Karnataka",
                "http://traveltriangle.com/blog/places-to-visit-in-coorg/"
            ],
            "longitude": "74.4729163045979",
            "address": "Uttara Kannada, Karnataka, India",
            "latitude": "14.6726379",
            "locType": "administrative",
            "closest_to": "virajpet"
        },
        "dharma river": {
            "blogLinks": [
                "https://en.wikipedia.org/wiki/Tourism_in_Karnataka"
            ],
            "longitude": "77.5575864485219",
            "address": "Dharma Naidu Udhyanavana, 44th cross, Rajajinagar 4th Block, Rajaji Nagar, Bengaluru, Bangalore Urban, Karnataka, 560001, India",
            "latitude": "12.98914885",
            "locType": "park",
            "closest_to": "virajpet"
        },
        "lal bagh": {
            "blogLinks": [
                "https://www.tripoto.com/weekend-getaways/from-virajpet"
            ],
            "longitude": "74.8386152",
            "address": "Lal Bagh Bus Stop, Mahatma Gandhi Road, Lalbagh, Ladyhill, Mangaluru, Mangaluru taluk, Dakshina Kannada, Karnataka, 575001, India",
            "latitude": "12.8859223",
            "locType": "bus_stop",
            "closest_to": "virajpet"
        },
        "chamarajanagar": {
            "blogLinks": [
                "http://www.mapsofindia.com/maps/karnataka/",
                "https://en.wikipedia.org/wiki/Tourism_in_Karnataka"
            ],
            "longitude": "76.9331345",
            "address": "Chamarajanagar, Nanjangudu-Chamarajanagar Road, Kadahalli, Chamarajanagara taluk, Chamarajanagar district, Karnataka, 571313, India",
            "latitude": "11.9346624",
            "locType": "station",
            "closest_to": "virajpet"
        },
        "tibet": {
            "blogLinks": [
                "http://wikitravel.org/en/Kodagu"
            ],
            "longitude": "77.6068828",
            "address": "Tibet Bazaar, Brigade Road, Tasker Town, Ashok Nagar, Bengaluru, Bangalore Urban, Karnataka, 560001, India",
            "latitude": "12.9722398",
            "locType": "supermarket",
            "closest_to": "virajpet"
        },
        "arabhavi": {
            "blogLinks": [
                "https://en.wikipedia.org/wiki/Tourism_in_Karnataka"
            ],
            "longitude": "74.8213227",
            "address": "Arabhavi, Gokak taluku, Belgaum district, Karnataka, India",
            "latitude": "16.2193552",
            "locType": "village",
            "closest_to": "virajpet"
        },
        "mandalpatti": {
            "blogLinks": [
                "https://www.thrillophilia.com/places-to-visit-in-coorg",
                "http://wikitravel.org/en/Kodagu"
            ],
            "longitude": "75.7307012",
            "address": "Mandalpatti road junction, Galibidu Road, Kalakeri Nidugane, Madikeri taluku, Kodagu, Karnataka, India",
            "latitude": "12.4486242",
            "locType": "attraction",
            "closest_to": "virajpet"
        },
        "banavasi": {
            "blogLinks": [
                "https://en.wikipedia.org/wiki/Tourism_in_Karnataka"
            ],
            "longitude": "75.0129845",
            "address": "Banavasi, Shirasi taluk, Uttara Kannada, Karnataka, India",
            "latitude": "14.5389738",
            "locType": "town",
            "closest_to": "virajpet"
        },
        "club mahindra": {
            "blogLinks": [
                "https://www.tripadvisor.com/Hotel_Review-g1638802-d4341806-Reviews-Club_Mahindra_Virajpet_Coorg-Virajpet_Kodagu_Coorg_Karnataka.html"
            ],
            "longitude": "75.7164394",
            "address": "Club Mahindra, Galibidu Road, Kalakeri Nidugane, Madikeri taluku, Kodagu, Karnataka, India",
            "latitude": "12.4413137",
            "locType": "hotel",
            "closest_to": "virajpet"
        },
        "bylakuppe": {
            "blogLinks": [
                "http://traveltriangle.com/blog/places-to-visit-in-coorg/"
            ],
            "longitude": "75.9953435",
            "address": "Bylakuppe, Piriyapattana taluk, Mysuru district, Karnataka, India",
            "latitude": "12.4292508",
            "locType": "village",
            "closest_to": "virajpet"
        },
        "iruppu falls": {
            "blogLinks": [
                "http://wikitravel.org/en/Kodagu",
                "https://www.thrillophilia.com/places-to-visit-in-coorg",
                "https://en.wikipedia.org/wiki/Kodagu_district"
            ],
            "longitude": "75.9839484",
            "address": "Iruppu Falls, SH89, Taila, Virajpet taluk, Kodagu, Karnataka, 571217, India",
            "latitude": "11.9667954",
            "locType": "attraction",
            "closest_to": "virajpet"
        },
        "kalaseshwara temple": {
            "blogLinks": [
                "http://www.nivalink.com/destination/coorg-(virajpet)",
                "http://www.nivalink.com/destination/coorg-(madikeri)"
            ],
            "longitude": "75.363446975",
            "address": "Kalaseshwara Temple, SH66, Kalasa, Mudigere taluk, Chikkamagaluru district, Karnataka, 577124, India",
            "latitude": "13.23228505",
            "locType": "place_of_worship",
            "closest_to": "virajpet"
        },
        "botanical gardens": {
            "blogLinks": [
                "https://www.tripoto.com/weekend-getaways/from-virajpet"
            ],
            "longitude": "77.5744817798899",
            "address": "Botanical Garden, Cart road, Judicial Layout, Jakkur, Bangalore Urban, Karnataka, 560065, India",
            "latitude": "13.08099125",
            "locType": "protected_area",
            "closest_to": "virajpet"
        },
        "sikkim": {
            "blogLinks": [
                "https://www.thrillophilia.com/places-to-visit-in-coorg"
            ],
            "longitude": "77.6704479",
            "address": "Sikkim Manipal University, Sarjapur Road, Devarabisanahalli, Bellandur, Doddakannelli, Bangalore Urban, Karnataka, 560035, India",
            "latitude": "12.9185721",
            "locType": "yes",
            "closest_to": "virajpet"
        },
        "mandalpatti view point": {
            "blogLinks": [
                "http://traveltriangle.com/blog/places-to-visit-in-coorg/"
            ],
            "longitude": "75.7037103",
            "address": "Mandalpatti last jeep point, Kaluru, Madikeri taluku, Kodagu, Karnataka, India",
            "latitude": "12.5424116",
            "locType": "attraction",
            "closest_to": "virajpet"
        },
        "udipi": {
            "blogLinks": [
                "http://www.nivalink.com/destination/coorg-(virajpet)",
                "http://www.nivalink.com/destination/coorg-(madikeri)"
            ],
            "longitude": "77.652888",
            "address": "Udipi Park, 2nd Cross Road, Muniyappa Layout, Murugeshpalaya, Belure Ambedkar Nagar, Bangalore Urban, Karnataka, 560067, India",
            "latitude": "12.9530588",
            "locType": "restaurant",
            "closest_to": "virajpet"
        },
        "kashi": {
            "blogLinks": [
                "https://www.thrillophilia.com/places-to-visit-in-coorg",
                "https://en.wikipedia.org/wiki/Kodagu_district"
            ],
            "longitude": "74.9977469",
            "address": "Moodabidri, Mangaluru taluk, Dakshina Kannada, Karnataka, 574227, India",
            "latitude": "13.0699218",
            "locType": "town",
            "closest_to": "virajpet"
        },
        "mandya district": {
            "blogLinks": [
                "https://en.wikipedia.org/wiki/Tourism_in_Karnataka"
            ],
            "longitude": "76.7302318329607",
            "address": "Mandya district, Karnataka, India",
            "latitude": "12.6336348",
            "locType": "administrative",
            "closest_to": "virajpet"
        },
        "london": {
            "blogLinks": [
                "https://en.wikipedia.org/wiki/Kodagu_district"
            ],
            "longitude": "75.7223521",
            "address": "Karnataka, India",
            "latitude": "14.5203896",
            "locType": "administrative",
            "closest_to": "virajpet"
        },
        "kumara parvatha": {
            "blogLinks": [
                "https://www.thrillophilia.com/places-to-visit-in-coorg"
            ],
            "longitude": "75.6865652",
            "address": "Kumara Parvatha, Somawarpet taluk, Kodagu, Karnataka, India",
            "latitude": "12.6623315",
            "locType": "peak",
            "closest_to": "virajpet"
        },
        "srirangapatna": {
            "blogLinks": [
                "https://en.wikipedia.org/wiki/Tourism_in_Karnataka"
            ],
            "longitude": "76.6850743",
            "address": "Srirangapatna, Srirangapattana taluk, Mandya district, Karnataka, 571438, India",
            "latitude": "12.4225604",
            "locType": "town",
            "closest_to": "virajpet"
        },
        "pattadakal": {
            "blogLinks": [
                "https://en.wikipedia.org/wiki/Tourism_in_Karnataka"
            ],
            "longitude": "75.815884048161",
            "address": "Pattadakal Temples, SH14, \u0cac\u0cbe\u0c9a\u0cbf\u0ca8\u0c97\u0cc1\u0ca1\u0ccd\u0ca1, Badami taluku, Bagalkote district, Karnataka, 587211, India",
            "latitude": "15.9506349",
            "locType": "attraction",
            "closest_to": "virajpet"
        },
        "maharashtra": {
            "blogLinks": [
                "http://www.mapsofindia.com/maps/karnataka/",
                "https://en.wikipedia.org/wiki/Tourism_in_Karnataka"
            ],
            "longitude": "77.5856013",
            "address": "Bank of Maharashtra, 24th Main, K R Layout, Puttenahalli, Bengaluru, Bangalore Urban, Karnataka, 560001, India",
            "latitude": "12.9049455",
            "locType": "bank",
            "closest_to": "virajpet"
        },
        "north coorg": {
            "blogLinks": [
                "https://www.thrillophilia.com/places-to-visit-in-coorg"
            ],
            "longitude": "75.740031",
            "address": "Madikeri, Madikeri taluku, Kodagu, Karnataka, India",
            "latitude": "12.4204003",
            "locType": "town",
            "closest_to": "virajpet"
        },
        "grevillea": {
            "blogLinks": [
                "https://en.wikipedia.org/wiki/Kodagu_district"
            ],
            "longitude": "77.5845738",
            "address": "Grevillea Robusta A.Cunn - Australian Silver Oak, Krumbiegal Road, Mavalli, VV Puram, Bengaluru, Bangalore Urban, Karnataka, 560001, India",
            "latitude": "12.9539614",
            "locType": "tree",
            "closest_to": "virajpet"
        },
        "barapole": {
            "blogLinks": [
                "https://www.guesthouser.com/stays/karnataka/cottages-in-kodagu",
                "http://wikitravel.org/en/Kodagu"
            ],
            "longitude": "75.8218551",
            "address": "Barapole, Virajpet taluk, Kodagu, Karnataka, India",
            "latitude": "12.0738308",
            "locType": "river",
            "closest_to": "virajpet"
        },
        "dharwad": {
            "blogLinks": [
                "http://www.mapsofindia.com/maps/karnataka/",
                "https://en.wikipedia.org/wiki/Tourism_in_Karnataka"
            ],
            "longitude": "75.0066516",
            "address": "Dharwad, Dharawada taluku, Dharwad district, Karnataka, 580001, India",
            "latitude": "15.4540505",
            "locType": "city",
            "closest_to": "virajpet"
        },
        "chitradurga": {
            "blogLinks": [
                "http://www.mapsofindia.com/maps/karnataka/",
                "https://en.wikipedia.org/wiki/Tourism_in_Karnataka"
            ],
            "longitude": "76.4005122",
            "address": "Chitradurga, Chitradurga taluku, Chitradurga district, Karnataka, 577500, India",
            "latitude": "14.2266443",
            "locType": "town",
            "closest_to": "virajpet"
        },
        "bankapura": {
            "blogLinks": [
                "https://en.wikipedia.org/wiki/Tourism_in_Karnataka"
            ],
            "longitude": "75.2639298",
            "address": "Bankapura, Shiggaon taluk, Haveri district, Karnataka, 581202, India",
            "latitude": "14.9217443",
            "locType": "town",
            "closest_to": "virajpet"
        },
        "nagarahole national park": {
            "blogLinks": [
                "https://en.wikipedia.org/wiki/Tourism_in_Karnataka",
                "https://en.wikipedia.org/wiki/Kodagu_district"
            ],
            "longitude": "76.1537073415874",
            "address": "Nagarahole National Park, Virajpet taluk, Kodagu, Karnataka, India",
            "latitude": "12.0600362",
            "locType": "national_park",
            "closest_to": "virajpet"
        },
        "bellary": {
            "blogLinks": [
                "http://www.mapsofindia.com/maps/karnataka/",
                "https://en.wikipedia.org/wiki/Tourism_in_Karnataka"
            ],
            "longitude": "76.8323648",
            "address": "Bellary, Bellary district, Karnataka, India",
            "latitude": "15.2485413",
            "locType": "county",
            "closest_to": "virajpet"
        },
        "chikmagalur district": {
            "blogLinks": [
                "https://en.wikipedia.org/wiki/Tourism_in_Karnataka"
            ],
            "longitude": "75.5",
            "address": "Chikmagalur, Chikkamagaluru district, Karnataka, India",
            "latitude": "13.5",
            "locType": "county",
            "closest_to": "virajpet"
        },
        "iruppu": {
            "blogLinks": [
                "http://wikitravel.org/en/Kodagu"
            ],
            "longitude": "75.9839484",
            "address": "Iruppu Falls, SH89, Taila, Virajpet taluk, Kodagu, Karnataka, 571217, India",
            "latitude": "11.9667954",
            "locType": "attraction",
            "closest_to": "virajpet"
        },
        "rameshwara temple": {
            "blogLinks": [
                "https://www.thrillophilia.com/places-to-visit-in-coorg",
                "https://www.guesthouser.com/stays/karnataka/cottages-in-kodagu"
            ],
            "longitude": "77.5678621969321",
            "address": "Rameshwara Temple, Kranthikavi Sarvagnya Road, Rajajinagar 4th Block, Sriramapura, Bengaluru, Bangalore Urban, Karnataka, 560001, India",
            "latitude": "12.99365815",
            "locType": "place_of_worship",
            "closest_to": "virajpet"
        },
        "varadaraja": {
            "blogLinks": [
                "https://en.wikipedia.org/wiki/Tourism_in_Karnataka"
            ],
            "longitude": "77.5542736",
            "address": "Varadaraja Petrol / Gas Station, Dr. Rajkumar Road, Rajajinagar 1st Block, Subrahmanya Nagar, Bengaluru, Bangalore Urban, Karnataka, 560001, India",
            "latitude": "13.005885",
            "locType": "fuel",
            "closest_to": "virajpet"
        },
        "malayalam": {
            "blogLinks": [
                "https://en.wikipedia.org/wiki/Kodagu_district"
            ],
            "longitude": "77.6774283",
            "address": "Lowry Adventist Malayalam Church, A Narayanapura Main Road, Darga Mohalla, Udaya Nagar, A Narayanapura, Bangalore Urban, Karnataka, 560016, India",
            "latitude": "12.9985726",
            "locType": "place_of_worship",
            "closest_to": "virajpet"
        },
        "brahmagiri range": {
            "blogLinks": [
                "http://www.nivalink.com/destination/coorg-(virajpet)"
            ],
            "longitude": "76.8122474",
            "address": "Brahmagiri Betta, Molakalmuru taluku, Chitradurga district, Karnataka, India",
            "latitude": "14.8001586",
            "locType": "peak",
            "closest_to": "virajpet"
        },
        "hassan district": {
            "blogLinks": [
                "https://en.wikipedia.org/wiki/Tourism_in_Karnataka"
            ],
            "longitude": "76.1745460751981",
            "address": "Hassan district, Karnataka, India",
            "latitude": "13.0315068",
            "locType": "administrative",
            "closest_to": "virajpet"
        },
        "pushpagiri": {
            "blogLinks": [
                "https://www.thrillophilia.com/places-to-visit-in-coorg"
            ],
            "longitude": "77.5333268",
            "address": "Pushpagiri Nagar, Bengaluru, Bangalore Urban, Karnataka, 560001, India",
            "latitude": "12.9297622",
            "locType": "locality",
            "closest_to": "virajpet"
        },
        "kavadi": {
            "blogLinks": [
                "https://en.wikipedia.org/wiki/Kodagu_district"
            ],
            "longitude": "75.229639",
            "address": "Kavadi, Soraba taluk, Shimoga district, Karnataka, India",
            "latitude": "14.3281576",
            "locType": "village",
            "closest_to": "virajpet"
        },
        "sagara taluk": {
            "blogLinks": [
                "https://en.wikipedia.org/wiki/Tourism_in_Karnataka"
            ],
            "longitude": "74.9610874491152",
            "address": "Sagara taluk, Shimoga district, Karnataka, India",
            "latitude": "14.09993045",
            "locType": "administrative",
            "closest_to": "virajpet"
        },
        "madikeri taluk": {
            "blogLinks": [
                "http://wikitravel.org/en/Kodagu"
            ],
            "longitude": "75.772911",
            "address": "Virajapet - Madikeri Road, Arameri, Virajpet taluk, Kodagu, Karnataka, India",
            "latitude": "12.23531",
            "locType": "primary",
            "closest_to": "virajpet"
        },
        "varada": {
            "blogLinks": [
                "https://en.wikipedia.org/wiki/Tourism_in_Karnataka"
            ],
            "longitude": "75.47206",
            "address": "Varada, Savanura taluk, Haveri district, Karnataka, India",
            "latitude": "14.8717792",
            "locType": "river",
            "closest_to": "virajpet"
        },
        "kasargod": {
            "blogLinks": [
                "https://en.wikipedia.org/wiki/Kodagu_district"
            ],
            "longitude": "74.8585848",
            "address": "Mangaluru-Kasargod Highway, Bolar, Thokkottu, Mangaluru taluk, Dakshina Kannada, Karnataka, 574159, India",
            "latitude": "12.8107348",
            "locType": "trunk",
            "closest_to": "virajpet"
        },
        "shravanabelagola": {
            "blogLinks": [
                "https://en.wikipedia.org/wiki/Tourism_in_Karnataka"
            ],
            "longitude": "76.4869997",
            "address": "Shravanabelagola, Channarayapattana taluk, Hassan district, Karnataka, 573135, India",
            "latitude": "12.8581305",
            "locType": "town",
            "closest_to": "virajpet"
        },
        "chettalli": {
            "blogLinks": [
                "http://traveltriangle.com/blog/places-to-visit-in-coorg/"
            ],
            "longitude": "75.8308074",
            "address": "Chettalli, Somawarpet taluk, Kodagu, Karnataka, India",
            "latitude": "12.370303",
            "locType": "village",
            "closest_to": "virajpet"
        },
        "kalasa": {
            "blogLinks": [
                "https://en.wikipedia.org/wiki/Tourism_in_Karnataka"
            ],
            "longitude": "75.3582366",
            "address": "Kalasa, Mudigere taluk, Chikkamagaluru district, Karnataka, 577124, India",
            "latitude": "13.2322235",
            "locType": "town",
            "closest_to": "virajpet"
        },
        "kambadahalli": {
            "blogLinks": [
                "https://en.wikipedia.org/wiki/Tourism_in_Karnataka"
            ],
            "longitude": "77.1671918",
            "address": "Kambadahalli, Madhugiri taluk, Tumkur district, Karnataka, India",
            "latitude": "13.6843692",
            "locType": "village",
            "closest_to": "virajpet"
        },
        "india": {
            "blogLinks": [
                "http://wikitravel.org/en/Kodagu"
            ],
            "longitude": "75.7223521",
            "address": "Karnataka, India",
            "latitude": "14.5203896",
            "locType": "administrative",
            "closest_to": "virajpet"
        },
        "national park": {
            "blogLinks": [
                "https://www.tripoto.com/weekend-getaways/from-virajpet",
                "https://www.thrillophilia.com/places-to-visit-in-coorg"
            ],
            "longitude": "77.5722783830694",
            "address": "Bannerghatta National Park, Anekal Road, Begihalli, Bangalore Urban, Karnataka, 560076, India",
            "latitude": "12.77900335",
            "locType": "national_park",
            "closest_to": "virajpet"
        },
        "bhagamandala": {
            "blogLinks": [
                "http://wikitravel.org/en/Kodagu",
                "https://www.thrillophilia.com/places-to-visit-in-coorg",
                "https://en.wikipedia.org/wiki/Kodagu_district"
            ],
            "longitude": "75.5290234",
            "address": "Bhagamandala, Madikeri taluku, Kodagu, Karnataka, India",
            "latitude": "12.3857285",
            "locType": "village",
            "closest_to": "virajpet"
        },
        "bijapur": {
            "blogLinks": [
                "https://en.wikipedia.org/wiki/Tourism_in_Karnataka"
            ],
            "longitude": "75.7175387",
            "address": "Vijayapura, Vijayapura taluk, Bijapur district, Karnataka, 586101, India",
            "latitude": "16.8269911",
            "locType": "city",
            "closest_to": "virajpet"
        },
        "urdu": {
            "blogLinks": [
                "https://en.wikipedia.org/wiki/Kodagu_district"
            ],
            "longitude": "75.636575371858",
            "address": "Urdu Ground, Ranebennur, Ranebennuru taluk, Haveri district, Karnataka, 581115, India",
            "latitude": "14.6180369",
            "locType": "recreation_ground",
            "closest_to": "virajpet"
        },
        "tungabhadra": {
            "blogLinks": [
                "https://en.wikipedia.org/wiki/Tourism_in_Karnataka"
            ],
            "longitude": "76.4931607",
            "address": "Tungabhadra, Gangavati taluku, Koppal district, Karnataka, India",
            "latitude": "15.3446123",
            "locType": "river",
            "closest_to": "virajpet"
        },
        "kuknur": {
            "blogLinks": [
                "https://en.wikipedia.org/wiki/Tourism_in_Karnataka"
            ],
            "longitude": "75.9934934",
            "address": "Kukanura, Yelaburga taluku, Koppal district, Karnataka, 583232, India",
            "latitude": "15.4902753",
            "locType": "village",
            "closest_to": "virajpet"
        },
        "mysore": {
            "blogLinks": [
                "https://en.wikipedia.org/wiki/Kodagu_district"
            ],
            "longitude": "76.6553609",
            "address": "Mysuru, Mysuru taluk, Mysuru district, Karnataka, 570001, India",
            "latitude": "12.3051828",
            "locType": "city",
            "closest_to": "virajpet"
        },
        "nagareshwara": {
            "blogLinks": [
                "https://en.wikipedia.org/wiki/Tourism_in_Karnataka"
            ],
            "longitude": "77.3934679",
            "address": "Nagareshwara Temple, SH126, Dantapur, Yadagiri taluku, Yadagiri district, Karnataka, India",
            "latitude": "16.8662525",
            "locType": "place_of_worship",
            "closest_to": "virajpet"
        },
        "siddapur": {
            "blogLinks": [
                "http://wikitravel.org/en/Kodagu"
            ],
            "longitude": "74.911019",
            "address": "Siddapur, \u0c95\u0cc1\u0c82\u0ca6\u0cbe\u0caa\u0cc1\u0cb0 \u0ca4\u0cbe\u0cb2\u0cc2\u0c95\u0cc1, Udupi district, Karnataka, 576229, India",
            "latitude": "13.6626885",
            "locType": "village",
            "closest_to": "virajpet"
        },
        "anegundi": {
            "blogLinks": [
                "https://en.wikipedia.org/wiki/Tourism_in_Karnataka"
            ],
            "longitude": "76.4924232",
            "address": "Anegundi, Gangavati taluku, Koppal district, Karnataka, India",
            "latitude": "15.3509583",
            "locType": "village",
            "closest_to": "virajpet"
        },
        "tumkur": {
            "blogLinks": [
                "https://en.wikipedia.org/wiki/Tourism_in_Karnataka"
            ],
            "longitude": "77.0002445",
            "address": "Tumakuru, Tumkur district, Karnataka, India",
            "latitude": "13.4999406",
            "locType": "county",
            "closest_to": "virajpet"
        },
        "shirali": {
            "blogLinks": [
                "https://en.wikipedia.org/wiki/Tourism_in_Karnataka"
            ],
            "longitude": "74.5286591",
            "address": "Shirali, Bhatkala taluk, Uttara Kannada, Karnataka, 581354, India",
            "latitude": "14.0280925",
            "locType": "village",
            "closest_to": "virajpet"
        },
        "gadag district": {
            "blogLinks": [
                "https://en.wikipedia.org/wiki/Tourism_in_Karnataka"
            ],
            "longitude": "75.6807542794645",
            "address": "Gadag district, Karnataka, India",
            "latitude": "15.416337",
            "locType": "administrative",
            "closest_to": "virajpet"
        },
        "kanakpura road": {
            "blogLinks": [
                "https://www.tripoto.com/weekend-getaways/from-virajpet"
            ],
            "longitude": "77.5438085908703",
            "address": "H 902, Mantri Tranquil, Gubbalala, Off Kanakpura Road, Bengaluru - 61, Subramanyapura Main Road, Singapore Gardens, Uttarahalli, Gubbalala, Bangalore Urban, Karnataka, 560086, India",
            "latitude": "12.8866679",
            "locType": "yes",
            "closest_to": "virajpet"
        },
        "tadiandamol": {
            "blogLinks": [
                "https://www.tripoto.com/weekend-getaways/from-virajpet",
                "https://www.thrillophilia.com/places-to-visit-in-coorg",
                "https://www.tripoto.com/travel-guide/virajpet/places-to-visit",
                "https://en.wikipedia.org/wiki/Kodagu_district"
            ],
            "longitude": "75.608815",
            "address": "Tadiandamol, Madikeri taluku, Kodagu, Karnataka, India",
            "latitude": "12.2175641",
            "locType": "peak",
            "closest_to": "virajpet"
        },
        "siddheshwara": {
            "blogLinks": [
                "https://en.wikipedia.org/wiki/Tourism_in_Karnataka"
            ],
            "longitude": "77.5876527",
            "address": "Siddheshwara Medicals, Judicial Layout, Allalasandra, Bangalore, 7th Main Road, Judicial Layout, Bengaluru, Bangalore Urban, Karnataka, 560001, India",
            "latitude": "13.0797146",
            "locType": "pharmacy",
            "closest_to": "virajpet"
        },
        "chikkamagaluru": {
            "blogLinks": [
                "https://en.wikipedia.org/wiki/Kodagu_district"
            ],
            "longitude": "75.7738743",
            "address": "Chikkamagaluru, Chikkamagaluru taluku, Chikkamagaluru district, Karnataka, 577101, India",
            "latitude": "13.318014",
            "locType": "city",
            "closest_to": "virajpet"
        },
        "lakkundi": {
            "blogLinks": [
                "https://en.wikipedia.org/wiki/Tourism_in_Karnataka"
            ],
            "longitude": "76.4084687",
            "address": "Lakkundi, Muddebihala taluku, Bijapur district, Karnataka, India",
            "latitude": "16.5255464",
            "locType": "village",
            "closest_to": "virajpet"
        },
        "south coorg": {
            "blogLinks": [
                "http://www.nivalink.com/destination/coorg-(virajpet)",
                "http://wikitravel.org/en/Kodagu"
            ],
            "longitude": "75.740031",
            "address": "Madikeri, Madikeri taluku, Kodagu, Karnataka, India",
            "latitude": "12.4204003",
            "locType": "town",
            "closest_to": "virajpet"
        },
        "kanaganahalli": {
            "blogLinks": [
                "https://en.wikipedia.org/wiki/Tourism_in_Karnataka"
            ],
            "longitude": "76.5876958",
            "address": "Kanaganahalli, Pandavapura taluk, Mandya district, Karnataka, India",
            "latitude": "12.5588444",
            "locType": "village",
            "closest_to": "virajpet"
        },
        "brahma": {
            "blogLinks": [
                "http://wikitravel.org/en/Kodagu",
                "https://en.wikipedia.org/wiki/Kodagu_district"
            ],
            "longitude": "75.9026723908286",
            "address": "Sadguru Brahma Chaitanya Mandira, Ring Road, Vinobanagara, Davanagere, Davanagere taluku, Davanagere district, Karnataka, 577004, India",
            "latitude": "14.4564816",
            "locType": "place_of_worship",
            "closest_to": "virajpet"
        },
        "coorg": {
            "blogLinks": [
                "http://blog.bonggeek.com/2010/01/bidar-road-trip-from-hyderabad.html",
                "http://www.nivalink.com/destination/coorg-(madikeri)",
                "https://en.wikipedia.org/wiki/Kodagu_district",
                "http://www.nivalink.com/destination/coorg-(virajpet)",
                "http://traveltriangle.com/blog/places-to-visit-in-coorg/",
                "https://www.thrillophilia.com/places-to-visit-in-coorg",
                "http://wikitravel.org/en/Kodagu"
            ],
            "longitude": "75.740031",
            "address": "Madikeri, Madikeri taluku, Kodagu, Karnataka, India",
            "latitude": "12.4204003",
            "locType": "town",
            "closest_to": "virajpet"
        },
        "bagalkot district": {
            "blogLinks": [
                "https://en.wikipedia.org/wiki/Tourism_in_Karnataka"
            ],
            "longitude": "75.6967919",
            "address": "Bagalakote, Bagalakote taluk, Bagalkote district, Karnataka, India",
            "latitude": "16.1853166",
            "locType": "city",
            "closest_to": "virajpet"
        },
        "bandipur national park": {
            "blogLinks": [
                "https://en.wikipedia.org/wiki/Tourism_in_Karnataka"
            ],
            "longitude": "76.4314968740264",
            "address": "Bandipur National Park, Kozhikode - Kollegal Highway, Gundlupet taluk, Chamarajanagar district, Karnataka, India",
            "latitude": "11.76682425",
            "locType": "national_park",
            "closest_to": "virajpet"
        },
        "ganiga": {
            "blogLinks": [
                "https://en.wikipedia.org/wiki/Kodagu_district"
            ],
            "longitude": "76.8817824",
            "address": "Ganiga, Mandya taluk, Mandya district, Karnataka, India",
            "latitude": "12.7518557",
            "locType": "village",
            "closest_to": "virajpet"
        },
        "kodagu": {
            "blogLinks": [
                "https://www.tripoto.com/travel-guide/virajpet/places-to-visit",
                "https://en.wikipedia.org/wiki/Kodagu_district",
                "http://www.nivalink.com/destination/coorg-(virajpet)",
                "https://en.wikipedia.org/wiki/Tourism_in_Karnataka",
                "https://www.guesthouser.com/stays/karnataka/cottages-in-kodagu",
                "https://www.tripoto.com/weekend-getaways/from-virajpet",
                "http://wikitravel.org/en/Kodagu",
                "https://www.tripadvisor.com/Hotel_Review-g1638802-d4341806-Reviews-Club_Mahindra_Virajpet_Coorg-Virajpet_Kodagu_Coorg_Karnataka.html",
                "http://www.mapsofindia.com/maps/karnataka/"
            ],
            "longitude": "75.6677235950852",
            "address": "Kodagu, Karnataka, India",
            "latitude": "12.38117345",
            "locType": "administrative",
            "closest_to": "virajpet"
        },
        "chola": {
            "blogLinks": [
                "https://en.wikipedia.org/wiki/Tourism_in_Karnataka"
            ],
            "longitude": "76.098782",
            "address": "Chola Gold Loan, Bengaluru - Mangaluru Road, Ravindra Nagar, Santhe Pete, Hassan, Hasana taluk, Hassan district, Karnataka, 573201, India",
            "latitude": "13.0023906",
            "locType": "yes",
            "closest_to": "virajpet"
        },
        "karnataka": {
            "blogLinks": [
                "http://blog.bonggeek.com/2010/01/bidar-road-trip-from-hyderabad.html",
                "http://www.nivalink.com/destination/coorg-(madikeri)",
                "https://www.tripoto.com/travel-guide/virajpet/places-to-visit",
                "https://en.wikipedia.org/wiki/Kodagu_district",
                "http://www.nivalink.com/destination/coorg-(virajpet)",
                "https://en.wikipedia.org/wiki/Tourism_in_Karnataka",
                "https://www.guesthouser.com/stays/karnataka/cottages-in-kodagu",
                "http://traveltriangle.com/blog/places-to-visit-in-coorg/",
                "https://www.tripoto.com/weekend-getaways/from-virajpet",
                "https://www.thrillophilia.com/places-to-visit-in-coorg",
                "http://wikitravel.org/en/Kodagu",
                "http://www.hoparoundindia.com/karnataka/attractions/bidar.aspx",
                "http://www.mapsofindia.com/maps/karnataka/",
                "http://www.karnatakatourism.org/"
            ],
            "longitude": "76.6639936",
            "address": "Karnataka, Shalivahana Road, Nazarbad, Mysuru, Mysuru taluk, Mysuru district, Karnataka, 570001, India",
            "latitude": "12.3084901",
            "locType": "atm",
            "closest_to": "virajpet"
        },
        "tirtha river": {
            "blogLinks": [
                "https://www.guesthouser.com/stays/karnataka/cottages-in-kodagu"
            ],
            "longitude": "76.4384834",
            "address": "Tirtha, Surapura taluku, Yadagiri district, Karnataka, India",
            "latitude": "16.3817607",
            "locType": "village",
            "closest_to": "virajpet"
        },
        "north karnataka": {
            "blogLinks": [
                "https://en.wikipedia.org/wiki/Tourism_in_Karnataka"
            ],
            "longitude": "77.7660547",
            "address": "N, Chaithanya Samarpan, Kadugodi, Kannamangala, Bangalore Urban, Karnataka, 560066, India",
            "latitude": "13.0217151",
            "locType": "service",
            "closest_to": "virajpet"
        },
        "mangalore": {
            "blogLinks": [
                "http://www.nivalink.com/destination/coorg-(madikeri)",
                "https://en.wikipedia.org/wiki/Kodagu_district",
                "http://www.nivalink.com/destination/coorg-(virajpet)",
                "https://en.wikipedia.org/wiki/Tourism_in_Karnataka",
                "http://traveltriangle.com/blog/places-to-visit-in-coorg/",
                "http://wikitravel.org/en/Kodagu"
            ],
            "longitude": "74.8430082",
            "address": "Mangaluru, Mangaluru taluk, Dakshina Kannada, Karnataka, 575001, India",
            "latitude": "12.8698101",
            "locType": "city",
            "closest_to": "virajpet"
        },
        "sangameshwara": {
            "blogLinks": [
                "https://en.wikipedia.org/wiki/Tourism_in_Karnataka"
            ],
            "longitude": "74.87651",
            "address": "Sangameshwara, Kalaghatagi taluku, Dharwad district, Karnataka, India",
            "latitude": "15.184341",
            "locType": "village",
            "closest_to": "virajpet"
        },
        "sagara": {
            "blogLinks": [
                "https://en.wikipedia.org/wiki/Tourism_in_Karnataka"
            ],
            "longitude": "75.0262551",
            "address": "Sagara, Sagara taluk, Shimoga district, Karnataka, 577400, India",
            "latitude": "14.1666594",
            "locType": "town",
            "closest_to": "virajpet"
        },
        "shimoga": {
            "blogLinks": [
                "https://en.wikipedia.org/wiki/Tourism_in_Karnataka"
            ],
            "longitude": "75.569737",
            "address": "Shivamogga, Shivamogga taluku, Shimoga district, Karnataka, 577200, India",
            "latitude": "13.9311723",
            "locType": "city",
            "closest_to": "virajpet"
        },
        "kanakapura road": {
            "blogLinks": [
                "https://en.wikipedia.org/wiki/Tourism_in_Karnataka"
            ],
            "longitude": "77.5733483",
            "address": "Kanakapura Road, Rajotsava Nagar, Kaderenahalli, Bengaluru, Bangalore Urban, Karnataka, 560001, India",
            "latitude": "12.9064528",
            "locType": "trunk",
            "closest_to": "virajpet"
        },
        "kumaradhara river": {
            "blogLinks": [
                "https://www.thrillophilia.com/places-to-visit-in-coorg"
            ],
            "longitude": "75.4390597",
            "address": "Kumaradhara, Putturu taluk, Dakshina Kannada, Karnataka, India",
            "latitude": "12.7370168",
            "locType": "river",
            "closest_to": "virajpet"
        },
        "barapole river": {
            "blogLinks": [
                "https://www.thrillophilia.com/places-to-visit-in-coorg"
            ],
            "longitude": "75.8218551",
            "address": "Barapole, Virajpet taluk, Kodagu, Karnataka, India",
            "latitude": "12.0738308",
            "locType": "river",
            "closest_to": "virajpet"
        },
        "mumbai": {
            "blogLinks": [
                "http://blog.bonggeek.com/2010/01/bidar-road-trip-from-hyderabad.html"
            ],
            "longitude": "77.5718472",
            "address": "Mumbai Spice, 18/2, 10th Cross, Malleswaram, Vyalikaval, Malleswaram, Bengaluru, Bangalore Urban, Karnataka, 560003, India",
            "latitude": "13.0002869",
            "locType": "restaurant",
            "closest_to": "virajpet"
        },
        "solah khamba masjid": {
            "blogLinks": [
                "http://blog.bonggeek.com/2010/01/bidar-road-trip-from-hyderabad.html"
            ],
            "longitude": "77.5280218541598",
            "address": "Solah Khamba Masjid, Qila Road, Multani Colony, Old City, Bidar, Bidar taluku, Bidar district, Karnataka, 585400, India",
            "latitude": "17.9208519",
            "locType": "place_of_worship",
            "closest_to": "virajpet"
        },
        "hassan": {
            "blogLinks": [
                "https://en.wikipedia.org/wiki/Tourism_in_Karnataka"
            ],
            "longitude": "76.0992703",
            "address": "Hassan, Hasana taluk, Hassan district, Karnataka, 573201, India",
            "latitude": "13.0070817",
            "locType": "town",
            "closest_to": "virajpet"
        },
        "hyderabad": {
            "blogLinks": [
                "http://blog.bonggeek.com/2010/01/bidar-road-trip-from-hyderabad.html"
            ],
            "longitude": "77.5344002",
            "address": "Hyderabad Road, Old City, Bidar, Bidar taluku, Bidar district, Karnataka, 585400, India",
            "latitude": "17.9003114",
            "locType": "primary",
            "closest_to": "virajpet"
        },
        "gurudwara": {
            "blogLinks": [
                "http://blog.bonggeek.com/2010/01/bidar-road-trip-from-hyderabad.html",
                "https://www.guesthouser.com/stays/karnataka/cottages-in-kodagu"
            ],
            "longitude": "77.6206886107944",
            "address": "Gurudwara, Bhaskaran Road, Gupta Layout, Halasuru, Bengaluru, Bangalore Urban, Karnataka, 560001, India",
            "latitude": "12.97623345",
            "locType": "place_of_worship",
            "closest_to": "virajpet"
        },
        "varur": {
            "blogLinks": [
                "https://en.wikipedia.org/wiki/Tourism_in_Karnataka"
            ],
            "longitude": "75.1387568",
            "address": "Varur, Hubballi taluku, Dharwad district, Karnataka, India",
            "latitude": "15.2077105",
            "locType": "village",
            "closest_to": "virajpet"
        },
        "brahmagiri hill": {
            "blogLinks": [
                "https://www.thrillophilia.com/places-to-visit-in-coorg"
            ],
            "longitude": "76.8122474",
            "address": "Brahmagiri Betta, Molakalmuru taluku, Chitradurga district, Karnataka, India",
            "latitude": "14.8001586",
            "locType": "peak",
            "closest_to": "virajpet"
        },
        "shimoga district": {
            "blogLinks": [
                "https://en.wikipedia.org/wiki/Tourism_in_Karnataka"
            ],
            "longitude": "75.1312533993886",
            "address": "Shimoga district, Karnataka, India",
            "latitude": "14.0558284",
            "locType": "administrative",
            "closest_to": "virajpet"
        },
        "bahubali": {
            "blogLinks": [
                "https://en.wikipedia.org/wiki/Tourism_in_Karnataka"
            ],
            "longitude": "76.4846128",
            "address": "Bahubali Statue, SH8, Shravanabelagola, Channarayapattana taluk, Hassan district, Karnataka, 573135, India",
            "latitude": "12.8540505",
            "locType": "place_of_worship",
            "closest_to": "virajpet"
        },
        "brahmagiri": {
            "blogLinks": [
                "http://wikitravel.org/en/Kodagu",
                "https://www.thrillophilia.com/places-to-visit-in-coorg",
                "https://en.wikipedia.org/wiki/Kodagu_district"
            ],
            "longitude": "75.490746",
            "address": "Brahmagiri, Madikeri taluku, Kodagu, Karnataka, India",
            "latitude": "12.3868578",
            "locType": "peak",
            "closest_to": "virajpet"
        },
        "vijayanagara": {
            "blogLinks": [
                "https://en.wikipedia.org/wiki/Tourism_in_Karnataka"
            ],
            "longitude": "74.7380455",
            "address": "Vijayanagara, Chikodi taluk, Belgaum district, Karnataka, India",
            "latitude": "16.3270486",
            "locType": "village",
            "closest_to": "virajpet"
        },
        "chandramoulishwara": {
            "blogLinks": [
                "https://en.wikipedia.org/wiki/Tourism_in_Karnataka"
            ],
            "longitude": "76.6290267",
            "address": "Chandramoulishwara Temple, Adipampa Road, Gokulam, Mysuru, Mysuru taluk, Mysuru district, Karnataka, 570001, India",
            "latitude": "12.3225663",
            "locType": "place_of_worship",
            "closest_to": "virajpet"
        },
        "kannur": {
            "blogLinks": [
                "http://wikitravel.org/en/Kodagu",
                "http://www.nivalink.com/destination/coorg-(virajpet)",
                "https://www.tripoto.com/weekend-getaways/from-virajpet",
                "http://www.nivalink.com/destination/coorg-(madikeri)",
                "https://en.wikipedia.org/wiki/Kodagu_district"
            ],
            "longitude": "74.8858161",
            "address": "Netravati bridge - Kannur Bypass Road (Proposed), Padil, Bajal, Mangaluru taluk, Dakshina Kannada, Karnataka, 575007, India",
            "latitude": "12.8487602",
            "locType": "construction",
            "closest_to": "virajpet"
        },
        "madurai": {
            "blogLinks": [
                "https://www.tripoto.com/weekend-getaways/from-virajpet"
            ],
            "longitude": "77.6320535",
            "address": "Madurai Idly Shop, 5th Main Road, Teachers Colony, HSR Layout, Bengaluru, Bangalore Urban, Karnataka, 560001, India",
            "latitude": "12.9185419",
            "locType": "restaurant",
            "closest_to": "virajpet"
        },
        "nisargadhama": {
            "blogLinks": [
                "https://en.wikipedia.org/wiki/Kodagu_district"
            ],
            "longitude": "75.93356075",
            "address": "Kaveri Nisargadhama, NH275, 7th Hosakote, Somawarpet taluk, Kodagu, Karnataka, India",
            "latitude": "12.4416008",
            "locType": "park",
            "closest_to": "virajpet"
        },
        "subramanya": {
            "blogLinks": [
                "https://en.wikipedia.org/wiki/Tourism_in_Karnataka"
            ],
            "longitude": "77.6015800913134",
            "address": "Subramanya Arcade, Marenahalli, Bengaluru, Bangalore Urban, Karnataka, 560001, India",
            "latitude": "12.9251206",
            "locType": "commercial",
            "closest_to": "virajpet"
        },
        "nilgiri range": {
            "blogLinks": [
                "https://www.tripoto.com/weekend-getaways/from-virajpet"
            ],
            "longitude": "76.658639",
            "address": "Bangalore Nilgiri Road, Ittigegudu, Mysuru, Mysuru taluk, Mysuru district, Karnataka, 570001, India",
            "latitude": "12.304105",
            "locType": "primary",
            "closest_to": "virajpet"
        },
        "suntikoppa": {
            "blogLinks": [
                "http://traveltriangle.com/blog/places-to-visit-in-coorg/"
            ],
            "longitude": "74.9911155",
            "address": "Suntikoppa, Sagara taluk, Shimoga district, Karnataka, India",
            "latitude": "14.3166038",
            "locType": "village",
            "closest_to": "virajpet"
        },
        "siddapura": {
            "blogLinks": [
                "https://en.wikipedia.org/wiki/Kodagu_district"
            ],
            "longitude": "74.8924253",
            "address": "Siddapura, Siddapura taluk, Uttara Kannada, Karnataka, India",
            "latitude": "14.3409562",
            "locType": "town",
            "closest_to": "virajpet"
        },
        "mallalli falls": {
            "blogLinks": [
                "https://www.thrillophilia.com/places-to-visit-in-coorg",
                "http://wikitravel.org/en/Kodagu"
            ],
            "longitude": "75.723663",
            "address": "Mallalli Falls, Somawarpet taluk, Kodagu, Karnataka, India",
            "latitude": "12.6813778",
            "locType": "waterfall",
            "closest_to": "virajpet"
        },
        "bagalkote": {
            "blogLinks": [
                "http://www.mapsofindia.com/maps/karnataka/",
                "https://en.wikipedia.org/wiki/Tourism_in_Karnataka"
            ],
            "longitude": "75.5825586777167",
            "address": "Bagalkote district, Karnataka, India",
            "latitude": "16.28998085",
            "locType": "administrative",
            "closest_to": "virajpet"
        },
        "cauvery": {
            "blogLinks": [
                "http://www.nivalink.com/destination/coorg-(virajpet)",
                "http://www.nivalink.com/destination/coorg-(madikeri)",
                "https://www.thrillophilia.com/places-to-visit-in-coorg"
            ],
            "longitude": "77.5832796015599",
            "address": "Cauvery, 1st Main Road, Lower Palace Orchard, Guttahalli, Bengaluru, Bangalore Urban, Karnataka, 560001, India",
            "latitude": "13.00262215",
            "locType": "cinema",
            "closest_to": "virajpet"
        },
        "kudalasangama": {
            "blogLinks": [
                "https://en.wikipedia.org/wiki/Tourism_in_Karnataka"
            ],
            "longitude": "76.0604244",
            "address": "Kudala Sangama, Hunagunda taluku, Bagalkote district, Karnataka, India",
            "latitude": "16.2033992",
            "locType": "village",
            "closest_to": "virajpet"
        },
        "talakaveri": {
            "blogLinks": [
                "http://wikitravel.org/en/Kodagu",
                "https://en.wikipedia.org/wiki/Kodagu_district"
            ],
            "longitude": "75.4930074",
            "address": "Talakaveri, Madikeri taluku, Kodagu, Karnataka, India",
            "latitude": "12.3858456",
            "locType": "hamlet",
            "closest_to": "virajpet"
        },
        "dubare elephant camp": {
            "blogLinks": [
                "http://www.nivalink.com/destination/coorg-(madikeri)"
            ],
            "longitude": "75.9066719",
            "address": "Dubare Elephant Camp, SH91, Dodda Bettageri, Somawarpet taluk, Kodagu, Karnataka, India",
            "latitude": "12.3716865",
            "locType": "attraction",
            "closest_to": "virajpet"
        },
        "narayana": {
            "blogLinks": [
                "https://en.wikipedia.org/wiki/Tourism_in_Karnataka"
            ],
            "longitude": "76.201037",
            "address": "Narayana Gondanahalli, Holalkere taluk, Chitradurga district, Karnataka, India",
            "latitude": "13.9181889",
            "locType": "village",
            "closest_to": "virajpet"
        },
        "kabini": {
            "blogLinks": [
                "https://en.wikipedia.org/wiki/Tourism_in_Karnataka"
            ],
            "longitude": "76.4152088",
            "address": "Kabini, Heggadadevanakote taluk, Mysuru district, Karnataka, India",
            "latitude": "12.0140065",
            "locType": "river",
            "closest_to": "virajpet"
        },
        "madikeri fort museum": {
            "blogLinks": [
                "https://en.wikipedia.org/wiki/Kodagu_district"
            ],
            "longitude": "75.7392494",
            "address": "Madikeri Museum, Fort Internal Road, Madikeri, Madikeri taluku, Kodagu, Karnataka, India",
            "latitude": "12.4203606",
            "locType": "museum",
            "closest_to": "virajpet"
        },
        "kakkabe": {
            "blogLinks": [
                "http://www.nivalink.com/destination/coorg-(virajpet)",
                "https://www.thrillophilia.com/places-to-visit-in-coorg"
            ],
            "longitude": "75.6444603",
            "address": "Kakkabe, Madikeri taluku, Kodagu, Karnataka, India",
            "latitude": "12.2571817",
            "locType": "village",
            "closest_to": "virajpet"
        },
        "narasimha swami temple": {
            "blogLinks": [
                "http://www.nivalink.com/destination/coorg-(madikeri)"
            ],
            "longitude": "77.6485907840766",
            "address": "Narasimha Swami Temple, Prime City Apartment Private Road, Electronics City Phase 1, Doddathoguru, Bangalore Urban, Karnataka, 560100, India",
            "latitude": "12.85075195",
            "locType": "place_of_worship",
            "closest_to": "virajpet"
        },
        "cauvery river": {
            "blogLinks": [
                "https://www.thrillophilia.com/places-to-visit-in-coorg",
                "http://wikitravel.org/en/Kodagu"
            ],
            "longitude": "77.635647",
            "address": "Temple Trees Rd, Cauvery Colony, ST Bed Layout, Koramangala, Bengaluru, Bangalore Urban, Karnataka, 560001, India",
            "latitude": "12.9327668",
            "locType": "unclassified",
            "closest_to": "virajpet"
        },
        "kemmangundi": {
            "blogLinks": [
                "https://en.wikipedia.org/wiki/Tourism_in_Karnataka"
            ],
            "longitude": "75.7520082",
            "address": "Kemmannagundi, Tarikere taluku, Chikkamagaluru district, Karnataka, India",
            "latitude": "13.5463048",
            "locType": "village",
            "closest_to": "virajpet"
        },
        "belgaum fort": {
            "blogLinks": [
                "https://en.wikipedia.org/wiki/Tourism_in_Karnataka"
            ],
            "longitude": "74.5255651",
            "address": "Belgaum Fort, Belagavi, Belagavi taluku, Belgaum district, Karnataka, 590001, India",
            "latitude": "15.8581696",
            "locType": "locality",
            "closest_to": "virajpet"
        },
        "bankpur fort": {
            "blogLinks": [
                "https://en.wikipedia.org/wiki/Tourism_in_Karnataka"
            ],
            "longitude": "75.2512090188504",
            "address": "Bankapura Fort, SH137, Guddada Channapura, Shiggaon taluk, Haveri district, Karnataka, 581202, India",
            "latitude": "14.9231815",
            "locType": "archaeological_site",
            "closest_to": "virajpet"
        },
        "madikeri": {
            "blogLinks": [
                "http://www.nivalink.com/destination/coorg-(madikeri)",
                "https://en.wikipedia.org/wiki/Kodagu_district",
                "http://www.nivalink.com/destination/coorg-(virajpet)",
                "http://traveltriangle.com/blog/places-to-visit-in-coorg/",
                "https://www.thrillophilia.com/places-to-visit-in-coorg",
                "http://wikitravel.org/en/Kodagu",
                "https://www.tripadvisor.com/Hotel_Review-g1638802-d4341806-Reviews-Club_Mahindra_Virajpet_Coorg-Virajpet_Kodagu_Coorg_Karnataka.html",
                "http://www.karnatakatourism.org/"
            ],
            "longitude": "75.740031",
            "address": "Madikeri, Madikeri taluku, Kodagu, Karnataka, India",
            "latitude": "12.4204003",
            "locType": "town",
            "closest_to": "virajpet"
        },
        "west coorg": {
            "blogLinks": [
                "http://www.nivalink.com/destination/coorg-(virajpet)",
                "http://www.nivalink.com/destination/coorg-(madikeri)"
            ],
            "longitude": "75.740031",
            "address": "Madikeri, Madikeri taluku, Kodagu, Karnataka, India",
            "latitude": "12.4204003",
            "locType": "town",
            "closest_to": "virajpet"
        },
        "chikkaballapur": {
            "blogLinks": [
                "http://www.mapsofindia.com/maps/karnataka/"
            ],
            "longitude": "77.7306866",
            "address": "Chikkaballapura, Chikkaballapura taluk, Chikkaballapura district, Karnataka, 562101, India",
            "latitude": "13.4352549",
            "locType": "town",
            "closest_to": "virajpet"
        },
        "omkareshwara temple": {
            "blogLinks": [
                "https://en.wikipedia.org/wiki/Kodagu_district"
            ],
            "longitude": "75.741304",
            "address": "Omkareshwara Temple, Main Road, Madikeri, Madikeri taluku, Kodagu, Karnataka, India",
            "latitude": "12.420546",
            "locType": "place_of_worship",
            "closest_to": "virajpet"
        },
        "shiggaon taluk": {
            "blogLinks": [
                "https://en.wikipedia.org/wiki/Tourism_in_Karnataka"
            ],
            "longitude": "75.1756764988777",
            "address": "Shiggaon taluk, Haveri district, Karnataka, India",
            "latitude": "15.0138079",
            "locType": "administrative",
            "closest_to": "virajpet"
        },
        "mandya": {
            "blogLinks": [
                "https://www.tripoto.com/weekend-getaways/from-virajpet",
                "http://www.mapsofindia.com/maps/karnataka/",
                "https://en.wikipedia.org/wiki/Tourism_in_Karnataka"
            ],
            "longitude": "76.8937392",
            "address": "Mandya, Mandya taluk, Mandya district, Karnataka, 571401, India",
            "latitude": "12.5217836",
            "locType": "town",
            "closest_to": "virajpet"
        },
        "moyar": {
            "blogLinks": [
                "https://www.tripoto.com/weekend-getaways/from-virajpet"
            ],
            "longitude": "76.631118",
            "address": "Moyar Gorge, Gundlupet - Coimbatore Highway, Bandipur, Gundlupet taluk, Chamarajanagar district, Karnataka, India",
            "latitude": "11.6161121",
            "locType": "viewpoint",
            "closest_to": "virajpet"
        },
        "netrani island of uttara kannada": {
            "blogLinks": [
                "https://en.wikipedia.org/wiki/Tourism_in_Karnataka"
            ],
            "longitude": "74.3272086675849",
            "address": "Netrani, Uttara Kannada, Karnataka, India",
            "latitude": "14.0174924",
            "locType": "island",
            "closest_to": "virajpet"
        },
        "andhra": {
            "blogLinks": [
                "http://wikitravel.org/en/Kodagu"
            ],
            "longitude": "79.3452447",
            "address": "Karnataka, West Mada Street, Srivari Temple, Tirumala, Chittoor, Andhra Pradesh, 517504, India",
            "latitude": "13.6841958",
            "locType": "hotel",
            "closest_to": "virajpet"
        },
        "madikeri fort": {
            "blogLinks": [
                "https://www.thrillophilia.com/places-to-visit-in-coorg",
                "https://www.guesthouser.com/stays/karnataka/cottages-in-kodagu"
            ],
            "longitude": "75.7392494",
            "address": "Madikeri Museum, Fort Internal Road, Madikeri, Madikeri taluku, Kodagu, Karnataka, India",
            "latitude": "12.4203606",
            "locType": "museum",
            "closest_to": "virajpet"
        },
        "dattatreya": {
            "blogLinks": [
                "https://en.wikipedia.org/wiki/Tourism_in_Karnataka"
            ],
            "longitude": "75.7539724",
            "address": "Inam Dattatreya Pitha, Chikkamagaluru taluku, Chikkamagaluru district, Karnataka, India",
            "latitude": "13.4315216",
            "locType": "hamlet",
            "closest_to": "virajpet"
        },