{
    "bidar": {
        "lat": "18.083333",
        "class": "place",
        "importance": 0.65,
        "osm_type": "node",
        "lon": "77.333333",
        "place_id": "1400874",
        "display_name": "Bidar, Bidar district, Karnataka, India",
        "osm_id": "316417319",
        "boundingbox": [
            "17.443333",
            "18.723333",
            "76.693333",
            "77.973333"
        ],
        "type": "county",
        "licence": "Data \u00a9 OpenStreetMap contributors, ODbL 1.0. http://www.openstreetmap.org/copyright",
        "icon": "https://nominatim.openstreetmap.org/images/mapicons/poi_boundary_administrative.p.20.png"
    },
    "talakadu": {
        "lat": "12.1919942",
        "class": "place",
        "importance": 0.475,
        "osm_type": "node",
        "lon": "77.0293979",
        "place_id": "6535103",
        "display_name": "Talakadu, Tirumakudalu Narasipura taluk, Mysuru district, Karnataka, India",
        "osm_id": "674277626",
        "boundingbox": [
            "12.1719942",
            "12.2119942",
            "77.0093979",
            "77.0493979"
        ],
        "type": "village",
        "licence": "Data \u00a9 OpenStreetMap contributors, ODbL 1.0. http://www.openstreetmap.org/copyright",
        "icon": "https://nominatim.openstreetmap.org/images/mapicons/poi_place_village.p.20.png"
    },
    "mentions": {
        "new mangalore port": {
            "blogLinks": [
                "https://en.wikipedia.org/wiki/Karnataka"
            ],
            "longitude": "74.8219606",
            "address": "New Mangalore Port, Kuloor, Mangaluru taluk, Dakshina Kannada, Karnataka, India",
            "latitude": "12.9318976",
            "locType": "locality",
            "closest_to": "talakadu"
        },
        "railway station": {
            "blogLinks": [
                "https://www.tripoto.com/weekend-getaways/from-talakadu"
            ],
            "longitude": "77.515738",
            "address": "Railway Station, Gauribidanuru taluk, Chikkaballapura district, Karnataka, India",
            "latitude": "13.5029417",
            "locType": "village",
            "closest_to": "talakadu"
        },
        "river kaveri": {
            "blogLinks": [
                "https://www.tripoto.com/weekend-getaways/from-talakadu"
            ],
            "longitude": "77.0635531",
            "address": "Kaveri, Kollegala taluk, Chamarajanagar district, Karnataka, India",
            "latitude": "12.1687878",
            "locType": "river",
            "closest_to": "talakadu"
        },
        "madras": {
            "blogLinks": [
                "https://www.tripoto.com/weekend-getaways/from-talakadu",
                "https://en.wikipedia.org/wiki/Karnataka"
            ],
            "longitude": "77.6449595",
            "address": "Swami Vivekananda Road, Swamy Vivekananda Road (Old Madras Road), Sudgunte Palya, Baiyyappanahalli, Benniganahalli, Bangalore Urban, Karnataka, 560016, India",
            "latitude": "12.9859442",
            "locType": "station",
            "closest_to": "talakadu"
        },
        "sharadamba": {
            "blogLinks": [
                "https://www.quora.com/What-are-the-best-places-to-visit-on-a-3-day-trip-in-and-around-Karnataka"
            ],
            "longitude": "77.5656194",
            "address": "Sharadamba Temple, 7th Main Road, Yediyur, Thyagaraja Nagar, Bengaluru, Bangalore Urban, Karnataka, 560001, India",
            "latitude": "12.9321898",
            "locType": "place_of_worship",
            "closest_to": "talakadu"
        },
        "malaprabha": {
            "blogLinks": [
                "https://en.wikipedia.org/wiki/Karnataka"
            ],
            "longitude": "75.1982668",
            "address": "Malaprabha, Ramadurga taluku, Belgaum district, Karnataka, India",
            "latitude": "15.8914192",
            "locType": "river",
            "closest_to": "talakadu"
        },
        "haveri": {
            "blogLinks": [
                "http://www.nivalink.com/destination/talakadu"
            ],
            "longitude": "75.3996731",
            "address": "Haveri, Haveri taluku, Haveri district, Karnataka, 581110, India",
            "latitude": "14.7874825",
            "locType": "town",
            "closest_to": "talakadu"
        },
        "mahadeshwara": {
            "blogLinks": [
                "https://www.quora.com/What-are-the-best-places-to-visit-on-a-3-day-trip-in-and-around-Karnataka"
            ],
            "longitude": "77.6123722",
            "address": "Mahadeshwara Nagara, BTM Layout, Bengaluru, Bangalore Urban, Karnataka, 560001, India",
            "latitude": "12.9076689",
            "locType": "neighbourhood",
            "closest_to": "talakadu"
        },
        "omkareshwara temple": {
            "blogLinks": [
                "https://www.tripoto.com/weekend-getaways/from-talakadu"
            ],
            "longitude": "75.741304",
            "address": "Omkareshwara Temple, Main Road, Madikeri, Madikeri taluku, Kodagu, Karnataka, India",
            "latitude": "12.420546",
            "locType": "place_of_worship",
            "closest_to": "talakadu"
        },
        "mangalore international airport": {
            "blogLinks": [
                "https://www.tripoto.com/weekend-getaways/from-talakadu"
            ],
            "longitude": "74.887492668144",
            "address": "Mangalore International Airport, Airport Entry Road, Gandhinagar, Kenjar, Mangaluru taluk, Dakshina Kannada, Karnataka, 575015, India",
            "latitude": "12.95518575",
            "locType": "aerodrome",
            "closest_to": "talakadu"
        },
        "kamakhya": {
            "blogLinks": [
                "https://www.makemytrip.com/holidays-india/places-to-visit-bidar.html"
            ],
            "longitude": "77.5544154656759",
            "address": "Kamakhya Bus Depot, Bhuvaneshwari Nagar, Bengaluru, Bangalore Urban, Karnataka, 560001, India",
            "latitude": "12.9251219",
            "locType": "garages",
            "closest_to": "talakadu"
        },
        "doddaballapura": {
            "blogLinks": [
                "https://en.wikipedia.org/wiki/Karnataka"
            ],
            "longitude": "77.5431463",
            "address": "Doddaballapur, Doddaballapura taluk, Bangalore Rural, Karnataka, 561203, India",
            "latitude": "13.2929583",
            "locType": "town",
            "closest_to": "talakadu"
        },
        "aditya": {
            "blogLinks": [
                "https://creekntrails.com/2016/05/14/bidar-trip-from-hyderabad-on-bike-with-friends/"
            ],
            "longitude": "77.5816768",
            "address": "Aditya, Puttenahalli Main Road, Jagruthi Colony, Puttenahalli, Bengaluru, Bangalore Urban, Karnataka, 560001, India",
            "latitude": "12.8929275",
            "locType": "restaurant",
            "closest_to": "talakadu"
        },
        "padubidri": {
            "blogLinks": [
                "https://en.wikipedia.org/wiki/Karnataka"
            ],
            "longitude": "74.7712041",
            "address": "Padubidri, Udupi taluku, Udupi district, Karnataka, India",
            "latitude": "13.1407571",
            "locType": "town",
            "closest_to": "talakadu"
        },
        "karanji lake": {
            "blogLinks": [
                "https://www.quora.com/What-are-the-best-places-to-visit-on-a-3-day-trip-in-and-around-Karnataka"
            ],
            "longitude": "77.5474867",
            "address": "Karanji, Aurad taluku, Bidar district, Karnataka, India",
            "latitude": "18.2681849",
            "locType": "village",
            "closest_to": "bidar"
        },
        "chennai": {
            "blogLinks": [
                "https://en.wikipedia.org/wiki/Karnataka",
                "http://www.godakshin.com/travel-guides/4-exciting-places-visit-around-bangalore-732.html",
                "https://www.tripoto.com/weekend-getaways/from-talakadu",
                "https://www.scribd.com/doc/11466801/4-Exciting-places-to-see-around-Bangalore-Bangalore-weekend-getaway-and-day-trips"
            ],
            "longitude": "80.2197941",
            "address": "Karnataka Bank, Postal Colony 2nd Street, Postal Colony, Ashok Nagar, Chennai City Corporation Limits, Chennai district, Tamil Nadu, 600033, India",
            "latitude": "13.0365141",
            "locType": "bank",
            "closest_to": "talakadu"
        },
        "tamil nadu": {
            "blogLinks": [
                "https://www.quora.com/Which-are-the-most-exotic-places-of-travel-in-India",
                "https://www.quora.com/What-are-the-best-places-to-visit-on-a-3-day-trip-in-and-around-Karnataka",
                "https://www.tripoto.com/weekend-getaways/from-talakadu",
                "https://en.wikipedia.org/wiki/Karnataka"
            ],
            "longitude": "76.9514152",
            "address": "KARNATAKA BANK, Diwan Bhadur Road, Five Corner, RS Puram, Coimbatore, Coimbatore district, Tamil Nadu, 641001, India",
            "latitude": "11.0025894",
            "locType": "bank",
            "closest_to": "talakadu"
        },
        "brahmagiri peak": {
            "blogLinks": [
                "https://www.tripoto.com/weekend-getaways/from-talakadu"
            ],
            "longitude": "75.490746",
            "address": "Brahmagiri, Madikeri taluku, Kodagu, Karnataka, India",
            "latitude": "12.3868578",
            "locType": "peak",
            "closest_to": "talakadu"
        },
        "mullayanagiri": {
            "blogLinks": [
                "https://www.quora.com/What-are-the-best-places-to-visit-on-a-3-day-trip-in-and-around-Karnataka"
            ],
            "longitude": "75.7214034",
            "address": "Mullayyanagiri, Chikkamagaluru, Chikkamagaluru taluku, Chikkamagaluru district, Karnataka, 577101, India",
            "latitude": "13.3909217",
            "locType": "peak",
            "closest_to": "talakadu"
        },
        "kodachadri": {
            "blogLinks": [
                "https://www.quora.com/What-are-the-best-places-to-visit-on-a-3-day-trip-in-and-around-Karnataka"
            ],
            "longitude": "74.8705395",
            "address": "Kodachadri, \u0c95\u0cc1\u0c82\u0ca6\u0cbe\u0caa\u0cc1\u0cb0 \u0ca4\u0cbe\u0cb2\u0cc2\u0c95\u0cc1, Udupi district, Karnataka, India",
            "latitude": "13.8565758",
            "locType": "peak",
            "closest_to": "talakadu"
        },
        "kothur": {
            "blogLinks": [
                "https://creekntrails.com/2016/05/14/bidar-trip-from-hyderabad-on-bike-with-friends/"
            ],
            "longitude": "77.9775746",
            "address": "Kothur, Chintamani taluk, Chikkaballapura district, Karnataka, India",
            "latitude": "13.3276276",
            "locType": "village",
            "closest_to": "talakadu"
        },
        "bengaluru": {
            "blogLinks": [
                "https://www.quora.com/What-are-the-best-places-to-visit-on-a-3-day-trip-in-and-around-Karnataka",
                "https://www.tripoto.com/weekend-getaways/from-talakadu"
            ],
            "longitude": "77.5912997",
            "address": "Bengaluru, Bangalore Urban, Karnataka, 560001, India",
            "latitude": "12.9791198",
            "locType": "city",
            "closest_to": "talakadu"
        },
        "tungabhadra river": {
            "blogLinks": [
                "https://en.wikipedia.org/wiki/Karnataka"
            ],
            "longitude": "76.4931607",
            "address": "Tungabhadra, Gangavati taluku, Koppal district, Karnataka, India",
            "latitude": "15.3446123",
            "locType": "river",
            "closest_to": "talakadu"
        },
        "ballary": {
            "blogLinks": [
                "https://en.wikipedia.org/wiki/Karnataka"
            ],
            "longitude": "76.9132122",
            "address": "Ballary Ring Road, Ballari, Bellary taluk, Bellary district, Karnataka, 583102, India",
            "latitude": "15.1123383",
            "locType": "trunk",
            "closest_to": "talakadu"
        },
        "new delhi": {
            "blogLinks": [
                "https://www.makemytrip.com/holidays-india/places-to-visit-bidar.html",
                "http://www.tourism-of-india.com/shravanabelagola-tour/",
                "https://en.wikipedia.org/wiki/Karnataka"
            ],
            "longitude": "76.6142178649055",
            "address": "Regional Institute of Education, Chaduranga Road, Jayalakshmipuram, Mysuru, Mysuru taluk, Mysuru district, Karnataka, 570001, India",
            "latitude": "12.30911465",
            "locType": "college",
            "closest_to": "talakadu"
        },
        "palani": {
            "blogLinks": [
                "https://www.tripoto.com/weekend-getaways/from-talakadu"
            ],
            "longitude": "77.6168951",
            "address": "Palani, Neelasandra Bazaar Street, Austin Town BDA Layout, Neelasandra, Bengaluru, Bangalore Urban, Karnataka, 560001, India",
            "latitude": "12.9537341",
            "locType": "recycling",
            "closest_to": "talakadu"
        },
        "lake": {
            "blogLinks": [
                "https://www.makemytrip.com/holidays-india/places-to-visit-bidar.html"
            ],
            "longitude": "76.6637420673679",
            "address": "The lake, Race Course, Mysuru, Mysuru taluk, Mysuru district, Karnataka, 570001, India",
            "latitude": "12.2937568",
            "locType": "grass",
            "closest_to": "talakadu"
        },
        "china": {
            "blogLinks": [
                "https://www.quora.com/Which-are-the-most-exotic-places-of-travel-in-India"
            ],
            "longitude": "77.6074274",
            "address": "Highland China, Magrath Road, Tasker Town, Ashok Nagar, Bengaluru, Bangalore Urban, Karnataka, 560001, India",
            "latitude": "12.9708868",
            "locType": "restaurant",
            "closest_to": "talakadu"
        },
        "gangavadi": {
            "blogLinks": [
                "https://en.wikipedia.org/wiki/Karnataka"
            ],
            "longitude": "77.0659307",
            "address": "Gangavadi, Chamarajanagara taluk, Chamarajanagar district, Karnataka, India",
            "latitude": "12.0014487",
            "locType": "village",
            "closest_to": "talakadu"
        },
        "dakshina kannada": {
            "blogLinks": [
                "https://www.quora.com/What-are-the-best-places-to-visit-on-a-3-day-trip-in-and-around-Karnataka",
                "https://www.tripoto.com/weekend-getaways/from-talakadu",
                "https://en.wikipedia.org/wiki/Karnataka"
            ],
            "longitude": "75.1008028650794",
            "address": "Dakshina Kannada, Karnataka, India",
            "latitude": "12.8114089",
            "locType": "administrative",
            "closest_to": "talakadu"
        },
        "bhutan": {
            "blogLinks": [
                "https://www.quora.com/Which-are-the-most-exotic-places-of-travel-in-India"
            ],
            "longitude": "77.5391448",
            "address": "Bhutan Board Furniture, Siddhaiah Puranik Road, Rajajinagar 3rd Block, Kamakshi Palya, Bengaluru, Bangalore Urban, Karnataka, 560001, India",
            "latitude": "12.9931738",
            "locType": "furniture",
            "closest_to": "talakadu"
        },
        "rain-tree": {
            "blogLinks": [
                "https://www.tripoto.com/weekend-getaways/from-talakadu"
            ],
            "longitude": "77.6414765",
            "address": "Rain Tree, 3rd Main Road, Defence Colony, Hoysala Nagar, Bengaluru, Bangalore Urban, Karnataka, 560001, India",
            "latitude": "12.9757365",
            "locType": "tree",
            "closest_to": "talakadu"
        },
        "kumarakom": {
            "blogLinks": [
                "https://www.makemytrip.com/holidays-india/places-to-visit-bidar.html",
                "https://www.tripoto.com/weekend-getaways/from-talakadu"
            ],
            "longitude": "77.6382858",
            "address": "Kumarakom, 23, 15th Cross Road, Sector 4, HSR Layout, Bengaluru, Bangalore Urban, Karnataka, 560102, India",
            "latitude": "12.9143715",
            "locType": "restaurant",
            "closest_to": "talakadu"
        },
        "chennakeshava": {
            "blogLinks": [
                "https://www.quora.com/What-are-the-best-places-to-visit-on-a-3-day-trip-in-and-around-Karnataka"
            ],
            "longitude": "76.1294164",
            "address": "Chennakeshava Temple, NH73, Arakere, Arasikere taluku, Hassan district, Karnataka, 573112, India",
            "latitude": "13.3748908",
            "locType": "place_of_worship",
            "closest_to": "talakadu"
        },
        "india karnataka": {
            "blogLinks": [
                "https://www.quora.com/What-are-the-best-places-to-visit-on-a-3-day-trip-in-and-around-Karnataka"
            ],
            "longitude": "76.6639936",
            "address": "Karnataka, Shalivahana Road, Nazarbad, Mysuru, Mysuru taluk, Mysuru district, Karnataka, 570001, India",
            "latitude": "12.3084901",
            "locType": "atm",
            "closest_to": "talakadu"
        },
        "cochin view": {
            "blogLinks": [
                "https://www.makemytrip.com/holidays-india/places-to-visit-bidar.html"
            ],
            "longitude": "74.8390919",
            "address": "Cochin Bakery, Old Kent Road, Pandeshwar, Attavar, Mangaluru, Mangaluru taluk, Dakshina Kannada, Karnataka, 575001, India",
            "latitude": "12.8604752",
            "locType": "confectionery",
            "closest_to": "talakadu"
        },
        "devanahalli": {
            "blogLinks": [
                "https://en.wikipedia.org/wiki/Karnataka"
            ],
            "longitude": "77.7134377",
            "address": "Devanahalli, Devanahalli taluk, Bangalore Rural, Karnataka, India",
            "latitude": "13.2483502",
            "locType": "town",
            "closest_to": "talakadu"
        },
        "ooty": {
            "blogLinks": [
                "https://www.tripoto.com/weekend-getaways/from-talakadu"
            ],
            "longitude": "76.6586807",
            "address": "Ooty Road, Vidyaranyapuram, Mysuru, Mysuru taluk, Mysuru district, Karnataka, 570001, India",
            "latitude": "12.2774807",
            "locType": "primary",
            "closest_to": "talakadu"
        },
        "garden city": {
            "blogLinks": [
                "https://www.tripoto.com/weekend-getaways/from-talakadu"
            ],
            "longitude": "80.2197941",
            "address": "Karnataka Bank, Postal Colony 2nd Street, Postal Colony, Ashok Nagar, Chennai City Corporation Limits, Chennai district, Tamil Nadu, 600033, India",
            "latitude": "13.0365141",
            "locType": "bank",
            "closest_to": "talakadu"
        },
        "madurai": {
            "blogLinks": [
                "https://www.quora.com/Which-are-the-most-exotic-places-of-travel-in-India",
                "https://www.tripoto.com/weekend-getaways/from-talakadu"
            ],
            "longitude": "77.6320535",
            "address": "Madurai Idly Shop, 5th Main Road, Teachers Colony, HSR Layout, Bengaluru, Bangalore Urban, Karnataka, 560001, India",
            "latitude": "12.9185419",
            "locType": "restaurant",
            "closest_to": "talakadu"
        },
        "kannada": {
            "blogLinks": [
                "https://www.quora.com/What-are-the-best-places-to-visit-on-a-3-day-trip-in-and-around-Karnataka",
                "https://en.wikipedia.org/wiki/Karnataka"
            ],
            "longitude": "75.1008028650794",
            "address": "Dakshina Kannada, Karnataka, India",
            "latitude": "12.8114089",
            "locType": "administrative",
            "closest_to": "talakadu"
        },
        "bangalore-chennai": {
            "blogLinks": [
                "http://www.godakshin.com/travel-guides/4-exciting-places-visit-around-bangalore-732.html",
                "https://www.scribd.com/doc/11466801/4-Exciting-places-to-see-around-Bangalore-Bangalore-weekend-getaway-and-day-trips"
            ],
            "longitude": "78.3144556",
            "address": "Bangalore Chennai Road, Bimapura, Mulubagilu taluk, Kolar district, Karnataka, 563131, India",
            "latitude": "13.1522603",
            "locType": "trunk",
            "closest_to": "talakadu"
        },
        "bengal": {
            "blogLinks": [
                "https://www.tripoto.com/weekend-getaways/from-talakadu"
            ],
            "longitude": "77.7517038151245",
            "address": "Bengal Lamps, Konadasapura, Bangalore Urban, Karnataka, 560066, India",
            "latitude": "13.0492646",
            "locType": "industrial",
            "closest_to": "talakadu"
        },
        "chamundi hill": {
            "blogLinks": [
                "https://www.quora.com/What-are-the-best-places-to-visit-on-a-3-day-trip-in-and-around-Karnataka"
            ],
            "longitude": "76.6703937",
            "address": "Chamundi Hill, Mysuru, Mysuru taluk, Mysuru district, Karnataka, 570001, India",
            "latitude": "12.2724017",
            "locType": "peak",
            "closest_to": "talakadu"
        },
        "kuvempu": {
            "blogLinks": [
                "https://www.quora.com/What-are-the-best-places-to-visit-on-a-3-day-trip-in-and-around-Karnataka"
            ],
            "longitude": "77.5064032",
            "address": "Kuvempu, Kengeri Main Road, ITI Layout, Jnana Bharathi, Nagadevanahalli, Bangalore Urban, Karnataka, 560056, India",
            "latitude": "12.9560369",
            "locType": "artwork",
            "closest_to": "talakadu"
        },
        "gokak": {
            "blogLinks": [
                "https://www.quora.com/What-are-the-best-places-to-visit-on-a-3-day-trip-in-and-around-Karnataka"
            ],
            "longitude": "74.8224338",
            "address": "Gokak, Gokak taluku, Belgaum district, Karnataka, 591307, India",
            "latitude": "16.1693033",
            "locType": "town",
            "closest_to": "talakadu"
        },
        "belur": {
            "blogLinks": [
                "https://en.wikipedia.org/wiki/Talakad"
            ],
            "longitude": "75.8634851",
            "address": "Belur, Beluru taluk, Hassan district, Karnataka, 573115, India",
            "latitude": "13.1645671",
            "locType": "town",
            "closest_to": "talakadu"
        },
        "nagarhole national park": {
            "blogLinks": [
                "https://www.quora.com/What-are-the-best-places-to-visit-on-a-3-day-trip-in-and-around-Karnataka"
            ],
            "longitude": "76.1537073415874",
            "address": "Nagarahole National Park, Virajpet taluk, Kodagu, Karnataka, India",
            "latitude": "12.0600362",
            "locType": "national_park",
            "closest_to": "talakadu"
        },
        "hoysala": {
            "blogLinks": [
                "https://www.quora.com/What-are-the-best-places-to-visit-on-a-3-day-trip-in-and-around-Karnataka",
                "http://www.tourism-of-india.com/shravanabelagola-tour/"
            ],
            "longitude": "77.6375990817051",
            "address": "Hoysala Nagar, Bengaluru, Bangalore Urban, Karnataka, 560001, India",
            "latitude": "12.97813815",
            "locType": "administrative",
            "closest_to": "talakadu"
        },
        "unchalli falls": {
            "blogLinks": [
                "https://en.wikipedia.org/wiki/Karnataka"
            ],
            "longitude": "74.7477592",
            "address": "\u0c89\u0c82\u0c9a\u0cb3\u0ccd\u0cb3\u0cbf \u0c9c\u0cb2\u0caa\u0cbe\u0ca4, Siddapura taluk, Uttara Kannada, Karnataka, India",
            "latitude": "14.4097755",
            "locType": "waterfall",
            "closest_to": "talakadu"
        },
        "talakadu": {
            "blogLinks": [
                "http://www.nivalink.com/hotel/rayariversideresort",
                "http://www.nivalink.com/destination/talakadu",
                "https://en.wikipedia.org/wiki/Talakad",
                "http://www.godakshin.com/travel-guides/4-exciting-places-visit-around-bangalore-732.html",
                "https://www.scribd.com/doc/11466801/4-Exciting-places-to-see-around-Bangalore-Bangalore-weekend-getaway-and-day-trips"
            ],
            "longitude": "77.0293979",
            "address": "Talakadu, Tirumakudalu Narasipura taluk, Mysuru district, Karnataka, India",
            "latitude": "12.1919942",
            "locType": "village",
            "closest_to": "talakadu"
        },
        "south canara": {
            "blogLinks": [
                "https://en.wikipedia.org/wiki/Karnataka"
            ],
            "longitude": "77.7188315",
            "address": "Chikkabellandur, Bangalore Urban, Karnataka, India",
            "latitude": "12.9228378",
            "locType": "village",
            "closest_to": "talakadu"
        },
        "bidar": {
            "blogLinks": [
                "https://www.makemytrip.com/holidays-india/places-to-visit-bidar.html",
                "https://creekntrails.com/2016/05/14/bidar-trip-from-hyderabad-on-bike-with-friends/",
                "https://www.quora.com/What-are-the-best-places-to-visit-on-a-3-day-trip-in-and-around-Karnataka"
            ],
            "longitude": "77.333333",
            "address": "Bidar, Bidar district, Karnataka, India",
            "latitude": "18.083333",
            "locType": "county",
            "closest_to": "talakadu"
        },
        "gomateshwara bahubali": {
            "blogLinks": [
                "https://en.wikipedia.org/wiki/Karnataka"
            ],
            "longitude": "76.4846128",
            "address": "Bahubali Statue, SH8, Shravanabelagola, Channarayapattana taluk, Hassan district, Karnataka, 573135, India",
            "latitude": "12.8540505",
            "locType": "place_of_worship",
            "closest_to": "talakadu"
        },
        "heart lake": {
            "blogLinks": [
                "https://www.quora.com/What-are-the-best-places-to-visit-on-a-3-day-trip-in-and-around-Karnataka"
            ],
            "longitude": "77.6033149073313",
            "address": "Sacred Heart Cemetry, Shanti Nagar, Bengaluru, Bangalore Urban, Karnataka, 560001, India",
            "latitude": "12.9542916",
            "locType": "cemetery",
            "closest_to": "talakadu"
        },
        "markandeya river": {
            "blogLinks": [
                "https://www.quora.com/What-are-the-best-places-to-visit-on-a-3-day-trip-in-and-around-Karnataka"
            ],
            "longitude": "74.5774895",
            "address": "Markandeya, Belagavi taluku, Belgaum district, Karnataka, India",
            "latitude": "15.9707453",
            "locType": "river",
            "closest_to": "talakadu"
        },
        "coimbatore": {
            "blogLinks": [
                "http://www.nivalink.com/destination/talakadu",
                "https://en.wikipedia.org/wiki/Talakad",
                "https://www.tripoto.com/weekend-getaways/from-talakadu"
            ],
            "longitude": "76.6318246",
            "address": "Gundlupet - Coimbatore Highway, Bandipur, Gundlupet taluk, Chamarajanagar district, Karnataka, India",
            "latitude": "11.6793976",
            "locType": "trunk",
            "closest_to": "talakadu"
        },
        "daria daulat gardens": {
            "blogLinks": [
                "https://www.quora.com/What-are-the-best-places-to-visit-on-a-3-day-trip-in-and-around-Karnataka"
            ],
            "longitude": "76.6969039957315",
            "address": "Daria Daulat Bagh Museum, Bangalore-Mysore Road, Srirangapatna, Srirangapattana taluk, Mandya district, Karnataka, 571438, India",
            "latitude": "12.4200182",
            "locType": "museum",
            "closest_to": "talakadu"
        },
        "raja seat": {
            "blogLinks": [
                "https://www.tripoto.com/weekend-getaways/from-talakadu"
            ],
            "longitude": "75.7369653316478",
            "address": "Raja Seat, Mahatma Gandhi Road, Madikeri, Madikeri taluku, Kodagu, Karnataka, India",
            "latitude": "12.41421975",
            "locType": "park",
            "closest_to": "talakadu"
        },
        "harihara": {
            "blogLinks": [
                "https://en.wikipedia.org/wiki/Karnataka"
            ],
            "longitude": "75.809288",
            "address": "Harihara, Harihara taluku, Davanagere district, Karnataka, 577600, India",
            "latitude": "14.5116874",
            "locType": "town",
            "closest_to": "talakadu"
        },
        "karkala": {
            "blogLinks": [
                "https://www.quora.com/What-are-the-best-places-to-visit-on-a-3-day-trip-in-and-around-Karnataka",
                "https://en.wikipedia.org/wiki/Karnataka"
            ],
            "longitude": "74.9959586",
            "address": "Karkala, Karkala taluk, Udupi district, Karnataka, 574104, India",
            "latitude": "13.2112826",
            "locType": "town",
            "closest_to": "talakadu"
        },
        "bangalore international airport": {
            "blogLinks": [
                "https://en.wikipedia.org/wiki/Karnataka"
            ],
            "longitude": "77.6770396",
            "address": "Bangalore International Airport Road, Yartiganahalli, Devanahalli taluk, Bangalore Rural, Karnataka, 560300, India",
            "latitude": "13.1980694",
            "locType": "secondary",
            "closest_to": "talakadu"
        },
        "sharavati": {
            "blogLinks": [
                "https://www.quora.com/What-are-the-best-places-to-visit-on-a-3-day-trip-in-and-around-Karnataka"
            ],
            "longitude": "74.7647294",
            "address": "Sharavati, Sagara taluk, Shimoga district, Karnataka, India",
            "latitude": "14.2360979",
            "locType": "river",
            "closest_to": "talakadu"
        },
        "nataraja": {
            "blogLinks": [
                "https://www.quora.com/Which-are-the-most-exotic-places-of-travel-in-India",
                "https://www.quora.com/What-are-the-best-places-to-visit-on-a-3-day-trip-in-and-around-Karnataka",
                "https://www.tripoto.com/weekend-getaways/from-talakadu"
            ],
            "longitude": "77.5730381173154",
            "address": "Nataraja, Sirur Park Road, Vyalikaval, Seshadripuram, Bengaluru, Bangalore Urban, Karnataka, 560001, India",
            "latitude": "12.9900332",
            "locType": "cinema",
            "closest_to": "talakadu"
        },
        "kerala": {
            "blogLinks": [
                "https://www.makemytrip.com/holidays-india/places-to-visit-bidar.html",
                "https://www.quora.com/Which-are-the-most-exotic-places-of-travel-in-India",
                "https://www.quora.com/What-are-the-best-places-to-visit-on-a-3-day-trip-in-and-around-Karnataka",
                "https://www.tripoto.com/weekend-getaways/from-talakadu",
                "https://en.wikipedia.org/wiki/Karnataka"
            ],
            "longitude": "77.6382683",
            "address": "New Life Kerala Mess, Sai Baba Mandira Road, Mottappanapalaya, Indiranagar, Bengaluru, Bangalore Urban, Karnataka, 560001, India",
            "latitude": "12.9726449",
            "locType": "restaurant",
            "closest_to": "talakadu"
        },
        "big fort": {
            "blogLinks": [
                "https://www.quora.com/Which-are-the-most-exotic-places-of-travel-in-India"
            ],
            "longitude": "76.8393148",
            "address": "Big Bazar, STBT, Dargah Road, Fort, Rauza, Kalaburagi, Gulbarga taluku, Kalaburagi district, Karnataka, 585101, India",
            "latitude": "17.3338224",
            "locType": "supermarket",
            "closest_to": "talakadu"
        },
        "emerald lake": {
            "blogLinks": [
                "https://www.tripoto.com/weekend-getaways/from-talakadu"
            ],
            "longitude": "77.8188013",
            "address": "Emerald Isle Resort, NH75, Lakshmisagara, Kolar taluk, Kolar district, Karnataka, 563133, India",
            "latitude": "13.0833534",
            "locType": "hotel",
            "closest_to": "talakadu"
        },
        "somanathapura": {
            "blogLinks": [
                "http://www.nivalink.com/destination/talakadu"
            ],
            "longitude": "77.9957587",
            "address": "Somanathapura, Bagepalli taluk, Chikkaballapura district, Karnataka, India",
            "latitude": "13.75905",
            "locType": "village",
            "closest_to": "talakadu"
        },
        "south karnataka": {
            "blogLinks": [
                "https://en.wikipedia.org/wiki/Karnataka"
            ],
            "longitude": "77.8040874",
            "address": "s, Vijayapura, Devanahalli taluk, Bangalore Rural, Karnataka, 562135, India",
            "latitude": "13.2942848",
            "locType": "residential",
            "closest_to": "talakadu"
        },
        "nilgiris": {
            "blogLinks": [
                "https://www.tripoto.com/weekend-getaways/from-talakadu"
            ],
            "longitude": "77.6069792",
            "address": "Nilgiris, Brigade Road, Tasker Town, Ashok Nagar, Bengaluru, Bangalore Urban, Karnataka, 560001, India",
            "latitude": "12.9725052",
            "locType": "supermarket",
            "closest_to": "talakadu"
        },
        "hampi": {
            "blogLinks": [
                "https://www.quora.com/Which-are-the-most-exotic-places-of-travel-in-India",
                "https://www.quora.com/What-are-the-best-places-to-visit-on-a-3-day-trip-in-and-around-Karnataka",
                "https://en.wikipedia.org/wiki/Karnataka"
            ],
            "longitude": "76.4606199",
            "address": "Hampe, Hosapete taluk, Bellary district, Karnataka, 583239, India",
            "latitude": "15.3359769",
            "locType": "village",
            "closest_to": "talakadu"
        },
        "grs fantasy park": {
            "blogLinks": [
                "https://www.quora.com/What-are-the-best-places-to-visit-on-a-3-day-trip-in-and-around-Karnataka"
            ],
            "longitude": "76.6338102194966",
            "address": "GRS Fantasy Park, Ring Road, Kumbara Koppalu, Metagalli Industrial Area, Mysuru, Mysuru taluk, Mysuru district, Karnataka, 570001, India",
            "latitude": "12.3540981",
            "locType": "theme_park",
            "closest_to": "talakadu"
        },
        "solah khamba masjid": {
            "blogLinks": [
                "http://blog.bonggeek.com/2010/01/bidar-road-trip-from-hyderabad.html",
                "https://creekntrails.com/2016/05/14/bidar-trip-from-hyderabad-on-bike-with-friends/"
            ],
            "longitude": "77.5280218541598",
            "address": "Solah Khamba Masjid, Qila Road, Multani Colony, Old City, Bidar, Bidar taluku, Bidar district, Karnataka, 585400, India",
            "latitude": "17.9208519",
            "locType": "place_of_worship",
            "closest_to": "talakadu"
        },
        "arkavati": {
            "blogLinks": [
                "https://en.wikipedia.org/wiki/Karnataka"
            ],
            "longitude": "77.3595883",
            "address": "Arkavati, Kanakapura taluk, Ramanagara district, Karnataka, India",
            "latitude": "12.6444026",
            "locType": "river",
            "closest_to": "talakadu"
        },
        "mallikarjuna": {
            "blogLinks": [
                "http://www.nivalink.com/destination/talakadu",
                "https://en.wikipedia.org/wiki/Talakad"
            ],
            "longitude": "77.0590502",
            "address": "Mallikarjuna Vadi, Basavakalyana taluku, Bidar district, Karnataka, India",
            "latitude": "17.8106693",
            "locType": "village",
            "closest_to": "talakadu"
        },
        "nandi hills": {
            "blogLinks": [
                "https://www.quora.com/What-are-the-best-places-to-visit-on-a-3-day-trip-in-and-around-Karnataka",
                "https://en.wikipedia.org/wiki/Karnataka"
            ],
            "longitude": "77.7194741670394",
            "address": "Nandi Upahara, Nandhi Hills Road, Kottige Thimmanahalli, Devanahalli taluk, Bangalore Rural, Karnataka, India",
            "latitude": "13.268142",
            "locType": "hotel",
            "closest_to": "talakadu"
        },
        "lord shiva": {
            "blogLinks": [
                "https://www.quora.com/What-are-the-best-places-to-visit-on-a-3-day-trip-in-and-around-Karnataka"
            ],
            "longitude": "77.6024995",
            "address": "Lord Shiva Temple, Marenahalli Road (South End), MICO Layout, BTM Layout, Bengaluru, Bangalore Urban, Karnataka, 560001, India",
            "latitude": "12.916875",
            "locType": "place_of_worship",
            "closest_to": "talakadu"
        },
        "kusha garden": {
            "blogLinks": [
                "https://www.quora.com/What-are-the-best-places-to-visit-on-a-3-day-trip-in-and-around-Karnataka"
            ],
            "longitude": "76.6283545564802",
            "address": "Lava Kusha Park, Lalitadri Road, Kuvempunagara, Mysuru, Mysuru taluk, Mysuru district, Karnataka, 570001, India",
            "latitude": "12.2905505",
            "locType": "park",
            "closest_to": "talakadu"
        },
        "nilgiri range": {
            "blogLinks": [
                "https://www.tripoto.com/weekend-getaways/from-talakadu"
            ],
            "longitude": "76.658639",
            "address": "Bangalore Nilgiri Road, Ittigegudu, Mysuru, Mysuru taluk, Mysuru district, Karnataka, 570001, India",
            "latitude": "12.304105",
            "locType": "primary",
            "closest_to": "talakadu"
        },
        "west": {
            "blogLinks": [
                "https://www.quora.com/Which-are-the-most-exotic-places-of-travel-in-India"
            ],
            "longitude": "77.5960999",
            "address": "w, Balmuri Main Road, Hulimavu,, Bannerghatta Road, Mico Arekere Layout 1st Stage, Hulimavu, Bengaluru, Bangalore Urban, Karnataka, 560076, India",
            "latitude": "12.8759384",
            "locType": "clothes",
            "closest_to": "talakadu"
        },
        "shorapur": {
            "blogLinks": [
                "https://en.wikipedia.org/wiki/Karnataka"
            ],
            "longitude": "76.7591995",
            "address": "Surapura, Surapura taluku, Yadagiri district, Karnataka, 585224, India",
            "latitude": "16.5208523",
            "locType": "town",
            "closest_to": "talakadu"
        },
        "andhra pradesh": {
            "blogLinks": [
                "https://www.quora.com/Which-are-the-most-exotic-places-of-travel-in-India",
                "https://en.wikipedia.org/wiki/Karnataka"
            ],
            "longitude": "79.3452447",
            "address": "Karnataka, West Mada Street, Srivari Temple, Tirumala, Chittoor, Andhra Pradesh, 517504, India",
            "latitude": "13.6841958",
            "locType": "hotel",
            "closest_to": "talakadu"
        },
        "doddamakali": {
            "blogLinks": [
                "http://www.nivalink.com/destination/talakadu"
            ],
            "longitude": "77.2173416",
            "address": "Doddamakali, Dalanakatte, Malavalli taluk, Mandya district, Karnataka, India",
            "latitude": "12.3096676",
            "locType": "locality",
            "closest_to": "talakadu"
        },
        "nandi": {
            "blogLinks": [
                "https://www.quora.com/Which-are-the-most-exotic-places-of-travel-in-India"
            ],
            "longitude": "75.8556266",
            "address": "Nandi, Tarikere taluku, Chikkamagaluru district, Karnataka, India",
            "latitude": "13.6434094",
            "locType": "village",
            "closest_to": "talakadu"
        },
        "tagore": {
            "blogLinks": [
                "https://www.quora.com/What-are-the-best-places-to-visit-on-a-3-day-trip-in-and-around-Karnataka"
            ],
            "longitude": "77.595715",
            "address": "Rabindranath Tagore Nagar, Bengaluru, Bangalore Urban, Karnataka, 560001, India",
            "latitude": "13.0227204",
            "locType": "suburb",
            "closest_to": "talakadu"
        },
        "delhi": {
            "blogLinks": [
                "https://www.makemytrip.com/holidays-india/places-to-visit-bidar.html",
                "https://www.quora.com/Which-are-the-most-exotic-places-of-travel-in-India",
                "https://en.wikipedia.org/wiki/Karnataka"
            ],
            "longitude": "77.6666062",
            "address": "Outer Ring Road, Green Glen Layout, Iblur, Bengaluru, Bangalore Urban, Karnataka, 560001, India",
            "latitude": "12.9212473",
            "locType": "trunk",
            "closest_to": "talakadu"
        },
        "sannati": {
            "blogLinks": [
                "https://en.wikipedia.org/wiki/Karnataka"
            ],
            "longitude": "76.9080631",
            "address": "Sannati, Chitapura taluku, Kalaburagi district, Karnataka, India",
            "latitude": "16.8293201",
            "locType": "village",
            "closest_to": "talakadu"
        },
        "big temple": {
            "blogLinks": [
                "https://www.quora.com/Which-are-the-most-exotic-places-of-travel-in-India"
            ],
            "longitude": "77.56794465",
            "address": "Big Bull Temple, Bull Temple Road, Yediyur, Hanumantha Nagar, Bengaluru, Bangalore Urban, Karnataka, 560001, India",
            "latitude": "12.9418582",
            "locType": "place_of_worship",
            "closest_to": "talakadu"
        },
        "lal bagh": {
            "blogLinks": [
                "https://www.tripoto.com/weekend-getaways/from-talakadu"
            ],
            "longitude": "74.8386152",
            "address": "Lal Bagh Bus Stop, Mahatma Gandhi Road, Lalbagh, Ladyhill, Mangaluru, Mangaluru taluk, Dakshina Kannada, Karnataka, 575001, India",
            "latitude": "12.8859223",
            "locType": "bus_stop",
            "closest_to": "talakadu"
        },
        "chamarajanagar": {
            "blogLinks": [
                "http://www.nivalink.com/hotel/rayariversideresort"
            ],
            "longitude": "76.9331345",
            "address": "Chamarajanagar, Nanjangudu-Chamarajanagar Road, Kadahalli, Chamarajanagara taluk, Chamarajanagar district, Karnataka, 571313, India",
            "latitude": "11.9346624",
            "locType": "station",
            "closest_to": "talakadu"
        },
        "cauvery valley": {
            "blogLinks": [
                "https://en.wikipedia.org/wiki/Talakad"
            ],
            "longitude": "77.635647",
            "address": "Temple Trees Rd, Cauvery Colony, ST Bed Layout, Koramangala, Bengaluru, Bangalore Urban, Karnataka, 560001, India",
            "latitude": "12.9327668",
            "locType": "unclassified",
            "closest_to": "talakadu"
        },
        "mandalpatti": {
            "blogLinks": [
                "https://www.quora.com/What-are-the-best-places-to-visit-on-a-3-day-trip-in-and-around-Karnataka"
            ],
            "longitude": "75.7307012",
            "address": "Mandalpatti road junction, Galibidu Road, Kalakeri Nidugane, Madikeri taluku, Kodagu, Karnataka, India",
            "latitude": "12.4486242",
            "locType": "attraction",
            "closest_to": "talakadu"
        },
        "banavasi": {
            "blogLinks": [
                "https://www.quora.com/What-are-the-best-places-to-visit-on-a-3-day-trip-in-and-around-Karnataka",
                "https://en.wikipedia.org/wiki/Karnataka"
            ],
            "longitude": "75.0129845",
            "address": "Banavasi, Shirasi taluk, Uttara Kannada, Karnataka, India",
            "latitude": "14.5389738",
            "locType": "town",
            "closest_to": "talakadu"
        },
        "goa": {
            "blogLinks": [
                "https://www.tripoto.com/weekend-getaways/from-talakadu",
                "https://en.wikipedia.org/wiki/Karnataka"
            ],
            "longitude": "77.6200027",
            "address": "Carnival De Goa, Bhaskaran Road, Gupta Layout, Halasuru, Bengaluru, Bangalore Urban, Karnataka, 560001, India",
            "latitude": "12.9750047",
            "locType": "restaurant",
            "closest_to": "talakadu"
        },
        "marikamba temple": {
            "blogLinks": [
                "https://www.quora.com/What-are-the-best-places-to-visit-on-a-3-day-trip-in-and-around-Karnataka",
                "https://en.wikipedia.org/wiki/Karnataka"
            ],
            "longitude": "74.8103631279317",
            "address": "Marikamba Temple, NH766C;SH26, Halkal, \u0c95\u0cc1\u0c82\u0ca6\u0cbe\u0caa\u0cc1\u0cb0 \u0ca4\u0cbe\u0cb2\u0cc2\u0c95\u0cc1, Udupi district, Karnataka, 576220, India",
            "latitude": "13.8626958",
            "locType": "place_of_worship",
            "closest_to": "talakadu"
        },
        "bombay": {
            "blogLinks": [
                "https://en.wikipedia.org/wiki/Karnataka"
            ],
            "longitude": "77.5500256",
            "address": "Bombay tea hotel, Hosahalli Main Road, Rajajinagar 6th Block, Goripalya, Bengaluru, Bangalore Urban, Karnataka, 560001, India",
            "latitude": "12.9632318",
            "locType": "cafe",
            "closest_to": "talakadu"
        },
        "kalyan": {
            "blogLinks": [
                "https://www.quora.com/What-are-the-best-places-to-visit-on-a-3-day-trip-in-and-around-Karnataka"
            ],
            "longitude": "77.6403368",
            "address": "Kalyan Nagar, Chelekere, Bangalore Urban, Karnataka, India",
            "latitude": "13.0221416",
            "locType": "suburb",
            "closest_to": "talakadu"
        },
        "balaji temple": {
            "blogLinks": [
                "https://www.makemytrip.com/holidays-india/places-to-visit-bidar.html"
            ],
            "longitude": "76.9394083",
            "address": "Balaji Temple, SH125, Gulbarga taluku, Kalaburagi district, Karnataka, India",
            "latitude": "17.1257089",
            "locType": "place_of_worship",
            "closest_to": "talakadu"
        },
        "iruppu falls": {
            "blogLinks": [
                "https://www.quora.com/What-are-the-best-places-to-visit-on-a-3-day-trip-in-and-around-Karnataka",
                "https://www.tripoto.com/weekend-getaways/from-talakadu"
            ],
            "longitude": "75.9839484",
            "address": "Iruppu Falls, SH89, Taila, Virajpet taluk, Kodagu, Karnataka, 571217, India",
            "latitude": "11.9667954",
            "locType": "attraction",
            "closest_to": "talakadu"
        },
        "cochin": {
            "blogLinks": [
                "https://www.makemytrip.com/holidays-india/places-to-visit-bidar.html"
            ],
            "longitude": "74.8390919",
            "address": "Cochin Bakery, Old Kent Road, Pandeshwar, Attavar, Mangaluru, Mangaluru taluk, Dakshina Kannada, Karnataka, 575001, India",
            "latitude": "12.8604752",
            "locType": "confectionery",
            "closest_to": "talakadu"
        },
        "botanical gardens": {
            "blogLinks": [
                "https://www.tripoto.com/weekend-getaways/from-talakadu"
            ],
            "longitude": "77.5744817798899",
            "address": "Botanical Garden, Cart road, Judicial Layout, Jakkur, Bangalore Urban, Karnataka, 560065, India",
            "latitude": "13.08099125",
            "locType": "protected_area",
            "closest_to": "talakadu"
        },
        "veera narayana temple": {
            "blogLinks": [
                "https://www.quora.com/What-are-the-best-places-to-visit-on-a-3-day-trip-in-and-around-Karnataka"
            ],
            "longitude": "75.9953525",
            "address": "Veera Narayana Temple, Chikmagalur Javagal Road, Narasipura, Chikkamagaluru taluku, Chikkamagaluru district, Karnataka, India",
            "latitude": "13.2821212",
            "locType": "place_of_worship",
            "closest_to": "talakadu"
        },
        "shettihalli": {
            "blogLinks": [
                "https://en.wikipedia.org/wiki/Karnataka"
            ],
            "longitude": "77.2913552",
            "address": "Shettihalli, Yadagiri taluku, Yadagiri district, Karnataka, India",
            "latitude": "16.5275873",
            "locType": "village",
            "closest_to": "talakadu"
        },
        "mallalli falls": {
            "blogLinks": [
                "https://www.tripoto.com/weekend-getaways/from-talakadu"
            ],
            "longitude": "75.723663",
            "address": "Mallalli Falls, Somawarpet taluk, Kodagu, Karnataka, India",
            "latitude": "12.6813778",
            "locType": "waterfall",
            "closest_to": "talakadu"
        },
        "kali river": {
            "blogLinks": [
                "https://www.quora.com/What-are-the-best-places-to-visit-on-a-3-day-trip-in-and-around-Karnataka"
            ],
            "longitude": "74.5802901",
            "address": "Kali, Joida taluk, Uttara Kannada, Karnataka, India",
            "latitude": "15.0145378",
            "locType": "river",
            "closest_to": "talakadu"
        },
        "shimsha": {
            "blogLinks": [
                "https://en.wikipedia.org/wiki/Karnataka"
            ],
            "longitude": "76.972542",
            "address": "Shimsha, Kunigal taluk, Tumkur district, Karnataka, India",
            "latitude": "12.8027322",
            "locType": "river",
            "closest_to": "talakadu"
        },
        "periyar lake": {
            "blogLinks": [
                "https://www.makemytrip.com/holidays-india/places-to-visit-bidar.html"
            ],
            "longitude": "77.6132559",
            "address": "Periyar Nagara Circle, Arabic College Main Road, Shampura, Lingarajapuram, Bengaluru, Bangalore Urban, Karnataka, 560001, India",
            "latitude": "13.0086948",
            "locType": "roundabout",
            "closest_to": "talakadu"
        },
        "earth": {
            "blogLinks": [
                "https://www.tripoto.com/weekend-getaways/from-talakadu"
            ],
            "longitude": "77.659986649248",
            "address": "Bharat Earth Movers Limited - BEML, GM Palya, Bengaluru, Bangalore Urban, Karnataka, 560001, India",
            "latitude": "12.9740596",
            "locType": "industrial",
            "closest_to": "talakadu"
        },
        "silent valley": {
            "blogLinks": [
                "https://www.quora.com/What-are-the-best-places-to-visit-on-a-3-day-trip-in-and-around-Karnataka"
            ],
            "longitude": "76.5819054",
            "address": "Silent Shores Resort, Krishnaraja Sagara Road, Kurgalli, Bastipura, Srirangapattana taluk, Mandya district, Karnataka, 570027, India",
            "latitude": "12.3459371",
            "locType": "hotel",
            "closest_to": "talakadu"
        },
        "adil shahi": {
            "blogLinks": [
                "https://www.quora.com/What-are-the-best-places-to-visit-on-a-3-day-trip-in-and-around-Karnataka"
            ],
            "longitude": "75.7207354",
            "address": "KSTDC Hotel Mayura Adil Shahi, Station Road, Ibrahimpura, Vijayapura, Vijayapura taluk, Bijapur district, Karnataka, 586101, India",
            "latitude": "16.829013",
            "locType": "hotel",
            "closest_to": "talakadu"
        },
        "bannerghatta national park": {
            "blogLinks": [
                "https://en.wikipedia.org/wiki/Karnataka"
            ],
            "longitude": "77.5722783830694",
            "address": "Bannerghatta National Park, Anekal Road, Begihalli, Bangalore Urban, Karnataka, 560076, India",
            "latitude": "12.77900335",
            "locType": "national_park",
            "closest_to": "talakadu"
        },
        "srirangapatna": {
            "blogLinks": [
                "https://en.wikipedia.org/wiki/Talakad",
                "https://www.scribd.com/doc/11466801/4-Exciting-places-to-see-around-Bangalore-Bangalore-weekend-getaway-and-day-trips",
                "http://www.nivalink.com/hotel/rayariversideresort"
            ],
            "longitude": "76.6850743",
            "address": "Srirangapatna, Srirangapattana taluk, Mandya district, Karnataka, 571438, India",
            "latitude": "12.4225604",
            "locType": "town",
            "closest_to": "talakadu"
        },
        "pattadakal": {
            "blogLinks": [
                "https://en.wikipedia.org/wiki/Karnataka"
            ],
            "longitude": "75.815884048161",
            "address": "Pattadakal Temples, SH14, \u0cac\u0cbe\u0c9a\u0cbf\u0ca8\u0c97\u0cc1\u0ca1\u0ccd\u0ca1, Badami taluku, Bagalkote district, Karnataka, 587211, India",
            "latitude": "15.9506349",
            "locType": "attraction",
            "closest_to": "talakadu"
        },
        "maharashtra": {
            "blogLinks": [
                "https://en.wikipedia.org/wiki/Karnataka"
            ],
            "longitude": "77.5856013",
            "address": "Bank of Maharashtra, 24th Main, K R Layout, Puttenahalli, Bengaluru, Bangalore Urban, Karnataka, 560001, India",
            "latitude": "12.9049455",
            "locType": "bank",
            "closest_to": "talakadu"
        },
        "mahabaleshwara": {
            "blogLinks": [
                "https://www.quora.com/What-are-the-best-places-to-visit-on-a-3-day-trip-in-and-around-Karnataka"
            ],
            "longitude": "77.5899749843004",
            "address": "Mahabaleshwara Temple, Mission Road (Kalinga Rao Road ), Sampangirama Nagar, Shanti Nagar, Bengaluru, Bangalore Urban, Karnataka, 560001, India",
            "latitude": "12.96264945",
            "locType": "place_of_worship",
            "closest_to": "talakadu"
        },
        "gulbarga": {
            "blogLinks": [
                "https://creekntrails.com/2016/05/14/bidar-trip-from-hyderabad-on-bike-with-friends/",
                "https://www.quora.com/What-are-the-best-places-to-visit-on-a-3-day-trip-in-and-around-Karnataka",
                "https://en.wikipedia.org/wiki/Karnataka"
            ],
            "longitude": "77.083333",
            "address": "Kalaburgi, Kalaburagi district, Karnataka, India",
            "latitude": "17.166667",
            "locType": "county",
            "closest_to": "talakadu"
        },
        "paris": {
            "blogLinks": [
                "https://www.quora.com/Which-are-the-most-exotic-places-of-travel-in-India"
            ],
            "longitude": "77.6492",
            "address": "Paris Bakery, 6th Cross Road (Leela Palace Road), Babasaheb Colony, Kodihalli, Bengaluru, Bangalore Urban, Karnataka, 560001, India",
            "latitude": "12.9654449",
            "locType": "bakery",
            "closest_to": "talakadu"
        },
        "mullayanagiri range": {
            "blogLinks": [
                "https://www.quora.com/What-are-the-best-places-to-visit-on-a-3-day-trip-in-and-around-Karnataka"
            ],
            "longitude": "75.7214034",
            "address": "Mullayyanagiri, Chikkamagaluru, Chikkamagaluru taluku, Chikkamagaluru district, Karnataka, 577101, India",
            "latitude": "13.3909217",
            "locType": "peak",
            "closest_to": "talakadu"
        },
        "bellary": {
            "blogLinks": [
                "https://en.wikipedia.org/wiki/Karnataka"
            ],
            "longitude": "76.8323648",
            "address": "Bellary, Bellary district, Karnataka, India",
            "latitude": "15.2485413",
            "locType": "county",
            "closest_to": "talakadu"
        },
        "bangalore karnataka": {
            "blogLinks": [
                "https://www.quora.com/What-are-the-best-places-to-visit-on-a-3-day-trip-in-and-around-Karnataka"
            ],
            "longitude": "77.5912997",
            "address": "Bengaluru, Bangalore Urban, Karnataka, 560001, India",
            "latitude": "12.9791198",
            "locType": "city",
            "closest_to": "talakadu"
        },
        "new zealand": {
            "blogLinks": [
                "https://en.wikipedia.org/wiki/Karnataka"
            ],
            "longitude": "77.714966",
            "address": "Subway And New Zealand Naturals Icecream, I T P L Main Road, AECS Layout C Block, Brookefields, Siddapura, Bangalore Urban, Karnataka, 560 037, India",
            "latitude": "12.956785",
            "locType": "fast_food",
            "closest_to": "talakadu"
        },
        "manali": {
            "blogLinks": [
                "https://www.makemytrip.com/holidays-india/places-to-visit-bidar.html"
            ],
            "longitude": "76.2758251256998",
            "address": "Manali Sugar, Malaghana, Sindagi taluku, Bijapur district, Karnataka, India",
            "latitude": "17.0266098",
            "locType": "industrial",
            "closest_to": "talakadu"
        },
        "navagraha": {
            "blogLinks": [
                "https://www.makemytrip.com/holidays-india/places-to-visit-bidar.html"
            ],
            "longitude": "76.9364719",
            "address": "Navagraha Temple, Gatti Layout Main Road, Gubbi, Gubbi taluk, Tumkur district, Karnataka, 572216, India",
            "latitude": "13.3106354",
            "locType": "place_of_worship",
            "closest_to": "talakadu"
        },
        "ananthapadmanabha": {
            "blogLinks": [
                "https://www.quora.com/What-are-the-best-places-to-visit-on-a-3-day-trip-in-and-around-Karnataka"
            ],
            "longitude": "74.8937899082456",
            "address": "Kudupu Ananthapadmanabha Temple, Solapur-Mangalore Highway, Shakthinagar, Kulashekara, Kudupu, Mangaluru taluk, Dakshina Kannada, Karnataka, 575007, India",
            "latitude": "12.9039019",
            "locType": "place_of_worship",
            "closest_to": "talakadu"
        },
        "brahmagiri range": {
            "blogLinks": [
                "https://www.quora.com/What-are-the-best-places-to-visit-on-a-3-day-trip-in-and-around-Karnataka"
            ],
            "longitude": "76.8122474",
            "address": "Brahmagiri Betta, Molakalmuru taluku, Chitradurga district, Karnataka, India",
            "latitude": "14.8001586",
            "locType": "peak",
            "closest_to": "talakadu"
        },
        "hassan district": {
            "blogLinks": [
                "http://www.tourism-of-india.com/shravanabelagola-tour/"
            ],
            "longitude": "76.1745460751981",
            "address": "Hassan district, Karnataka, India",
            "latitude": "13.0315068",
            "locType": "administrative",
            "closest_to": "talakadu"
        },
        "kudremukh national park": {
            "blogLinks": [
                "https://www.quora.com/What-are-the-best-places-to-visit-on-a-3-day-trip-in-and-around-Karnataka"
            ],
            "longitude": "75.1828713712862",
            "address": "Kudremukh National Park, SH66, Sringeri taluku, Chikkamagaluru district, Karnataka, India",
            "latitude": "13.25397485",
            "locType": "national_park",
            "closest_to": "talakadu"
        },
        "ambedkar stadium": {
            "blogLinks": [
                "https://en.wikipedia.org/wiki/Karnataka"
            ],
            "longitude": "75.7224503",
            "address": "Ambedkar Stadium, Station Road, Ibrahimpura, Vijayapura, Vijayapura taluk, Bijapur district, Karnataka, 586101, India",
            "latitude": "16.8298399",
            "locType": "stadium",
            "closest_to": "talakadu"
        },
        "talakad": {
            "blogLinks": [
                "https://www.scribd.com/doc/11466801/4-Exciting-places-to-see-around-Bangalore-Bangalore-weekend-getaway-and-day-trips"
            ],
            "longitude": "77.026146",
            "address": "Talakad Riverside, SH79, Mavinahalli, Tirumakudalu Narasipura taluk, Mysuru district, Karnataka, India",
            "latitude": "12.1731685",
            "locType": "picnic_site",
            "closest_to": "talakadu"
        },
        "ashoka": {
            "blogLinks": [
                "https://en.wikipedia.org/wiki/Karnataka"
            ],
            "longitude": "75.925175",
            "address": "Ashoka, SH 65, K.B. Extension, Davanagere, Davanagere taluku, Davanagere district, Karnataka, 577000, India",
            "latitude": "14.467413",
            "locType": "cinema",
            "closest_to": "talakadu"
        },
        "shravanabelagola": {
            "blogLinks": [
                "https://en.wikipedia.org/wiki/Karnataka"
            ],
            "longitude": "76.4869997",
            "address": "Shravanabelagola, Channarayapattana taluk, Hassan district, Karnataka, 573135, India",
            "latitude": "12.8581305",
            "locType": "town",
            "closest_to": "talakadu"
        },
        "ocean": {
            "blogLinks": [
                "https://www.quora.com/What-are-the-best-places-to-visit-on-a-3-day-trip-in-and-around-Karnataka"
            ],
            "longitude": "77.7178261979437",
            "address": "Gayatri Ocean Blue Apartments, Thubarahalli, Siddapura, Bangalore Urban, Karnataka, 560066, India",
            "latitude": "12.95490595",
            "locType": "residential",
            "closest_to": "talakadu"
        },
        "london": {
            "blogLinks": [
                "https://www.quora.com/Which-are-the-most-exotic-places-of-travel-in-India",
                "https://en.wikipedia.org/wiki/Karnataka"
            ],
            "longitude": "75.7223521",
            "address": "Karnataka, India",
            "latitude": "14.5203896",
            "locType": "administrative",
            "closest_to": "talakadu"
        },
        "maharaja": {
            "blogLinks": [
                "https://en.wikipedia.org/wiki/Karnataka"
            ],
            "longitude": "76.6438602",
            "address": "Maharaja, College Road, Vani Vilas, Mysuru, Mysuru taluk, Mysuru district, Karnataka, 570001, India",
            "latitude": "12.3047676",
            "locType": "restaurant",
            "closest_to": "talakadu"
        },
        "india": {
            "blogLinks": [
                "http://www.nivalink.com/destination/talakadu",
                "https://www.quora.com/What-are-the-best-places-to-visit-on-a-3-day-trip-in-and-around-Karnataka",
                "http://www.nivalink.com/hotel/rayariversideresort",
                "https://en.wikipedia.org/wiki/Karnataka",
                "https://www.makemytrip.com/holidays-india/places-to-visit-bidar.html",
                "https://www.quora.com/Which-are-the-most-exotic-places-of-travel-in-India",
                "https://creekntrails.com/2016/05/14/bidar-trip-from-hyderabad-on-bike-with-friends/",
                "https://www.tripoto.com/travel-guide/bidar",
                "http://www.krishnababug.com/2009/04/trip-to-talakad-somanathpura.html",
                "https://en.wikipedia.org/wiki/Talakad",
                "https://www.tripoto.com/weekend-getaways/from-talakadu"
            ],
            "longitude": "75.7223521",
            "address": "Karnataka, India",
            "latitude": "14.5203896",
            "locType": "administrative",
            "closest_to": "talakadu"
        },
        "bijapur": {
            "blogLinks": [
                "https://www.quora.com/Which-are-the-most-exotic-places-of-travel-in-India",
                "https://en.wikipedia.org/wiki/Karnataka"
            ],
            "longitude": "75.7175387",
            "address": "Vijayapura, Vijayapura taluk, Bijapur district, Karnataka, 586101, India",
            "latitude": "16.8269911",
            "locType": "city",
            "closest_to": "talakadu"
        },
        "urdu": {
            "blogLinks": [
                "https://en.wikipedia.org/wiki/Karnataka"
            ],
            "longitude": "75.636575371858",
            "address": "Urdu Ground, Ranebennur, Ranebennuru taluk, Haveri district, Karnataka, 581115, India",
            "latitude": "14.6180369",
            "locType": "recreation_ground",
            "closest_to": "talakadu"
        },
        "sakleshpur": {
            "blogLinks": [
                "https://www.quora.com/What-are-the-best-places-to-visit-on-a-3-day-trip-in-and-around-Karnataka"
            ],
            "longitude": "75.7862318",
            "address": "Sakaleshpura, Sakaleshapura taluk, Hassan district, Karnataka, 573134, India",
            "latitude": "12.9434349",
            "locType": "town",
            "closest_to": "talakadu"
        },
        "panambur - panambur beach": {
            "blogLinks": [
                "https://www.quora.com/What-are-the-best-places-to-visit-on-a-3-day-trip-in-and-around-Karnataka"
            ],
            "longitude": "74.8034667207214",
            "address": "Panambur Beach, Panambur Beach Road, Gandhinagar, Panambur, Mangaluru taluk, Dakshina Kannada, Karnataka, 575013, India",
            "latitude": "12.93907195",
            "locType": "beach",
            "closest_to": "talakadu"
        },
        "cheluvanarayana temple": {
            "blogLinks": [
                "https://en.wikipedia.org/wiki/Karnataka"
            ],
            "longitude": "76.6472718997846",
            "address": "Cheluvanarayana Swamy Temple, Holalu Road, Jakkanahalli, Pandavapura taluk, Mandya district, Karnataka, India",
            "latitude": "12.66022155",
            "locType": "place_of_worship",
            "closest_to": "talakadu"
        },
        "mysore": {
            "blogLinks": [
                "http://www.nivalink.com/destination/talakadu",
                "https://www.quora.com/What-are-the-best-places-to-visit-on-a-3-day-trip-in-and-around-Karnataka",
                "http://www.nivalink.com/hotel/rayariversideresort"
            ],
            "longitude": "76.6553609",
            "address": "Mysuru, Mysuru taluk, Mysuru district, Karnataka, 570001, India",
            "latitude": "12.3051828",
            "locType": "city",
            "closest_to": "talakadu"
        },
        "amboli": {
            "blogLinks": [
                "https://www.quora.com/What-are-the-best-places-to-visit-on-a-3-day-trip-in-and-around-Karnataka"
            ],
            "longitude": "74.4340839",
            "address": "Amboli, Khanapura taluku, Belgaum district, Karnataka, India",
            "latitude": "15.6456171",
            "locType": "village",
            "closest_to": "talakadu"
        },
        "telangana": {
            "blogLinks": [
                "https://en.wikipedia.org/wiki/Karnataka"
            ],
            "longitude": "78.4605921",
            "address": "Karnataka Bank, Raj Bhavan Road, MS Makta, Somajiguda, Hyderabad, Medak, Telangana, 500082, India",
            "latitude": "17.4233276",
            "locType": "bank",
            "closest_to": "talakadu"
        },
        "cambridge": {
            "blogLinks": [
                "https://en.wikipedia.org/wiki/Karnataka"
            ],
            "longitude": "77.6325101339635",
            "address": "Salarpuria Cambridge Residency, Indiranagar, Bengaluru, Bangalore Urban, Karnataka, 560001, India",
            "latitude": "12.97139405",
            "locType": "residential",
            "closest_to": "talakadu"
        },
        "kanakpura road": {
            "blogLinks": [
                "https://www.tripoto.com/weekend-getaways/from-talakadu"
            ],
            "longitude": "77.5438085908703",
            "address": "H 902, Mantri Tranquil, Gubbalala, Off Kanakpura Road, Bengaluru - 61, Subramanyapura Main Road, Singapore Gardens, Uttarahalli, Gubbalala, Bangalore Urban, Karnataka, 560086, India",
            "latitude": "12.8866679",
            "locType": "yes",
            "closest_to": "talakadu"
        },
        "vaidyanatheshwara": {
            "blogLinks": [
                "https://en.wikipedia.org/wiki/Talakad"
            ],
            "longitude": "77.0024284",
            "address": "Vaidyanatheshwara Temple, SH84, Thotasagara, Gubbi taluk, Tumkur district, Karnataka, India",
            "latitude": "13.2703825",
            "locType": "place_of_worship",
            "closest_to": "talakadu"
        },
        "ranganathittu": {
            "blogLinks": [
                "https://www.scribd.com/doc/11466801/4-Exciting-places-to-see-around-Bangalore-Bangalore-weekend-getaway-and-day-trips"
            ],
            "longitude": "76.6553081",
            "address": "Ranganathittu Bird Sanctuary, SH154, Palahalli, Srirangapattana taluk, Mandya district, Karnataka, 571438, India",
            "latitude": "12.4238524",
            "locType": "attraction",
            "closest_to": "talakadu"
        },
        "tungabhadra": {
            "blogLinks": [
                "https://www.quora.com/Which-are-the-most-exotic-places-of-travel-in-India",
                "https://en.wikipedia.org/wiki/Karnataka"
            ],
            "longitude": "76.4931607",
            "address": "Tungabhadra, Gangavati taluku, Koppal district, Karnataka, India",
            "latitude": "15.3446123",
            "locType": "river",
            "closest_to": "talakadu"
        },
        "ooty lake": {
            "blogLinks": [
                "https://www.quora.com/What-are-the-best-places-to-visit-on-a-3-day-trip-in-and-around-Karnataka",
                "https://www.tripoto.com/weekend-getaways/from-talakadu"
            ],
            "longitude": "76.6586807",
            "address": "Ooty Road, Vidyaranyapuram, Mysuru, Mysuru taluk, Mysuru district, Karnataka, 570001, India",
            "latitude": "12.2774807",
            "locType": "primary",
            "closest_to": "talakadu"
        },
        "new mangalore": {
            "blogLinks": [
                "https://en.wikipedia.org/wiki/Karnataka"
            ],
            "longitude": "74.8219606",
            "address": "New Mangalore Port, Kuloor, Mangaluru taluk, Dakshina Kannada, Karnataka, India",
            "latitude": "12.9318976",
            "locType": "locality",
            "closest_to": "talakadu"
        },
        "belagavi": {
            "blogLinks": [
                "https://en.wikipedia.org/wiki/Karnataka"
            ],
            "longitude": "74.75",
            "address": "Belgaum, Belgaum district, Karnataka, India",
            "latitude": "16.333333",
            "locType": "county",
            "closest_to": "talakadu"
        },
        "vijayanagar": {
            "blogLinks": [
                "https://en.wikipedia.org/wiki/Karnataka"
            ],
            "longitude": "77.5375757",
            "address": "Vijayanagar, Chord Road, Marenahalli, Vijaya Nagar, Binny Layout, Bangalore Urban, Karnataka, 560040, India",
            "latitude": "12.9713392",
            "locType": "station",
            "closest_to": "talakadu"
        },
        "coorg": {
            "blogLinks": [
                "https://www.quora.com/What-are-the-best-places-to-visit-on-a-3-day-trip-in-and-around-Karnataka",
                "https://www.tripoto.com/weekend-getaways/from-talakadu"
            ],
            "longitude": "75.740031",
            "address": "Madikeri, Madikeri taluku, Kodagu, Karnataka, India",
            "latitude": "12.4204003",
            "locType": "town",
            "closest_to": "talakadu"
        },
        "belgaum": {
            "blogLinks": [
                "https://www.quora.com/What-are-the-best-places-to-visit-on-a-3-day-trip-in-and-around-Karnataka",
                "https://en.wikipedia.org/wiki/Karnataka"
            ],
            "longitude": "74.75",
            "address": "Belgaum, Belgaum district, Karnataka, India",
            "latitude": "16.333333",
            "locType": "county",
            "closest_to": "talakadu"
        },
        "raichur": {
            "blogLinks": [
                "https://en.wikipedia.org/wiki/Karnataka"
            ],
            "longitude": "77.166667",
            "address": "Raichur, Raichur district, Karnataka, India",
            "latitude": "16.083333",
            "locType": "county",
            "closest_to": "talakadu"
        },
        "kodagu": {
            "blogLinks": [
                "https://www.tripoto.com/weekend-getaways/from-talakadu",
                "https://en.wikipedia.org/wiki/Karnataka"
            ],
            "longitude": "75.6677235950852",
            "address": "Kodagu, Karnataka, India",
            "latitude": "12.38117345",
            "locType": "administrative",
            "closest_to": "talakadu"
        },
        "chola": {
            "blogLinks": [
                "https://www.quora.com/Which-are-the-most-exotic-places-of-travel-in-India"
            ],
            "longitude": "76.098782",
            "address": "Chola Gold Loan, Bengaluru - Mangaluru Road, Ravindra Nagar, Santhe Pete, Hassan, Hasana taluk, Hassan district, Karnataka, 573201, India",
            "latitude": "13.0023906",
            "locType": "yes",
            "closest_to": "talakadu"
        },
        "karnataka": {
            "blogLinks": [
                "http://blog.bonggeek.com/2010/01/bidar-road-trip-from-hyderabad.html",
                "https://www.quora.com/What-are-the-best-places-to-visit-on-a-3-day-trip-in-and-around-Karnataka",
                "http://www.nivalink.com/hotel/rayariversideresort",
                "https://en.wikipedia.org/wiki/Karnataka",
                "https://www.quora.com/Which-are-the-most-exotic-places-of-travel-in-India",
                "https://creekntrails.com/2016/05/14/bidar-trip-from-hyderabad-on-bike-with-friends/",
                "https://www.scribd.com/doc/11466801/4-Exciting-places-to-see-around-Bangalore-Bangalore-weekend-getaway-and-day-trips",
                "https://www.tripoto.com/travel-guide/bidar",
                "http://www.godakshin.com/travel-guides/4-exciting-places-visit-around-bangalore-732.html",
                "http://www.tourism-of-india.com/shravanabelagola-tour/",
                "https://en.wikipedia.org/wiki/Talakad",
                "https://www.tripoto.com/weekend-getaways/from-talakadu"
            ],
            "longitude": "76.6639936",
            "address": "Karnataka, Shalivahana Road, Nazarbad, Mysuru, Mysuru taluk, Mysuru district, Karnataka, 570001, India",
            "latitude": "12.3084901",
            "locType": "atm",
            "closest_to": "talakadu"
        },
        "bijapur district": {
            "blogLinks": [
                "https://www.quora.com/What-are-the-best-places-to-visit-on-a-3-day-trip-in-and-around-Karnataka"
            ],
            "longitude": "75.897147327785",
            "address": "Bijapur district, Karnataka, India",
            "latitude": "16.81105965",
            "locType": "administrative",
            "closest_to": "talakadu"
        },
        "north karnataka": {
            "blogLinks": [
                "https://www.quora.com/What-are-the-best-places-to-visit-on-a-3-day-trip-in-and-around-Karnataka",
                "https://en.wikipedia.org/wiki/Karnataka"
            ],
            "longitude": "77.7660547",
            "address": "N, Chaithanya Samarpan, Kadugodi, Kannamangala, Bangalore Urban, Karnataka, 560066, India",
            "latitude": "13.0217151",
            "locType": "service",
            "closest_to": "talakadu"
        },
        "mangalore": {
            "blogLinks": [
                "https://www.quora.com/What-are-the-best-places-to-visit-on-a-3-day-trip-in-and-around-Karnataka",
                "https://www.tripoto.com/weekend-getaways/from-talakadu",
                "https://en.wikipedia.org/wiki/Karnataka"
            ],
            "longitude": "74.8430082",
            "address": "Mangaluru, Mangaluru taluk, Dakshina Kannada, Karnataka, 575001, India",
            "latitude": "12.8698101",
            "locType": "city",
            "closest_to": "talakadu"
        },
        "sangameshwara": {
            "blogLinks": [
                "https://www.quora.com/What-are-the-best-places-to-visit-on-a-3-day-trip-in-and-around-Karnataka"
            ],
            "longitude": "74.87651",
            "address": "Sangameshwara, Kalaghatagi taluku, Dharwad district, Karnataka, India",
            "latitude": "15.184341",
            "locType": "village",
            "closest_to": "talakadu"
        },
        "parvati": {
            "blogLinks": [
                "https://www.quora.com/What-are-the-best-places-to-visit-on-a-3-day-trip-in-and-around-Karnataka"
            ],
            "longitude": "75.7898501",
            "address": "Parvati, Badami taluku, Bagalkote district, Karnataka, India",
            "latitude": "16.0395701",
            "locType": "village",
            "closest_to": "talakadu"
        },
        "film city": {
            "blogLinks": [
                "https://www.scribd.com/doc/11466801/4-Exciting-places-to-see-around-Bangalore-Bangalore-weekend-getaway-and-day-trips"
            ],
            "longitude": "77.4159034443171",
            "address": "Innovative Film City, eagleton, Eagleton Golf Village, Gollarapalya, Ramanagara taluk, Ramanagara district, Karnataka, India",
            "latitude": "12.77691615",
            "locType": "attraction",
            "closest_to": "talakadu"
        },
        "hubli": {
            "blogLinks": [
                "https://en.wikipedia.org/wiki/Karnataka"
            ],
            "longitude": "75.1379848",
            "address": "Hubballi - \u0cb9\u0cc1\u0cac\u0ccd\u0cac\u0cb3\u0ccd\u0cb3\u0cbf, Hubballi taluku, Dharwad district, Karnataka, 580020, India",
            "latitude": "15.3518378",
            "locType": "city",
            "closest_to": "talakadu"
        },
        "gurupura": {
            "blogLinks": [
                "https://www.quora.com/What-are-the-best-places-to-visit-on-a-3-day-trip-in-and-around-Karnataka"
            ],
            "longitude": "75.7161587",
            "address": "Gurupura, Tarikere taluku, Chikkamagaluru district, Karnataka, India",
            "latitude": "13.6686411",
            "locType": "village",
            "closest_to": "talakadu"
        },
        "dharwad": {
            "blogLinks": [
                "https://en.wikipedia.org/wiki/Karnataka"
            ],
            "longitude": "75.0066516",
            "address": "Dharwad, Dharawada taluku, Dharwad district, Karnataka, 580001, India",
            "latitude": "15.4540505",
            "locType": "city",
            "closest_to": "talakadu"
        },
        "hyderabad": {
            "blogLinks": [
                "http://www.hoparoundindia.com/karnataka/attractions/bidar.aspx",
                "http://blog.bonggeek.com/2010/01/bidar-road-trip-from-hyderabad.html",
                "https://creekntrails.com/2016/05/14/bidar-trip-from-hyderabad-on-bike-with-friends/",
                "https://www.tripoto.com/travel-guide/bidar",
                "https://en.wikipedia.org/wiki/Karnataka"
            ],
            "longitude": "77.5344002",
            "address": "Hyderabad Road, Old City, Bidar, Bidar taluku, Bidar district, Karnataka, 585400, India",
            "latitude": "17.9003114",
            "locType": "primary",
            "closest_to": "talakadu"
        },
        "gokul garden": {
            "blogLinks": [
                "https://www.quora.com/What-are-the-best-places-to-visit-on-a-3-day-trip-in-and-around-Karnataka"
            ],
            "longitude": "75.1141861403246",
            "address": "Gokul Garden, Gokul Road / Airport Road, Renuka Nagar, Padmaraj Nagar, Gokul, Hubballi taluku, Dharwad district, Karnataka, 580030, India",
            "latitude": "15.35009745",
            "locType": "recreation_ground",
            "closest_to": "talakadu"
        },
        "bahubali": {
            "blogLinks": [
                "https://www.quora.com/What-are-the-best-places-to-visit-on-a-3-day-trip-in-and-around-Karnataka",
                "http://www.tourism-of-india.com/shravanabelagola-tour/",
                "http://www.nivalink.com/hotel/rayariversideresort"
            ],
            "longitude": "76.4846128",
            "address": "Bahubali Statue, SH8, Shravanabelagola, Channarayapattana taluk, Hassan district, Karnataka, 573135, India",
            "latitude": "12.8540505",
            "locType": "place_of_worship",
            "closest_to": "talakadu"
        },
        "sirsi": {
            "blogLinks": [
                "https://www.quora.com/What-are-the-best-places-to-visit-on-a-3-day-trip-in-and-around-Karnataka"
            ],
            "longitude": "74.8388611",
            "address": "Sirsi, Shirasi taluk, Uttara Kannada, Karnataka, 581400, India",
            "latitude": "14.6192362",
            "locType": "town",
            "closest_to": "talakadu"
        },
        "kannur": {
            "blogLinks": [
                "https://www.tripoto.com/weekend-getaways/from-talakadu"
            ],
            "longitude": "74.8858161",
            "address": "Netravati bridge - Kannur Bypass Road (Proposed), Padil, Bajal, Mangaluru taluk, Dakshina Kannada, Karnataka, 575007, India",
            "latitude": "12.8487602",
            "locType": "construction",
            "closest_to": "talakadu"
        },
        "southern karnataka": {
            "blogLinks": [
                "https://en.wikipedia.org/wiki/Karnataka"
            ],
            "longitude": "77.6227757667762",
            "address": "Survey Of India - Southern Zone, Madivala, Bengaluru, Bangalore Urban, Karnataka, 560001, India",
            "latitude": "12.92588785",
            "locType": "commercial",
            "closest_to": "talakadu"
        },
        "madhukeshwara": {
            "blogLinks": [
                "https://www.quora.com/What-are-the-best-places-to-visit-on-a-3-day-trip-in-and-around-Karnataka"
            ],
            "longitude": "75.1480027",
            "address": "Madhukeshwara Temple, Kattinakere Road, Kattinakere Bus Stand, Soraba taluk, Shimoga district, Karnataka, India",
            "latitude": "14.3058996",
            "locType": "place_of_worship",
            "closest_to": "talakadu"
        },
        "krishna river": {
            "blogLinks": [
                "https://en.wikipedia.org/wiki/Karnataka"
            ],
            "longitude": "77.0529845",
            "address": "Krishna, Shahapura taluku, Yadagiri district, Karnataka, India",
            "latitude": "16.5209569",
            "locType": "river",
            "closest_to": "talakadu"
        },
        "baba mandir": {
            "blogLinks": [
                "https://www.makemytrip.com/holidays-india/places-to-visit-bidar.html"
            ],
            "longitude": "76.9019893463562",
            "address": "Bhagavan Sri Sathya Sai Baba Mandir, Bangalore-Mysore Road, Yaliyuru, Mandya taluk, Mandya district, Karnataka, 571426, India",
            "latitude": "12.52907615",
            "locType": "place_of_worship",
            "closest_to": "talakadu"
        },
        "tunga": {
            "blogLinks": [
                "https://www.quora.com/What-are-the-best-places-to-visit-on-a-3-day-trip-in-and-around-Karnataka"
            ],
            "longitude": "75.3221835",
            "address": "Tunga, Tirthahalli taluk, Shimoga district, Karnataka, India",
            "latitude": "13.6632221",
            "locType": "river",
            "closest_to": "talakadu"
        },
        "bidadi": {
            "blogLinks": [
                "http://www.godakshin.com/travel-guides/4-exciting-places-visit-around-bangalore-732.html",
                "https://www.scribd.com/doc/11466801/4-Exciting-places-to-see-around-Bangalore-Bangalore-weekend-getaway-and-day-trips"
            ],
            "longitude": "77.3869947",
            "address": "Bidadi, Ramanagara taluk, Ramanagara district, Karnataka, India",
            "latitude": "12.7988507",
            "locType": "town",
            "closest_to": "talakadu"
        },
        "cauvery": {
            "blogLinks": [
                "https://en.wikipedia.org/wiki/Talakad"
            ],
            "longitude": "77.5832796015599",
            "address": "Cauvery, 1st Main Road, Lower Palace Orchard, Guttahalli, Bengaluru, Bangalore Urban, Karnataka, 560001, India",
            "latitude": "13.00262215",
            "locType": "cinema",
            "closest_to": "talakadu"
        },
        "kadamba": {
            "blogLinks": [
                "https://www.quora.com/What-are-the-best-places-to-visit-on-a-3-day-trip-in-and-around-Karnataka"
            ],
            "longitude": "77.7436954",
            "address": "Kadamba Avenue, R. Narayanapura, Brookefields, Dodsworth Enclave, Bangalore Urban, Karnataka, 560066, India",
            "latitude": "12.9703178",
            "locType": "residential",
            "closest_to": "talakadu"
        },
        "solah khamba": {
            "blogLinks": [
                "https://www.tripoto.com/travel-guide/bidar"
            ],
            "longitude": "77.5280218541598",
            "address": "Solah Khamba Masjid, Qila Road, Multani Colony, Old City, Bidar, Bidar taluku, Bidar district, Karnataka, 585400, India",
            "latitude": "17.9208519",
            "locType": "place_of_worship",
            "closest_to": "talakadu"
        },
        "sri krishna temple": {
            "blogLinks": [
                "https://www.quora.com/What-are-the-best-places-to-visit-on-a-3-day-trip-in-and-around-Karnataka"
            ],
            "longitude": "77.6437236",
            "address": "Sri Krishna Temple Road, Old Binnamangala, Hoysala Nagar, Bengaluru, Bangalore Urban, Karnataka, 560001, India",
            "latitude": "12.9791699",
            "locType": "unclassified",
            "closest_to": "talakadu"
        },
        "gurudwara": {
            "blogLinks": [
                "http://blog.bonggeek.com/2010/01/bidar-road-trip-from-hyderabad.html",
                "https://creekntrails.com/2016/05/14/bidar-trip-from-hyderabad-on-bike-with-friends/",
                "http://www.godakshin.com/travel-guides/4-exciting-places-visit-around-bangalore-732.html"
            ],
            "longitude": "77.6206886107944",
            "address": "Gurudwara, Bhaskaran Road, Gupta Layout, Halasuru, Bengaluru, Bangalore Urban, Karnataka, 560001, India",
            "latitude": "12.97623345",
            "locType": "place_of_worship",
            "closest_to": "talakadu"
        },
        "kola": {
            "blogLinks": [
                "http://www.tourism-of-india.com/shravanabelagola-tour/"
            ],
            "longitude": "76.6469261793821",
            "address": "Akka thangyara Kola, Holalu Road, Jakkanahalli, Pandavapura taluk, Mandya district, Karnataka, India",
            "latitude": "12.65786515",
            "locType": "attraction",
            "closest_to": "talakadu"
        },
        "kabini": {
            "blogLinks": [
                "https://en.wikipedia.org/wiki/Karnataka"
            ],
            "longitude": "76.4152088",
            "address": "Kabini, Heggadadevanakote taluk, Mysuru district, Karnataka, India",
            "latitude": "12.0140065",
            "locType": "river",
            "closest_to": "talakadu"
        },
        "kali": {
            "blogLinks": [
                "https://www.quora.com/What-are-the-best-places-to-visit-on-a-3-day-trip-in-and-around-Karnataka"
            ],
            "longitude": "74.5802901",
            "address": "Kali, Joida taluk, Uttara Kannada, Karnataka, India",
            "latitude": "15.0145378",
            "locType": "river",
            "closest_to": "talakadu"
        },
        "narasimha swami temple": {
            "blogLinks": [
                "https://www.quora.com/What-are-the-best-places-to-visit-on-a-3-day-trip-in-and-around-Karnataka"
            ],
            "longitude": "77.6485907840766",
            "address": "Narasimha Swami Temple, Prime City Apartment Private Road, Electronics City Phase 1, Doddathoguru, Bangalore Urban, Karnataka, 560100, India",
            "latitude": "12.85075195",
            "locType": "place_of_worship",
            "closest_to": "talakadu"
        },
        "kanchipuram": {
            "blogLinks": [
                "https://www.quora.com/Which-are-the-most-exotic-places-of-travel-in-India"
            ],
            "longitude": "79.3452447",
            "address": "Karnataka, West Mada Street, Srivari Temple, Tirumala, Chittoor, Andhra Pradesh, 517504, India",
            "latitude": "13.6841958",
            "locType": "hotel",
            "closest_to": "talakadu"
        },
        "bangkok": {
            "blogLinks": [
                "https://www.quora.com/What-are-the-best-places-to-visit-on-a-3-day-trip-in-and-around-Karnataka"
            ],
            "longitude": "77.6382633",
            "address": "One night in Bangkok, 12th Main Road, HAL 2nd Stage, Indiranagar, Bengaluru, Bangalore Urban, Karnataka, 560001, India",
            "latitude": "12.9701967",
            "locType": "bar",
            "closest_to": "talakadu"
        },
        "lhasa": {
            "blogLinks": [
                "https://www.quora.com/Which-are-the-most-exotic-places-of-travel-in-India"
            ],
            "longitude": "75.9677448",
            "address": "Lhasa, MDR21, Koppa, Piriyapattana taluk, Mysuru district, Karnataka, India",
            "latitude": "12.4308198",
            "locType": "artwork",
            "closest_to": "talakadu"
        },
        "sharadamba temple": {
            "blogLinks": [
                "https://en.wikipedia.org/wiki/Karnataka"
            ],
            "longitude": "77.5656194",
            "address": "Sharadamba Temple, 7th Main Road, Yediyur, Thyagaraja Nagar, Bengaluru, Bangalore Urban, Karnataka, 560001, India",
            "latitude": "12.9321898",
            "locType": "place_of_worship",
            "closest_to": "talakadu"
        },
        "shivamogga": {
            "blogLinks": [
                "https://en.wikipedia.org/wiki/Karnataka"
            ],
            "longitude": "75.569737",
            "address": "Shivamogga, Shivamogga taluku, Shimoga district, Karnataka, 577200, India",
            "latitude": "13.9311723",
            "locType": "city",
            "closest_to": "talakadu"
        },
        "dharmasthala": {
            "blogLinks": [
                "https://en.wikipedia.org/wiki/Karnataka"
            ],
            "longitude": "75.3813122",
            "address": "Dharmasthala, Beltangadi taluk, Dakshina Kannada, Karnataka, 574216, India",
            "latitude": "12.9519571",
            "locType": "village",
            "closest_to": "talakadu"
        },
        "chinnaswamy stadium": {
            "blogLinks": [
                "https://en.wikipedia.org/wiki/Karnataka"
            ],
            "longitude": "77.5989571",
            "address": "Chinnaswamy Stadium, Queen's Road, Shantala Nagar, Shivajinagar, Bengaluru, Bangalore Urban, Karnataka, 560001, India",
            "latitude": "12.9774956",
            "locType": "bus_stop",
            "closest_to": "talakadu"
        },
        "mirjan fort": {
            "blogLinks": [
                "https://www.quora.com/What-are-the-best-places-to-visit-on-a-3-day-trip-in-and-around-Karnataka"
            ],
            "longitude": "74.4174838158512",
            "address": "Mirjana Fort, Edapally- Panvel Highway, Kimani, Kumata taluk, Uttara Kannada, Karnataka, 581344, India",
            "latitude": "14.48905715",
            "locType": "attraction",
            "closest_to": "talakadu"
        },
        "koramangala": {
            "blogLinks": [
                "http://www.krishnababug.com/2009/04/trip-to-talakad-somanathpura.html"
            ],
            "longitude": "77.7519261",
            "address": "Koramangala, Devanahalli taluk, Bangalore Rural, Karnataka, India",
            "latitude": "13.2923988",
            "locType": "village",
            "closest_to": "talakadu"
        },
        "mandya": {
            "blogLinks": [
                "https://www.tripoto.com/weekend-getaways/from-talakadu"
            ],
            "longitude": "76.8937392",
            "address": "Mandya, Mandya taluk, Mandya district, Karnataka, 571401, India",
            "latitude": "12.5217836",
            "locType": "town",
            "closest_to": "talakadu"
        },
        "b.r hills": {
            "blogLinks": [
                "http://www.nivalink.com/hotel/rayariversideresort"
            ],
            "longitude": "77.144107",
            "address": "Biligiri Rangana Betta, Yalanduru taluk, Chamarajanagar district, Karnataka, India",
            "latitude": "11.984397",
            "locType": "peak",
            "closest_to": "talakadu"
        },
        "krishnagiri": {
            "blogLinks": [
                "http://www.godakshin.com/travel-guides/4-exciting-places-visit-around-bangalore-732.html",
                "https://www.scribd.com/doc/11466801/4-Exciting-places-to-see-around-Bangalore-Bangalore-weekend-getaway-and-day-trips"
            ],
            "longitude": "75.1096736",
            "address": "Krishnagiri Colony, Padmaraj Nagar, Hubballi - \u0cb9\u0cc1\u0cac\u0ccd\u0cac\u0cb3\u0ccd\u0cb3\u0cbf, Hubballi taluku, Dharwad district, Karnataka, 580020, India",
            "latitude": "15.3375394",
            "locType": "neighbourhood",
            "closest_to": "talakadu"
        },
        "dubare elephant camp": {
            "blogLinks": [
                "https://www.tripoto.com/weekend-getaways/from-talakadu"
            ],
            "longitude": "75.9066719",
            "address": "Dubare Elephant Camp, SH91, Dodda Bettageri, Somawarpet taluk, Kodagu, Karnataka, India",
            "latitude": "12.3716865",
            "locType": "attraction",
            "closest_to": "talakadu"
        },
        "madikeri fort": {
            "blogLinks": [
                "https://www.tripoto.com/weekend-getaways/from-talakadu"
            ],
            "longitude": "75.7392494",
            "address": "Madikeri Museum, Fort Internal Road, Madikeri, Madikeri taluku, Kodagu, Karnataka, India",
            "latitude": "12.4203606",
            "locType": "museum",
            "closest_to": "talakadu"
        },
        "golden temple": {
            "blogLinks": [
                "https://www.quora.com/What-are-the-best-places-to-visit-on-a-3-day-trip-in-and-around-Karnataka"
            ],
            "longitude": "75.9674656",
            "address": "Padmasambhava Buddhist Vihara (Golden Temple), MDR21, Koppa, Piriyapattana taluk, Mysuru district, Karnataka, India",
            "latitude": "12.430821",
            "locType": "place_of_worship",
            "closest_to": "talakadu"
        },
        "vijaya karnataka": {
            "blogLinks": [
                "https://en.wikipedia.org/wiki/Karnataka"
            ],
            "longitude": "76.6418941",
            "address": "Vijaya Karnataka, 1st Cross Road, Chamarajapuram, Mysuru, Mysuru taluk, Mysuru district, Karnataka, 570001, India",
            "latitude": "12.2982365",
            "locType": "newspaper",
            "closest_to": "talakadu"
        },
        "river cauvery": {
            "blogLinks": [
                "https://www.tripoto.com/weekend-getaways/from-talakadu"
            ],
            "longitude": "77.5832796015599",
            "address": "Cauvery, 1st Main Road, Lower Palace Orchard, Guttahalli, Bengaluru, Bangalore Urban, Karnataka, 560001, India",
            "latitude": "13.00262215",
            "locType": "cinema",
            "closest_to": "talakadu"
        },
        "bandipur national park": {
            "blogLinks": [
                "https://www.quora.com/What-are-the-best-places-to-visit-on-a-3-day-trip-in-and-around-Karnataka",
                "https://en.wikipedia.org/wiki/Karnataka"
            ],
            "longitude": "76.4314968740264",
            "address": "Bandipur National Park, Kozhikode - Kollegal Highway, Gundlupet taluk, Chamarajanagar district, Karnataka, India",
            "latitude": "11.76682425",
            "locType": "national_park",
            "closest_to": "talakadu"
        },
        "north kerala": {
            "blogLinks": [
                "http://www.nivalink.com/destination/talakadu"
            ],
            "longitude": "77.6382683",
            "address": "New Life Kerala Mess, Sai Baba Mandira Road, Mottappanapalaya, Indiranagar, Bengaluru, Bangalore Urban, Karnataka, 560001, India",
            "latitude": "12.9726449",
            "locType": "restaurant",
            "closest_to": "talakadu"
        },
        "maddur": {
            "blogLinks": [
                "https://www.quora.com/What-are-the-best-places-to-visit-on-a-3-day-trip-in-and-around-Karnataka",
                "http://www.godakshin.com/travel-guides/4-exciting-places-visit-around-bangalore-732.html",
                "https://www.scribd.com/doc/11466801/4-Exciting-places-to-see-around-Bangalore-Bangalore-weekend-getaway-and-day-trips"
            ],
            "longitude": "77.0456404",
            "address": "Maddur, Madduru taluk, Mandya district, Karnataka, 571428, India",
            "latitude": "12.5851916",
            "locType": "town",
            "closest_to": "talakadu"
        },
        "kuppali": {
            "blogLinks": [
                "https://www.quora.com/What-are-the-best-places-to-visit-on-a-3-day-trip-in-and-around-Karnataka"
            ],
            "longitude": "75.3158067",
            "address": "Kuppali Road, Kuppalli, Tirthahalli taluk, Shimoga district, Karnataka, India",
            "latitude": "13.5998255",
            "locType": "tertiary",
            "closest_to": "talakadu"
        },
        "kolkata": {
            "blogLinks": [
                "https://www.quora.com/Which-are-the-most-exotic-places-of-travel-in-India"
            ],
            "longitude": "77.5478044",
            "address": "Kolkata Biryani And Rolls, 1st Main Basaveshwaranagar, Rajajinagar 3rd Block, Dasarahalli, Bengaluru, Bangalore Urban, Karnataka, 560010, India",
            "latitude": "12.9845159",
            "locType": "restaurant",
            "closest_to": "talakadu"
        },