{
    "dandeli": {
        "lat": "15.2490284",
        "class": "place",
        "importance": 0.5,
        "osm_type": "node",
        "lon": "74.6236037",
        "place_id": "5820025",
        "display_name": "Dandeli, Haliyala taluku, Uttara Kannada, Karnataka, 581325, India",
        "osm_id": "612546262",
        "boundingbox": [
            "15.2090284",
            "15.2890284",
            "74.5836037",
            "74.6636037"
        ],
        "type": "town",
        "licence": "Data \u00a9 OpenStreetMap contributors, ODbL 1.0. http://www.openstreetmap.org/copyright",
        "icon": "https://nominatim.openstreetmap.org/images/mapicons/poi_place_town.p.20.png"
    },
    "mentions": {
        "kamalapura": {
            "blogLinks": [
                "http://travel.india.com/explore/wildlife-sanctuaries-in-karnataka/"
            ],
            "longitude": "75.7316366",
            "address": "Kamalapura, Harihara taluku, Davanagere district, Karnataka, India",
            "latitude": "14.4449672",
            "locType": "village",
            "closest_to": "dandeli"
        },
        "varaha": {
            "blogLinks": [
                "https://en.wikipedia.org/wiki/Tourism_in_Karnataka"
            ],
            "longitude": "75.3718812",
            "address": "Varaha, Hirekeruru taluk, Haveri district, Karnataka, India",
            "latitude": "14.390777",
            "locType": "village",
            "closest_to": "dandeli"
        },
        "nagajhari river": {
            "blogLinks": [
                "http://www.holidayiq.com/Dandeli-Sightseeing-345.html"
            ],
            "longitude": "74.5013412",
            "address": "Nagajhari School, Belgaum - Panaji Highway, Cantonment, Belagavi, Belagavi taluku, Belgaum district, Karnataka, 590001, India",
            "latitude": "15.8351706",
            "locType": "school",
            "closest_to": "dandeli"
        },
        "india": {
            "blogLinks": [
                "http://journeymart.com/de/india/karnataka/dandeli-best-time-to-visit.aspx",
                "https://www.quora.com/What-are-the-best-places-to-visit-on-a-3-day-trip-in-and-around-Karnataka",
                "https://www.distancecalculator.net/from-bijapur-to-dandeli",
                "http://www.holidayiq.com/Dandeli-Sightseeing-345.html",
                "http://distancecalculator.globefeed.com/India_Distance_Calculator.asp?state=19",
                "https://en.wikipedia.org/wiki/Tourism_in_Karnataka",
                "http://travel.india.com/explore/wildlife-sanctuaries-in-karnataka/",
                "http://traveltriangle.com/blog/best-places-to-visit-in-karnataka/",
                "https://www.tripoto.com/weekend-getaways/from-bijapur",
                "http://www.nivalink.com/destination/dandeli",
                "https://www.tripoto.com/weekend-getaways/from-dandeli"
            ],
            "longitude": "75.7223521",
            "address": "Karnataka, India",
            "latitude": "14.5203896",
            "locType": "administrative",
            "closest_to": "dandeli"
        },
        "bijapur": {
            "blogLinks": [
                "https://en.wikipedia.org/wiki/Tourism_in_Karnataka",
                "http://www.holidayiq.com/Bijapur-Sightseeing-646.html",
                "http://journeymart.com/de/india/karnataka/sightseeing/default.aspx"
            ],
            "longitude": "75.7175387",
            "address": "Vijayapura, Vijayapura taluk, Bijapur district, Karnataka, 586101, India",
            "latitude": "16.8269911",
            "locType": "city",
            "closest_to": "dandeli"
        },
        "kagal": {
            "blogLinks": [
                "https://en.wikipedia.org/wiki/Tourism_in_Karnataka"
            ],
            "longitude": "74.3575302591262",
            "address": "Kagal Fort, Birkodi Village, Kumata taluk, Uttara Kannada, Karnataka, India",
            "latitude": "14.5055819",
            "locType": "grass",
            "closest_to": "dandeli"
        },
        "haveri": {
            "blogLinks": [
                "https://en.wikipedia.org/wiki/Tourism_in_Karnataka"
            ],
            "longitude": "75.3996731",
            "address": "Haveri, Haveri taluku, Haveri district, Karnataka, 581110, India",
            "latitude": "14.7874825",
            "locType": "town",
            "closest_to": "dandeli"
        },
        "vyasanakere": {
            "blogLinks": [
                "http://travel.india.com/explore/wildlife-sanctuaries-in-karnataka/"
            ],
            "longitude": "76.3553916",
            "address": "Vyasanakere, Hosapete taluk, Bellary district, Karnataka, India",
            "latitude": "15.1954023",
            "locType": "village",
            "closest_to": "dandeli"
        },
        "lokapura": {
            "blogLinks": [
                "https://en.wikipedia.org/wiki/Tourism_in_Karnataka"
            ],
            "longitude": "75.3685939",
            "address": "Lokapura, Mudhola taluku, Bagalkote district, Karnataka, 587122, India",
            "latitude": "16.1627427",
            "locType": "town",
            "closest_to": "dandeli"
        },
        "shimoga": {
            "blogLinks": [
                "https://en.wikipedia.org/wiki/Tourism_in_Karnataka"
            ],
            "longitude": "75.569737",
            "address": "Shivamogga, Shivamogga taluku, Shimoga district, Karnataka, 577200, India",
            "latitude": "13.9311723",
            "locType": "city",
            "closest_to": "dandeli"
        },
        "tagore beach": {
            "blogLinks": [
                "https://www.quora.com/What-are-the-best-places-to-visit-on-a-3-day-trip-in-and-around-Karnataka"
            ],
            "longitude": "74.126114099183",
            "address": "Rabindranath Tagore Beach, NH66, Kodibag, Karwar, Karavara taluk, Uttara Kannada, Karnataka, 581300, India",
            "latitude": "14.81741155",
            "locType": "beach",
            "closest_to": "dandeli"
        },
        "hospet": {
            "blogLinks": [
                "http://www.nivalink.com/destination/dandeli",
                "http://travel.india.com/explore/wildlife-sanctuaries-in-karnataka/"
            ],
            "longitude": "76.3870527",
            "address": "Hosapete, Hosapete taluk, Bellary district, Karnataka, 583200, India",
            "latitude": "15.266079",
            "locType": "town",
            "closest_to": "dandeli"
        },
        "nagareshwara": {
            "blogLinks": [
                "https://en.wikipedia.org/wiki/Tourism_in_Karnataka"
            ],
            "longitude": "77.3934679",
            "address": "Nagareshwara Temple, SH126, Dantapur, Yadagiri taluku, Yadagiri district, Karnataka, India",
            "latitude": "16.8662525",
            "locType": "place_of_worship",
            "closest_to": "bijapur"
        },
        "amboli": {
            "blogLinks": [
                "https://www.quora.com/What-are-the-best-places-to-visit-on-a-3-day-trip-in-and-around-Karnataka"
            ],
            "longitude": "74.4340839",
            "address": "Amboli, Khanapura taluku, Belgaum district, Karnataka, India",
            "latitude": "15.6456171",
            "locType": "village",
            "closest_to": "dandeli"
        },
        "anegundi": {
            "blogLinks": [
                "https://en.wikipedia.org/wiki/Tourism_in_Karnataka"
            ],
            "longitude": "76.4924232",
            "address": "Anegundi, Gangavati taluku, Koppal district, Karnataka, India",
            "latitude": "15.3509583",
            "locType": "village",
            "closest_to": "dandeli"
        },
        "margao": {
            "blogLinks": [
                "https://www.tripoto.com/weekend-getaways/from-dandeli",
                "https://www.tripoto.com/weekend-getaways/from-bijapur"
            ],
            "longitude": "73.9583411",
            "address": "Karnataka bank, NH66, Aquem, Fatorda, Margao, South Goa, Goa, 403600, India",
            "latitude": "15.2740083",
            "locType": "bank",
            "closest_to": "dandeli"
        },
        "shirali": {
            "blogLinks": [
                "https://en.wikipedia.org/wiki/Tourism_in_Karnataka"
            ],
            "longitude": "74.5286591",
            "address": "Shirali, Bhatkala taluk, Uttara Kannada, Karnataka, 581354, India",
            "latitude": "14.0280925",
            "locType": "village",
            "closest_to": "dandeli"
        },
        "unchalli falls": {
            "blogLinks": [
                "https://en.wikipedia.org/wiki/Tourism_in_Karnataka"
            ],
            "longitude": "74.7477592",
            "address": "\u0c89\u0c82\u0c9a\u0cb3\u0ccd\u0cb3\u0cbf \u0c9c\u0cb2\u0caa\u0cbe\u0ca4, Siddapura taluk, Uttara Kannada, Karnataka, India",
            "latitude": "14.4097755",
            "locType": "waterfall",
            "closest_to": "dandeli"
        },
        "kali": {
            "blogLinks": [
                "http://www.nivalink.com/destination/dandeli",
                "https://www.quora.com/What-are-the-best-places-to-visit-on-a-3-day-trip-in-and-around-Karnataka"
            ],
            "longitude": "74.5802901",
            "address": "Kali, Joida taluk, Uttara Kannada, Karnataka, India",
            "latitude": "15.0145378",
            "locType": "river",
            "closest_to": "dandeli"
        },
        "gadag district": {
            "blogLinks": [
                "https://en.wikipedia.org/wiki/Tourism_in_Karnataka"
            ],
            "longitude": "75.6807542794645",
            "address": "Gadag district, Karnataka, India",
            "latitude": "15.416337",
            "locType": "administrative",
            "closest_to": "dandeli"
        },
        "kodachadri": {
            "blogLinks": [
                "https://en.wikipedia.org/wiki/Tourism_in_Karnataka",
                "https://www.quora.com/What-are-the-best-places-to-visit-on-a-3-day-trip-in-and-around-Karnataka"
            ],
            "longitude": "74.8705395",
            "address": "Kodachadri, \u0c95\u0cc1\u0c82\u0ca6\u0cbe\u0caa\u0cc1\u0cb0 \u0ca4\u0cbe\u0cb2\u0cc2\u0c95\u0cc1, Udupi district, Karnataka, India",
            "latitude": "13.8565758",
            "locType": "peak",
            "closest_to": "dandeli"
        },
        "belgaum railway station": {
            "blogLinks": [
                "http://www.nivalink.com/destination/dandeli"
            ],
            "longitude": "74.509065",
            "address": "Belgaum, Belgaum - Panaji Highway, Cantonment, Belagavi, Belagavi taluku, Belgaum district, Karnataka, 590001, India",
            "latitude": "15.8489677",
            "locType": "station",
            "closest_to": "dandeli"
        },
        "lakkavalli": {
            "blogLinks": [
                "http://travel.india.com/explore/wildlife-sanctuaries-in-karnataka/"
            ],
            "longitude": "75.1078097",
            "address": "Lakkavalli, Soraba taluk, Shimoga district, Karnataka, India",
            "latitude": "14.5841018",
            "locType": "village",
            "closest_to": "dandeli"
        },
        "tungabhadra": {
            "blogLinks": [
                "https://en.wikipedia.org/wiki/Tourism_in_Karnataka"
            ],
            "longitude": "76.4931607",
            "address": "Tungabhadra, Gangavati taluku, Koppal district, Karnataka, India",
            "latitude": "15.3446123",
            "locType": "river",
            "closest_to": "dandeli"
        },
        "lakkundi": {
            "blogLinks": [
                "https://en.wikipedia.org/wiki/Tourism_in_Karnataka"
            ],
            "longitude": "76.4084687",
            "address": "Lakkundi, Muddebihala taluku, Bijapur district, Karnataka, India",
            "latitude": "16.5255464",
            "locType": "village",
            "closest_to": "bijapur"
        },
        "haliyal": {
            "blogLinks": [
                "http://www.holidayiq.com/Dandeli-Sightseeing-345.html"
            ],
            "longitude": "74.7646665",
            "address": "Haliyal, Haliyala taluku, Uttara Kannada, Karnataka, 581329, India",
            "latitude": "15.3299733",
            "locType": "town",
            "closest_to": "dandeli"
        },
        "kuppali": {
            "blogLinks": [
                "https://www.quora.com/What-are-the-best-places-to-visit-on-a-3-day-trip-in-and-around-Karnataka"
            ],
            "longitude": "75.3158067",
            "address": "Kuppali Road, Kuppalli, Tirthahalli taluk, Shimoga district, Karnataka, India",
            "latitude": "13.5998255",
            "locType": "tertiary",
            "closest_to": "dandeli"
        },
        "bhatkal": {
            "blogLinks": [
                "https://en.wikipedia.org/wiki/Tourism_in_Karnataka"
            ],
            "longitude": "74.5485295",
            "address": "Bhatkal, Bhatkala taluk, Uttara Kannada, Karnataka, 581320, India",
            "latitude": "13.9952114",
            "locType": "town",
            "closest_to": "dandeli"
        },
        "bagalkot district": {
            "blogLinks": [
                "https://en.wikipedia.org/wiki/Tourism_in_Karnataka"
            ],
            "longitude": "75.6967919",
            "address": "Bagalakote, Bagalakote taluk, Bagalkote district, Karnataka, India",
            "latitude": "16.1853166",
            "locType": "city",
            "closest_to": "dandeli"
        },
        "' river varahi": {
            "blogLinks": [
                "https://en.wikipedia.org/wiki/Tourism_in_Karnataka"
            ],
            "longitude": "74.9489117",
            "address": "Varahi, \u0c95\u0cc1\u0c82\u0ca6\u0cbe\u0caa\u0cc1\u0cb0 \u0ca4\u0cbe\u0cb2\u0cc2\u0c95\u0cc1, Udupi district, Karnataka, India",
            "latitude": "13.6582668",
            "locType": "river",
            "closest_to": "dandeli"
        },
        "shimoga district": {
            "blogLinks": [
                "https://en.wikipedia.org/wiki/Tourism_in_Karnataka"
            ],
            "longitude": "75.1312533993886",
            "address": "Shimoga district, Karnataka, India",
            "latitude": "14.0558284",
            "locType": "administrative",
            "closest_to": "dandeli"
        },
        "mallikarjuna": {
            "blogLinks": [
                "https://en.wikipedia.org/wiki/Tourism_in_Karnataka"
            ],
            "longitude": "77.0590502",
            "address": "Mallikarjuna Vadi, Basavakalyana taluku, Bidar district, Karnataka, India",
            "latitude": "17.8106693",
            "locType": "village",
            "closest_to": "bijapur"
        },
        "daroji": {
            "blogLinks": [
                "http://travel.india.com/explore/wildlife-sanctuaries-in-karnataka/"
            ],
            "longitude": "76.6667172",
            "address": "Daroji, Sanduru taluk, Bellary district, Karnataka, India",
            "latitude": "15.2671318",
            "locType": "village",
            "closest_to": "bijapur"
        },
        "river varada": {
            "blogLinks": [
                "http://traveltriangle.com/blog/best-places-to-visit-in-karnataka/"
            ],
            "longitude": "75.47206",
            "address": "Varada, Savanura taluk, Haveri district, Karnataka, India",
            "latitude": "14.8717792",
            "locType": "river",
            "closest_to": "dandeli"
        },
        "bijapur district": {
            "blogLinks": [
                "http://www.holidayiq.com/Bijapur-Sightseeing-646.html",
                "https://www.quora.com/What-are-the-best-places-to-visit-on-a-3-day-trip-in-and-around-Karnataka"
            ],
            "longitude": "75.897147327785",
            "address": "Bijapur district, Karnataka, India",
            "latitude": "16.81105965",
            "locType": "administrative",
            "closest_to": "bijapur"
        },
        "om beach": {
            "blogLinks": [
                "https://en.wikipedia.org/wiki/Tourism_in_Karnataka",
                "http://traveltriangle.com/blog/best-places-to-visit-in-karnataka/"
            ],
            "longitude": "74.3254331800289",
            "address": "Om Beach, Om beach road, Gokarna, Kumata taluk, Uttara Kannada, Karnataka, 581326, India",
            "latitude": "14.5190376",
            "locType": "beach",
            "closest_to": "dandeli"
        },
        "bagalkot": {
            "blogLinks": [
                "http://www.holidayiq.com/Bijapur-Sightseeing-646.html"
            ],
            "longitude": "75.6967919",
            "address": "Bagalakote, Bagalakote taluk, Bagalkote district, Karnataka, India",
            "latitude": "16.1853166",
            "locType": "city",
            "closest_to": "dandeli"
        },
        "sangameshwara": {
            "blogLinks": [
                "https://en.wikipedia.org/wiki/Tourism_in_Karnataka",
                "https://www.quora.com/What-are-the-best-places-to-visit-on-a-3-day-trip-in-and-around-Karnataka"
            ],
            "longitude": "74.87651",
            "address": "Sangameshwara, Kalaghatagi taluku, Dharwad district, Karnataka, India",
            "latitude": "15.184341",
            "locType": "village",
            "closest_to": "dandeli"
        },
        "sagara": {
            "blogLinks": [
                "https://en.wikipedia.org/wiki/Tourism_in_Karnataka"
            ],
            "longitude": "75.0262551",
            "address": "Sagara, Sagara taluk, Shimoga district, Karnataka, 577400, India",
            "latitude": "14.1666594",
            "locType": "town",
            "closest_to": "dandeli"
        },
        "parvati": {
            "blogLinks": [
                "https://www.quora.com/What-are-the-best-places-to-visit-on-a-3-day-trip-in-and-around-Karnataka"
            ],
            "longitude": "75.7898501",
            "address": "Parvati, Badami taluku, Bagalkote district, Karnataka, India",
            "latitude": "16.0395701",
            "locType": "village",
            "closest_to": "dandeli"
        },
        "sahyadri range": {
            "blogLinks": [
                "http://www.holidayiq.com/Dandeli-Sightseeing-345.html"
            ],
            "longitude": "75.2317987800043",
            "address": "Sahyadri Polytechnic, SH1, Seebinakere, Sankadahole, Tirthahalli taluk, Shimoga district, Karnataka, 577432, India",
            "latitude": "13.6983273",
            "locType": "school",
            "closest_to": "dandeli"
        },
        "mookambika": {
            "blogLinks": [
                "https://en.wikipedia.org/wiki/Tourism_in_Karnataka",
                "https://www.quora.com/What-are-the-best-places-to-visit-on-a-3-day-trip-in-and-around-Karnataka"
            ],
            "longitude": "74.8145296",
            "address": "Mukambika Devasthana, NH766C;SH26, Halkal, \u0c95\u0cc1\u0c82\u0ca6\u0cbe\u0caa\u0cc1\u0cb0 \u0ca4\u0cbe\u0cb2\u0cc2\u0c95\u0cc1, Udupi district, Karnataka, 576220, India",
            "latitude": "13.8638043",
            "locType": "place_of_worship",
            "closest_to": "dandeli"
        },
        "hubli": {
            "blogLinks": [
                "http://www.nivalink.com/destination/dandeli",
                "https://en.wikipedia.org/wiki/Tourism_in_Karnataka",
                "http://travel.india.com/explore/wildlife-sanctuaries-in-karnataka/"
            ],
            "longitude": "75.1379848",
            "address": "Hubballi - \u0cb9\u0cc1\u0cac\u0ccd\u0cac\u0cb3\u0ccd\u0cb3\u0cbf, Hubballi taluku, Dharwad district, Karnataka, 580020, India",
            "latitude": "15.3518378",
            "locType": "city",
            "closest_to": "dandeli"
        },
        "dharwad": {
            "blogLinks": [
                "https://en.wikipedia.org/wiki/Tourism_in_Karnataka"
            ],
            "longitude": "75.0066516",
            "address": "Dharwad, Dharawada taluku, Dharwad district, Karnataka, 580001, India",
            "latitude": "15.4540505",
            "locType": "city",
            "closest_to": "dandeli"
        },
        "malpe": {
            "blogLinks": [
                "https://en.wikipedia.org/wiki/Tourism_in_Karnataka"
            ],
            "longitude": "74.7036914",
            "address": "Malpe, Udupi taluku, Udupi district, Karnataka, India",
            "latitude": "13.3507423",
            "locType": "village",
            "closest_to": "dandeli"
        },
        "itagi": {
            "blogLinks": [
                "https://en.wikipedia.org/wiki/Tourism_in_Karnataka"
            ],
            "longitude": "75.6701043",
            "address": "Itagi, Ranebennuru taluk, Haveri district, Karnataka, India",
            "latitude": "14.550374",
            "locType": "village",
            "closest_to": "dandeli"
        },
        "gokak": {
            "blogLinks": [
                "https://en.wikipedia.org/wiki/Tourism_in_Karnataka",
                "https://www.quora.com/What-are-the-best-places-to-visit-on-a-3-day-trip-in-and-around-Karnataka"
            ],
            "longitude": "74.8224338",
            "address": "Gokak, Gokak taluku, Belgaum district, Karnataka, 591307, India",
            "latitude": "16.1693033",
            "locType": "town",
            "closest_to": "dandeli"
        },
        "varur": {
            "blogLinks": [
                "https://en.wikipedia.org/wiki/Tourism_in_Karnataka"
            ],
            "longitude": "75.1387568",
            "address": "Varur, Hubballi taluku, Dharwad district, Karnataka, India",
            "latitude": "15.2077105",
            "locType": "village",
            "closest_to": "dandeli"
        },
        "gadag": {
            "blogLinks": [
                "https://en.wikipedia.org/wiki/Tourism_in_Karnataka"
            ],
            "longitude": "75.6300786",
            "address": "Gadag, Gadag taluk, Gadag district, Karnataka, 582101, India",
            "latitude": "15.4263647",
            "locType": "town",
            "closest_to": "dandeli"
        },
        "gokul garden": {
            "blogLinks": [
                "https://www.quora.com/What-are-the-best-places-to-visit-on-a-3-day-trip-in-and-around-Karnataka"
            ],
            "longitude": "75.1141861403246",
            "address": "Gokul Garden, Gokul Road / Airport Road, Renuka Nagar, Padmaraj Nagar, Gokul, Hubballi taluku, Dharwad district, Karnataka, 580030, India",
            "latitude": "15.35009745",
            "locType": "recreation_ground",
            "closest_to": "dandeli"
        },
        "kamalapur": {
            "blogLinks": [
                "http://travel.india.com/explore/wildlife-sanctuaries-in-karnataka/"
            ],
            "longitude": "75.003629911571",
            "address": "Kamalapur Nursing Home, Station Road, Kalyana nagar, Gandhinagar, Dharwad, Dharawada taluku, Dharwad district, Karnataka, 580001, India",
            "latitude": "15.4456282",
            "locType": "yes",
            "closest_to": "dandeli"
        },
        "dc": {
            "blogLinks": [
                "https://www.quora.com/What-are-the-best-places-to-visit-on-a-3-day-trip-in-and-around-Karnataka"
            ],
            "longitude": "75.630705851285",
            "address": "DC Mill, Betageri, Gadag, Gadag taluk, Gadag district, Karnataka, 582102, India",
            "latitude": "15.4352518",
            "locType": "industrial",
            "closest_to": "dandeli"
        },
        "virupaksha temple": {
            "blogLinks": [
                "https://en.wikipedia.org/wiki/Tourism_in_Karnataka"
            ],
            "longitude": "76.4587777156223",
            "address": "Virupaksha Temple, Hampi Bazaar, Hampe, Hosapete taluk, Bellary district, Karnataka, 583239, India",
            "latitude": "15.3351754",
            "locType": "place_of_worship",
            "closest_to": "dandeli"
        },
        "diggi": {
            "blogLinks": [
                "http://www.holidayiq.com/Dandeli-Sightseeing-345.html"
            ],
            "longitude": "76.8025595",
            "address": "Diggi, Shahapura taluku, Yadagiri district, Karnataka, India",
            "latitude": "16.7083137",
            "locType": "village",
            "closest_to": "bijapur"
        },
        "gudavi": {
            "blogLinks": [
                "https://en.wikipedia.org/wiki/Tourism_in_Karnataka"
            ],
            "longitude": "75.009649",
            "address": "Gudavi, Soraba taluk, Shimoga district, Karnataka, India",
            "latitude": "14.4400296",
            "locType": "village",
            "closest_to": "dandeli"
        },
        "gokarna": {
            "blogLinks": [
                "https://en.wikipedia.org/wiki/Tourism_in_Karnataka"
            ],
            "longitude": "74.3184418",
            "address": "Gokarna, Kumata taluk, Uttara Kannada, Karnataka, 581326, India",
            "latitude": "14.5439629",
            "locType": "town",
            "closest_to": "dandeli"
        },
        "baga": {
            "blogLinks": [
                "https://www.tripoto.com/weekend-getaways/from-dandeli",
                "https://www.tripoto.com/weekend-getaways/from-bijapur"
            ],
            "longitude": "76.9300452",
            "address": "Baga Hipparaga, Basavakalyana taluku, Bidar district, Karnataka, India",
            "latitude": "17.6148763",
            "locType": "village",
            "closest_to": "bijapur"
        },
        "sirsi": {
            "blogLinks": [
                "https://www.quora.com/What-are-the-best-places-to-visit-on-a-3-day-trip-in-and-around-Karnataka"
            ],
            "longitude": "74.8388611",
            "address": "Sirsi, Shirasi taluk, Uttara Kannada, Karnataka, 581400, India",
            "latitude": "14.6192362",
            "locType": "town",
            "closest_to": "dandeli"
        },
        "almatti dam": {
            "blogLinks": [
                "http://www.holidayiq.com/Bijapur-Sightseeing-646.html"
            ],
            "longitude": "75.9517801",
            "address": "Almatti Left Bank Canal, Basavana Bagevadi Taluku, Bijapur district, Karnataka, India",
            "latitude": "16.3648934",
            "locType": "canal",
            "closest_to": "dandeli"
        },
        "koppal district": {
            "blogLinks": [
                "https://en.wikipedia.org/wiki/Tourism_in_Karnataka"
            ],
            "longitude": "76.310639117029",
            "address": "Koppal district, Karnataka, India",
            "latitude": "15.57825725",
            "locType": "administrative",
            "closest_to": "dandeli"
        },
        "markandeya river": {
            "blogLinks": [
                "https://www.quora.com/What-are-the-best-places-to-visit-on-a-3-day-trip-in-and-around-Karnataka"
            ],
            "longitude": "74.5774895",
            "address": "Markandeya, Belagavi taluku, Belgaum district, Karnataka, India",
            "latitude": "15.9707453",
            "locType": "river",
            "closest_to": "dandeli"
        },
        "banavasi": {
            "blogLinks": [
                "https://en.wikipedia.org/wiki/Tourism_in_Karnataka",
                "https://www.quora.com/What-are-the-best-places-to-visit-on-a-3-day-trip-in-and-around-Karnataka"
            ],
            "longitude": "75.0129845",
            "address": "Banavasi, Shirasi taluk, Uttara Kannada, Karnataka, India",
            "latitude": "14.5389738",
            "locType": "town",
            "closest_to": "dandeli"
        },
        "madhukeshwara": {
            "blogLinks": [
                "https://www.quora.com/What-are-the-best-places-to-visit-on-a-3-day-trip-in-and-around-Karnataka"
            ],
            "longitude": "75.1480027",
            "address": "Madhukeshwara Temple, Kattinakere Road, Kattinakere Bus Stand, Soraba taluk, Shimoga district, Karnataka, India",
            "latitude": "14.3058996",
            "locType": "place_of_worship",
            "closest_to": "dandeli"
        },
        "dandeli wildlife sanctuary": {
            "blogLinks": [
                "http://www.holidayiq.com/Dandeli-Sightseeing-345.html"
            ],
            "longitude": "74.3665654142884",
            "address": "Dandeli Wildlife Sanctuary, SH146, Terali, Joida taluk, Uttara Kannada, Karnataka, India",
            "latitude": "15.1654776",
            "locType": "national_park",
            "closest_to": "dandeli"
        },
        "marikamba temple": {
            "blogLinks": [
                "https://www.quora.com/What-are-the-best-places-to-visit-on-a-3-day-trip-in-and-around-Karnataka"
            ],
            "longitude": "74.8103631279317",
            "address": "Marikamba Temple, NH766C;SH26, Halkal, \u0c95\u0cc1\u0c82\u0ca6\u0cbe\u0caa\u0cc1\u0cb0 \u0ca4\u0cbe\u0cb2\u0cc2\u0c95\u0cc1, Udupi district, Karnataka, 576220, India",
            "latitude": "13.8626958",
            "locType": "place_of_worship",
            "closest_to": "dandeli"
        },
        "kundapura": {
            "blogLinks": [
                "http://www.nivalink.com/destination/dandeli"
            ],
            "longitude": "74.6915722",
            "address": "Kundapura, \u0c95\u0cc1\u0c82\u0ca6\u0cbe\u0caa\u0cc1\u0cb0 \u0ca4\u0cbe\u0cb2\u0cc2\u0c95\u0cc1, Udupi district, Karnataka, 576200, India",
            "latitude": "13.6250993",
            "locType": "town",
            "closest_to": "dandeli"
        },
        "bagalkote": {
            "blogLinks": [
                "https://en.wikipedia.org/wiki/Tourism_in_Karnataka"
            ],
            "longitude": "75.5825586777167",
            "address": "Bagalkote district, Karnataka, India",
            "latitude": "16.28998085",
            "locType": "administrative",
            "closest_to": "dandeli"
        },
        "sharavati": {
            "blogLinks": [
                "https://en.wikipedia.org/wiki/Tourism_in_Karnataka",
                "https://www.quora.com/What-are-the-best-places-to-visit-on-a-3-day-trip-in-and-around-Karnataka"
            ],
            "longitude": "74.7647294",
            "address": "Sharavati, Sagara taluk, Shimoga district, Karnataka, India",
            "latitude": "14.2360979",
            "locType": "river",
            "closest_to": "dandeli"
        },
        "kudalasangama": {
            "blogLinks": [
                "https://en.wikipedia.org/wiki/Tourism_in_Karnataka",
                "http://www.holidayiq.com/Bijapur-Sightseeing-646.html"
            ],
            "longitude": "76.0604244",
            "address": "Kudala Sangama, Hunagunda taluku, Bagalkote district, Karnataka, India",
            "latitude": "16.2033992",
            "locType": "village",
            "closest_to": "dandeli"
        },
        "anshi national park": {
            "blogLinks": [
                "https://en.wikipedia.org/wiki/Tourism_in_Karnataka",
                "http://www.holidayiq.com/Dandeli-Sightseeing-345.html",
                "http://travel.india.com/explore/wildlife-sanctuaries-in-karnataka/"
            ],
            "longitude": "74.3934408094182",
            "address": "Anshi National Park, SH46, Bidoli, Joida taluk, Uttara Kannada, Karnataka, India",
            "latitude": "14.9994424",
            "locType": "national_park",
            "closest_to": "dandeli"
        },
        "nethrani island": {
            "blogLinks": [
                "https://en.wikipedia.org/wiki/Tourism_in_Karnataka"
            ],
            "longitude": "74.3272086675849",
            "address": "Netrani, Uttara Kannada, Karnataka, India",
            "latitude": "14.0174924",
            "locType": "island",
            "closest_to": "dandeli"
        },
        "karwar": {
            "blogLinks": [
                "https://en.wikipedia.org/wiki/Tourism_in_Karnataka",
                "https://www.quora.com/What-are-the-best-places-to-visit-on-a-3-day-trip-in-and-around-Karnataka"
            ],
            "longitude": "74.1319229",
            "address": "Karwar, Karavara taluk, Uttara Kannada, Karnataka, 581300, India",
            "latitude": "14.8120931",
            "locType": "town",
            "closest_to": "dandeli"
        },
        "bellary district": {
            "blogLinks": [
                "https://en.wikipedia.org/wiki/Tourism_in_Karnataka"
            ],
            "longitude": "76.7137978546465",
            "address": "Bellary district, Karnataka, India",
            "latitude": "15.20597305",
            "locType": "administrative",
            "closest_to": "bijapur"
        },
        "kuknur": {
            "blogLinks": [
                "https://en.wikipedia.org/wiki/Tourism_in_Karnataka"
            ],
            "longitude": "75.9934934",
            "address": "Kukanura, Yelaburga taluku, Koppal district, Karnataka, 583232, India",
            "latitude": "15.4902753",
            "locType": "village",
            "closest_to": "dandeli"
        },
        "hampi": {
            "blogLinks": [
                "http://www.nivalink.com/destination/dandeli",
                "https://en.wikipedia.org/wiki/Tourism_in_Karnataka",
                "http://journeymart.com/de/india/karnataka/sightseeing/default.aspx",
                "https://www.quora.com/What-are-the-best-places-to-visit-on-a-3-day-trip-in-and-around-Karnataka",
                "http://traveltriangle.com/blog/best-places-to-visit-in-karnataka/"
            ],
            "longitude": "76.4606199",
            "address": "Hampe, Hosapete taluk, Bellary district, Karnataka, 583239, India",
            "latitude": "15.3359769",
            "locType": "village",
            "closest_to": "dandeli"
        },
        "kudala sangama": {
            "blogLinks": [
                "https://www.tripoto.com/weekend-getaways/from-bijapur",
                "http://travel.india.com/explore/wildlife-sanctuaries-in-karnataka/"
            ],
            "longitude": "76.0604244",
            "address": "Kudala Sangama, Hunagunda taluku, Bagalkote district, Karnataka, India",
            "latitude": "16.2033992",
            "locType": "village",
            "closest_to": "dandeli"
        },
        "bankpur fort": {
            "blogLinks": [
                "https://en.wikipedia.org/wiki/Tourism_in_Karnataka"
            ],
            "longitude": "75.2512090188504",
            "address": "Bankapura Fort, SH137, Guddada Channapura, Shiggaon taluk, Haveri district, Karnataka, 581202, India",
            "latitude": "14.9231815",
            "locType": "archaeological_site",
            "closest_to": "dandeli"
        },
        "koppal": {
            "blogLinks": [
                "https://en.wikipedia.org/wiki/Tourism_in_Karnataka"
            ],
            "longitude": "76.1547421",
            "address": "Koppala, Koppala taluku, Koppal district, Karnataka, 583231, India",
            "latitude": "15.3484144",
            "locType": "town",
            "closest_to": "dandeli"
        },
        "mastikatte": {
            "blogLinks": [
                "https://en.wikipedia.org/wiki/Tourism_in_Karnataka"
            ],
            "longitude": "74.4604101",
            "address": "Mastikatte, Ankola taluk, Uttara Kannada, Karnataka, India",
            "latitude": "14.6857168",
            "locType": "village",
            "closest_to": "dandeli"
        },
        "krishna river": {
            "blogLinks": [
                "http://www.holidayiq.com/Bijapur-Sightseeing-646.html"
            ],
            "longitude": "77.0529845",
            "address": "Krishna, Shahapura taluku, Yadagiri district, Karnataka, India",
            "latitude": "16.5209569",
            "locType": "river",
            "closest_to": "bijapur"
        },
        "agumbe": {
            "blogLinks": [
                "https://en.wikipedia.org/wiki/Tourism_in_Karnataka",
                "https://www.quora.com/What-are-the-best-places-to-visit-on-a-3-day-trip-in-and-around-Karnataka"
            ],
            "longitude": "75.0965525",
            "address": "Agumbe, Tirthahalli taluk, Shimoga district, Karnataka, 577411, India",
            "latitude": "13.5094998",
            "locType": "village",
            "closest_to": "dandeli"
        },
        "shiggaon taluk": {
            "blogLinks": [
                "https://en.wikipedia.org/wiki/Tourism_in_Karnataka"
            ],
            "longitude": "75.1756764988777",
            "address": "Shiggaon taluk, Haveri district, Karnataka, India",
            "latitude": "15.0138079",
            "locType": "administrative",
            "closest_to": "dandeli"
        },
        "belgaum fort": {
            "blogLinks": [
                "https://en.wikipedia.org/wiki/Tourism_in_Karnataka"
            ],
            "longitude": "74.5255651",
            "address": "Belgaum Fort, Belagavi, Belagavi taluku, Belgaum district, Karnataka, 590001, India",
            "latitude": "15.8581696",
            "locType": "locality",
            "closest_to": "dandeli"
        },
        "mirjan fort": {
            "blogLinks": [
                "https://www.quora.com/What-are-the-best-places-to-visit-on-a-3-day-trip-in-and-around-Karnataka"
            ],
            "longitude": "74.4174838158512",
            "address": "Mirjana Fort, Edapally- Panvel Highway, Kimani, Kumata taluk, Uttara Kannada, Karnataka, 581344, India",
            "latitude": "14.48905715",
            "locType": "attraction",
            "closest_to": "dandeli"
        },
        "hubli airport": {
            "blogLinks": [
                "http://traveltriangle.com/blog/best-places-to-visit-in-karnataka/"
            ],
            "longitude": "75.0860974",
            "address": "Hubli Airport, \u0c97\u0ccb\u0c95\u0cc1\u0cb2 \u0cb0\u0ccb\u0ca1\u0ccd, Padmaraj Nagar, Gokul, Hubballi taluku, Dharwad district, Karnataka, 580030, India",
            "latitude": "15.3598315",
            "locType": "aerodrome",
            "closest_to": "dandeli"
        },
        "saaru": {
            "blogLinks": [
                "http://traveltriangle.com/blog/best-places-to-visit-in-karnataka/"
            ],
            "longitude": "75.2890833",
            "address": "Saru, Tirthahalli taluk, Shimoga district, Karnataka, India",
            "latitude": "13.7941015",
            "locType": "village",
            "closest_to": "dandeli"
        },
        "mundgod": {
            "blogLinks": [
                "http://www.nivalink.com/destination/dandeli"
            ],
            "longitude": "75.0371451",
            "address": "Mundgod, Mundagoda taluk, Uttara Kannada, Karnataka, 581349, India",
            "latitude": "14.9705105",
            "locType": "village",
            "closest_to": "dandeli"
        },
        "netrani island of uttara kannada": {
            "blogLinks": [
                "https://en.wikipedia.org/wiki/Tourism_in_Karnataka"
            ],
            "longitude": "74.3272086675849",
            "address": "Netrani, Uttara Kannada, Karnataka, India",
            "latitude": "14.0174924",
            "locType": "island",
            "closest_to": "dandeli"
        },
        "gotagodi village": {
            "blogLinks": [
                "https://en.wikipedia.org/wiki/Tourism_in_Karnataka"
            ],
            "longitude": "75.0452834",
            "address": "Gotagodi, Hanagal taluk, Haveri district, Karnataka, India",
            "latitude": "14.7634556",
            "locType": "village",
            "closest_to": "dandeli"
        },
        "kaneri": {
            "blogLinks": [
                "http://www.nivalink.com/destination/dandeli"
            ],
            "longitude": "74.4834864",
            "address": "Kaneri, Joida taluk, Uttara Kannada, Karnataka, India",
            "latitude": "15.0680686",
            "locType": "river",
            "closest_to": "dandeli"
        },
        "bidar district": {
            "blogLinks": [
                "https://en.wikipedia.org/wiki/Tourism_in_Karnataka"
            ],
            "longitude": "77.2496344350342",
            "address": "Bidar district, Karnataka, India",
            "latitude": "18.0158574",
            "locType": "administrative",
            "closest_to": "bijapur"
        },
        "uttara kannada": {
            "blogLinks": [
                "https://en.wikipedia.org/wiki/Tourism_in_Karnataka",
                "https://www.quora.com/What-are-the-best-places-to-visit-on-a-3-day-trip-in-and-around-Karnataka",
                "http://travel.india.com/explore/wildlife-sanctuaries-in-karnataka/"
            ],
            "longitude": "74.4729163045979",
            "address": "Uttara Kannada, Karnataka, India",
            "latitude": "14.6726379",
            "locType": "administrative",
            "closest_to": "dandeli"
        },
        "dandeli": {
            "blogLinks": [
                "http://www.nivalink.com/destination/dandeli",
                "http://journeymart.com/de/india/karnataka/dandeli-best-time-to-visit.aspx",
                "http://www.holidayiq.com/Dandeli-Sightseeing-345.html",
                "http://travel.india.com/explore/wildlife-sanctuaries-in-karnataka/"
            ],
            "longitude": "74.6236037",
            "address": "Dandeli, Haliyala taluku, Uttara Kannada, Karnataka, 581325, India",
            "latitude": "15.2490284",
            "locType": "town",
            "closest_to": "dandeli"
        },
        "naganur": {
            "blogLinks": [
                "https://en.wikipedia.org/wiki/Tourism_in_Karnataka"
            ],
            "longitude": "74.4824431",
            "address": "Naganur, Hukkeri taluku, Belgaum district, Karnataka, India",
            "latitude": "16.073351",
            "locType": "village",
            "closest_to": "dandeli"
        },
        "afzalpur": {
            "blogLinks": [
                "https://en.wikipedia.org/wiki/Tourism_in_Karnataka"
            ],
            "longitude": "76.3605783",
            "address": "Afzalpur, Afzalpura taluku, Kalaburagi district, Karnataka, 585301, India",
            "latitude": "17.2005764",
            "locType": "town",
            "closest_to": "bijapur"
        },
        "sannati": {
            "blogLinks": [
                "https://en.wikipedia.org/wiki/Tourism_in_Karnataka"
            ],
            "longitude": "76.9080631",
            "address": "Sannati, Chitapura taluku, Kalaburagi district, Karnataka, India",
            "latitude": "16.8293201",
            "locType": "village",
            "closest_to": "bijapur"
        },
        "south goa": {
            "blogLinks": [
                "https://www.tripoto.com/weekend-getaways/from-dandeli",
                "https://www.tripoto.com/weekend-getaways/from-bijapur"
            ],
            "longitude": "73.9583411",
            "address": "Karnataka bank, NH66, Aquem, Fatorda, Margao, South Goa, Goa, 403600, India",
            "latitude": "15.2740083",
            "locType": "bank",
            "closest_to": "dandeli"
        },
        "lakshmeshwar": {
            "blogLinks": [
                "https://en.wikipedia.org/wiki/Tourism_in_Karnataka"
            ],
            "longitude": "75.4741167",
            "address": "Lakshmeshwar KSRTC Bus stand, SH6, Bastibana, Lakshmeshvara, Shirahatti taluku, Gadag district, Karnataka, 582116, India",
            "latitude": "15.12373",
            "locType": "bus_station",
            "closest_to": "dandeli"
        },
        "lushington falls": {
            "blogLinks": [
                "https://en.wikipedia.org/wiki/Tourism_in_Karnataka"
            ],
            "longitude": "74.7477592",
            "address": "\u0c89\u0c82\u0c9a\u0cb3\u0ccd\u0cb3\u0cbf \u0c9c\u0cb2\u0caa\u0cbe\u0ca4, Siddapura taluk, Uttara Kannada, Karnataka, India",
            "latitude": "14.4097755",
            "locType": "waterfall",
            "closest_to": "dandeli"
        },
        "arabhavi": {
            "blogLinks": [
                "https://en.wikipedia.org/wiki/Tourism_in_Karnataka"
            ],
            "longitude": "74.8213227",
            "address": "Arabhavi, Gokak taluku, Belgaum district, Karnataka, India",
            "latitude": "16.2193552",
            "locType": "village",
            "closest_to": "dandeli"
        },
        "tungabhadra river": {
            "blogLinks": [
                "http://traveltriangle.com/blog/best-places-to-visit-in-karnataka/"
            ],
            "longitude": "76.4931607",
            "address": "Tungabhadra, Gangavati taluku, Koppal district, Karnataka, India",
            "latitude": "15.3446123",
            "locType": "river",
            "closest_to": "dandeli"
        },
        "panaji": {
            "blogLinks": [
                "https://www.tripoto.com/weekend-getaways/from-dandeli",
                "https://www.tripoto.com/weekend-getaways/from-bijapur"
            ],
            "longitude": "74.4876784",
            "address": "Belgaum - Panaji Highway, Londa, Khanapura taluku, Belgaum district, Karnataka, India",
            "latitude": "15.4422981",
            "locType": "trunk",
            "closest_to": "dandeli"
        },
        "kumta": {
            "blogLinks": [
                "https://en.wikipedia.org/wiki/Tourism_in_Karnataka"
            ],
            "longitude": "74.4107617",
            "address": "Kumta, Kumata taluk, Uttara Kannada, Karnataka, India",
            "latitude": "14.4261647",
            "locType": "town",
            "closest_to": "dandeli"
        },
        "gulbarga district": {
            "blogLinks": [
                "https://en.wikipedia.org/wiki/Tourism_in_Karnataka"
            ],
            "longitude": "77.083333",
            "address": "Kalaburgi, Kalaburagi district, Karnataka, India",
            "latitude": "17.166667",
            "locType": "county",
            "closest_to": "bijapur"
        },
        "belgaum airport": {
            "blogLinks": [
                "http://traveltriangle.com/blog/best-places-to-visit-in-karnataka/"
            ],
            "longitude": "74.6189763983851",
            "address": "Belgaum Airport, SH20, Balekundri, Belagavi taluku, Belgaum district, Karnataka, 591124, India",
            "latitude": "15.8602827",
            "locType": "aerodrome",
            "closest_to": "dandeli"
        },
        "malaprabha": {
            "blogLinks": [
                "https://en.wikipedia.org/wiki/Tourism_in_Karnataka"
            ],
            "longitude": "75.1982668",
            "address": "Malaprabha, Ramadurga taluku, Belgaum district, Karnataka, India",
            "latitude": "15.8914192",
            "locType": "river",
            "closest_to": "dandeli"
        },
        "tunga": {
            "blogLinks": [
                "https://www.quora.com/What-are-the-best-places-to-visit-on-a-3-day-trip-in-and-around-Karnataka"
            ],
            "longitude": "75.3221835",
            "address": "Tunga, Tirthahalli taluk, Shimoga district, Karnataka, India",
            "latitude": "13.6632221",
            "locType": "river",
            "closest_to": "dandeli"
        },
        "haveri district": {
            "blogLinks": [
                "https://en.wikipedia.org/wiki/Tourism_in_Karnataka"
            ],
            "longitude": "75.3845674304742",
            "address": "Haveri district, Karnataka, India",
            "latitude": "14.714635",
            "locType": "administrative",
            "closest_to": "dandeli"
        },
        "mallikarjuna temple": {
            "blogLinks": [
                "http://www.holidayiq.com/Dandeli-Sightseeing-345.html"
            ],
            "longitude": "75.7213492",
            "address": "Mallikarjuna Temple, SH135, Nelavagi, Badami taluku, Bagalkote district, Karnataka, India",
            "latitude": "15.9321101",
            "locType": "place_of_worship",
            "closest_to": "dandeli"
        },
        "kali river": {
            "blogLinks": [
                "https://www.quora.com/What-are-the-best-places-to-visit-on-a-3-day-trip-in-and-around-Karnataka"
            ],
            "longitude": "74.5802901",
            "address": "Kali, Joida taluk, Uttara Kannada, Karnataka, India",
            "latitude": "15.0145378",
            "locType": "river",
            "closest_to": "dandeli"
        },
        "gulbarga": {
            "blogLinks": [
                "https://en.wikipedia.org/wiki/Tourism_in_Karnataka",
                "http://www.holidayiq.com/Bijapur-Sightseeing-646.html",
                "https://www.quora.com/What-are-the-best-places-to-visit-on-a-3-day-trip-in-and-around-Karnataka"
            ],
            "longitude": "77.083333",
            "address": "Kalaburgi, Kalaburagi district, Karnataka, India",
            "latitude": "17.166667",
            "locType": "county",
            "closest_to": "bijapur"
        },
        "pune": {
            "blogLinks": [
                "http://www.nivalink.com/destination/dandeli"
            ],
            "longitude": "76.9479122",
            "address": "Pune - Machilipatnam Highway, Kaudiyala, Basavakalyana taluku, Bidar district, Karnataka, India",
            "latitude": "17.8199745",
            "locType": "trunk",
            "closest_to": "bijapur"
        },
        "river kaneri": {
            "blogLinks": [
                "http://www.holidayiq.com/Dandeli-Sightseeing-345.html"
            ],
            "longitude": "74.4834864",
            "address": "Kaneri, Joida taluk, Uttara Kannada, Karnataka, India",
            "latitude": "15.0680686",
            "locType": "river",
            "closest_to": "dandeli"
        },
        "syntheri rock": {
            "blogLinks": [
                "http://www.holidayiq.com/Dandeli-Sightseeing-345.html"
            ],
            "longitude": "74.5242505",
            "address": "Syntheri Rock, SH46, Kaneri, Joida taluk, Uttara Kannada, Karnataka, India",
            "latitude": "15.0846142",
            "locType": "attraction",
            "closest_to": "dandeli"
        },
        "pattadakal": {
            "blogLinks": [
                "https://en.wikipedia.org/wiki/Tourism_in_Karnataka",
                "http://journeymart.com/de/india/karnataka/sightseeing/default.aspx",
                "http://traveltriangle.com/blog/best-places-to-visit-in-karnataka/"
            ],
            "longitude": "75.815884048161",
            "address": "Pattadakal Temples, SH14, \u0cac\u0cbe\u0c9a\u0cbf\u0ca8\u0c97\u0cc1\u0ca1\u0ccd\u0ca1, Badami taluku, Bagalkote district, Karnataka, 587211, India",
            "latitude": "15.9506349",
            "locType": "attraction",
            "closest_to": "dandeli"
        },
        "aihole": {
            "blogLinks": [
                "https://en.wikipedia.org/wiki/Tourism_in_Karnataka",
                "http://traveltriangle.com/blog/best-places-to-visit-in-karnataka/"
            ],
            "longitude": "75.8819129",
            "address": "Aihole, Hunagunda taluku, Bagalkote district, Karnataka, India",
            "latitude": "16.0192298",
            "locType": "village",
            "closest_to": "dandeli"
        },
        "river kali": {
            "blogLinks": [
                "http://www.nivalink.com/destination/dandeli",
                "http://traveltriangle.com/blog/best-places-to-visit-in-karnataka/",
                "http://www.holidayiq.com/Dandeli-Sightseeing-345.html",
                "http://travel.india.com/explore/wildlife-sanctuaries-in-karnataka/"
            ],
            "longitude": "74.5802901",
            "address": "Kali, Joida taluk, Uttara Kannada, Karnataka, India",
            "latitude": "15.0145378",
            "locType": "river",
            "closest_to": "dandeli"
        },
        "badami": {
            "blogLinks": [
                "https://en.wikipedia.org/wiki/Tourism_in_Karnataka",
                "https://www.quora.com/What-are-the-best-places-to-visit-on-a-3-day-trip-in-and-around-Karnataka",
                "http://traveltriangle.com/blog/best-places-to-visit-in-karnataka/"
            ],
            "longitude": "75.6807865",
            "address": "Badami, Badami taluku, Bagalkote district, Karnataka, 587200, India",
            "latitude": "15.9203874",
            "locType": "town",
            "closest_to": "dandeli"
        },
        "sirigere": {
            "blogLinks": [
                "https://en.wikipedia.org/wiki/Tourism_in_Karnataka"
            ],
            "longitude": "76.2051907",
            "address": "Sirigere, Chitradurga taluku, Chitradurga district, Karnataka, India",
            "latitude": "14.2840739",
            "locType": "village",
            "closest_to": "dandeli"
        },
        "anshi": {
            "blogLinks": [
                "http://www.nivalink.com/destination/dandeli"
            ],
            "longitude": "74.3708809",
            "address": "Anshi, Joida taluk, Uttara Kannada, Karnataka, India",
            "latitude": "14.9925559",
            "locType": "village",
            "closest_to": "dandeli"
        },
        "bankapura": {
            "blogLinks": [
                "https://en.wikipedia.org/wiki/Tourism_in_Karnataka"
            ],
            "longitude": "75.2639298",
            "address": "Bankapura, Shiggaon taluk, Haveri district, Karnataka, 581202, India",
            "latitude": "14.9217443",
            "locType": "town",
            "closest_to": "dandeli"
        },
        "vijayanagara": {
            "blogLinks": [
                "https://en.wikipedia.org/wiki/Tourism_in_Karnataka"
            ],
            "longitude": "74.7380455",
            "address": "Vijayanagara, Chikodi taluk, Belgaum district, Karnataka, India",
            "latitude": "16.3270486",
            "locType": "village",
            "closest_to": "dandeli"
        },
        "ganeshgudi": {
            "blogLinks": [
                "http://www.nivalink.com/destination/dandeli",
                "https://www.quora.com/What-are-the-best-places-to-visit-on-a-3-day-trip-in-and-around-Karnataka"
            ],
            "longitude": "74.5335693",
            "address": "Ganeshagudi, Joida taluk, Uttara Kannada, Karnataka, India",
            "latitude": "15.2815822",
            "locType": "village",
            "closest_to": "dandeli"
        },
        "yellapur": {
            "blogLinks": [
                "https://www.quora.com/What-are-the-best-places-to-visit-on-a-3-day-trip-in-and-around-Karnataka"
            ],
            "longitude": "74.7061458",
            "address": "Yellapura, Yallapura taluk, Uttara Kannada, Karnataka, 581359, India",
            "latitude": "14.9622518",
            "locType": "town",
            "closest_to": "dandeli"
        },
        "district bagalkot": {
            "blogLinks": [
                "https://en.wikipedia.org/wiki/Tourism_in_Karnataka"
            ],
            "longitude": "75.6736388363024",
            "address": "District Commissioner's Office, Bagalkot, Navanagara, Bagalakote, Bagalakote taluk, Bagalkote district, Karnataka, India",
            "latitude": "16.16028195",
            "locType": "commercial",
            "closest_to": "dandeli"
        },
        "bijapur city": {
            "blogLinks": [
                "http://www.holidayiq.com/Bijapur-Sightseeing-646.html"
            ],
            "longitude": "75.7175387",
            "address": "Vijayapura, Vijayapura taluk, Bijapur district, Karnataka, 586101, India",
            "latitude": "16.8269911",
            "locType": "city",
            "closest_to": "dandeli"
        },
        "nippani": {
            "blogLinks": [
                "https://en.wikipedia.org/wiki/Tourism_in_Karnataka"
            ],
            "longitude": "74.3842372",
            "address": "Nippani, Chikodi taluk, Belgaum district, Karnataka, 591237, India",
            "latitude": "16.4020402",
            "locType": "town",
            "closest_to": "dandeli"
        },
        "belavadi": {
            "blogLinks": [
                "https://en.wikipedia.org/wiki/Tourism_in_Karnataka"
            ],
            "longitude": "75.3760773",
            "address": "Belavadi, Koppa taluk, Chikkamagaluru district, Karnataka, India",
            "latitude": "13.5284899",
            "locType": "village",
            "closest_to": "dandeli"
        },
        "uttara kannada district": {
            "blogLinks": [
                "http://www.holidayiq.com/Dandeli-Sightseeing-345.html"
            ],
            "longitude": "74.583333",
            "address": "Uttara Kannada, Karnataka, India",
            "latitude": "14.883333",
            "locType": "county",
            "closest_to": "dandeli"
        },
        "sagara taluk": {
            "blogLinks": [
                "https://en.wikipedia.org/wiki/Tourism_in_Karnataka"
            ],
            "longitude": "74.9610874491152",
            "address": "Sagara taluk, Shimoga district, Karnataka, India",
            "latitude": "14.09993045",
            "locType": "administrative",
            "closest_to": "dandeli"
        },
        "varada": {
            "blogLinks": [
                "https://en.wikipedia.org/wiki/Tourism_in_Karnataka"
            ],
            "longitude": "75.47206",
            "address": "Varada, Savanura taluk, Haveri district, Karnataka, India",
            "latitude": "14.8717792",
            "locType": "river",
            "closest_to": "dandeli"
        },
        "ghataprabha river": {
            "blogLinks": [
                "https://en.wikipedia.org/wiki/Tourism_in_Karnataka",
                "http://www.holidayiq.com/Bijapur-Sightseeing-646.html"
            ],
            "longitude": "74.9165235",
            "address": "Ghataprabha, Gokak taluku, Belgaum district, Karnataka, India",
            "latitude": "16.2124344",
            "locType": "river",
            "closest_to": "dandeli"
        },
        "belgaum": {
            "blogLinks": [
                "https://en.wikipedia.org/wiki/Tourism_in_Karnataka",
                "https://www.quora.com/What-are-the-best-places-to-visit-on-a-3-day-trip-in-and-around-Karnataka"
            ],
            "longitude": "74.75",
            "address": "Belgaum, Belgaum district, Karnataka, India",
            "latitude": "16.333333",
            "locType": "county",
            "closest_to": "dandeli"
        }
    },
    "bijapur": {
        "lat": "16.8269911",
        "class": "place",
        "importance": 0.55,
        "osm_type": "node",
        "lon": "75.7175387",
        "place_id": "640991",
        "display_name": "Vijayapura, Vijayapura taluk, Bijapur district, Karnataka, 586101, India",
        "osm_id": "245638671",
        "boundingbox": [
            "16.6669911",
            "16.9869911",
            "75.5575387",
            "75.8775387"
        ],
        "type": "city",
        "licence": "Data \u00a9 OpenStreetMap contributors, ODbL 1.0. http://www.openstreetmap.org/copyright",
        "icon": "https://nominatim.openstreetmap.org/images/mapicons/poi_place_city.p.20.png"
    }
}