{
    "thirthahalli": {
        "lat": "13.4265327",
        "class": "highway",
        "lon": "74.9626368",
        "importance": 0.3,
        "licence": "Data \u00a9 OpenStreetMap contributors, ODbL 1.0. http://www.openstreetmap.org/copyright",
        "boundingbox": [
            "13.4262888",
            "13.4265327",
            "74.9623428",
            "74.9626368"
        ],
        "osm_id": "374064965",
        "osm_type": "way",
        "type": "trunk",
        "place_id": "146734997",
        "display_name": "Thirthahalli - Udupi Highway, Shivapura, Karkala taluk, Udupi district, Karnataka, India"
    },
    "mentions": {
        "kamala": {
            "blogLinks": [
                "https://en.wikipedia.org/wiki/Tourism_in_Karnataka"
            ],
            "longitude": "77.5664867",
            "address": "Kamala Nehru Patashala (Emmanual English School), 5th A Cross Road, Yediyur, Thyagaraja Nagar, Bengaluru, Bangalore Urban, Karnataka, 560001, India",
            "latitude": "12.9339482",
            "locType": "school",
            "closest_to": "thirthahalli"
        },
        "varaha": {
            "blogLinks": [
                "https://en.wikipedia.org/wiki/Tourism_in_Karnataka",
                "https://en.wikipedia.org/wiki/Shimoga_district"
            ],
            "longitude": "75.3718812",
            "address": "Varaha, Hirekeruru taluk, Haveri district, Karnataka, India",
            "latitude": "14.390777",
            "locType": "village",
            "closest_to": "thirthahalli"
        },
        "ranganathittu bird sanctuary": {
            "blogLinks": [
                "https://en.wikipedia.org/wiki/Tourism_in_Karnataka"
            ],
            "longitude": "76.6553081",
            "address": "Ranganathittu Bird Sanctuary, SH154, Palahalli, Srirangapattana taluk, Mandya district, Karnataka, 571438, India",
            "latitude": "12.4238524",
            "locType": "attraction",
            "closest_to": "thirthahalli"
        },
        "print.": {
            "blogLinks": [
                "https://en.wikipedia.org/wiki/Shimoga_district"
            ],
            "longitude": "77.6053275",
            "address": "Internet & Print Out Xerox, Church Street, Tasker Town, Ashok Nagar, Bengaluru, Bangalore Urban, Karnataka, 560001, India",
            "latitude": "12.9746803",
            "locType": "internet_cafe",
            "closest_to": "thirthahalli"
        },
        "murudeshwar": {
            "blogLinks": [
                "https://www.quora.com/What-are-the-best-places-to-visit-in-Karnataka-India"
            ],
            "longitude": "74.4883354",
            "address": "Murudeshwara, Bhatkala taluk, Uttara Kannada, Karnataka, 581350, India",
            "latitude": "14.0959549",
            "locType": "town",
            "closest_to": "thirthahalli"
        },
        "linganamakki": {
            "blogLinks": [
                "https://en.wikipedia.org/wiki/Shimoga_district"
            ],
            "longitude": "74.8292508",
            "address": "Linganamakki, Sagara taluk, Shimoga district, Karnataka, India",
            "latitude": "14.1731954",
            "locType": "village",
            "closest_to": "thirthahalli"
        },
        "kagal": {
            "blogLinks": [
                "https://en.wikipedia.org/wiki/Tourism_in_Karnataka"
            ],
            "longitude": "74.3575302591262",
            "address": "Kagal Fort, Birkodi Village, Kumata taluk, Uttara Kannada, Karnataka, India",
            "latitude": "14.5055819",
            "locType": "grass",
            "closest_to": "thirthahalli"
        },
        "bellary fort bellary fort": {
            "blogLinks": [
                "http://karnatakatour.info/category/best-tourist-places-in-karnataka/page/4/"
            ],
            "longitude": "76.9090283",
            "address": "Upper Hill Outer Fort Wall, Uphill Fort Entry Road, Ballari, Bellary taluk, Bellary district, Karnataka, 5831XX, India",
            "latitude": "15.1481211",
            "locType": "castle",
            "closest_to": "thirthahalli"
        },
        "madurai": {
            "blogLinks": [
                "https://www.tripoto.com/weekend-getaways/from-thirthahalli"
            ],
            "longitude": "77.6320535",
            "address": "Madurai Idly Shop, 5th Main Road, Teachers Colony, HSR Layout, Bengaluru, Bangalore Urban, Karnataka, 560001, India",
            "latitude": "12.9185419",
            "locType": "restaurant",
            "closest_to": "thirthahalli"
        },
        "manjusha museum": {
            "blogLinks": [
                "https://en.wikipedia.org/wiki/Tourism_in_Karnataka"
            ],
            "longitude": "75.3821342838196",
            "address": "Manjusha Museum, SH37, Dharmasthala, Beltangadi taluk, Dakshina Kannada, Karnataka, 574216, India",
            "latitude": "12.95116975",
            "locType": "museum",
            "closest_to": "thirthahalli"
        },
        "sangama": {
            "blogLinks": [
                "https://www.quora.com/What-are-the-best-places-to-visit-in-Karnataka-India"
            ],
            "longitude": "77.4320447",
            "address": "Sangam, SH92, Mahalli, Kanakapura taluk, Ramanagara district, Karnataka, India",
            "latitude": "12.2880428",
            "locType": "attraction",
            "closest_to": "thirthahalli"
        },
        "haveri": {
            "blogLinks": [
                "https://en.wikipedia.org/wiki/Tourism_in_Karnataka"
            ],
            "longitude": "75.3996731",
            "address": "Haveri, Haveri taluku, Haveri district, Karnataka, 581110, India",
            "latitude": "14.7874825",
            "locType": "town",
            "closest_to": "thirthahalli"
        },
        "palani": {
            "blogLinks": [
                "https://www.tripoto.com/weekend-getaways/from-thirthahalli"
            ],
            "longitude": "77.6168951",
            "address": "Palani, Neelasandra Bazaar Street, Austin Town BDA Layout, Neelasandra, Bengaluru, Bangalore Urban, Karnataka, 560001, India",
            "latitude": "12.9537341",
            "locType": "recycling",
            "closest_to": "thirthahalli"
        },
        "renukamba": {
            "blogLinks": [
                "https://en.wikipedia.org/wiki/Shimoga_district"
            ],
            "longitude": "75.932718",
            "address": "Renukamba Family Dabha, SH76, K.B. Extension, Davanagere, Davanagere taluku, Davanagere district, Karnataka, 577005, India",
            "latitude": "14.4583725",
            "locType": "restaurant",
            "closest_to": "thirthahalli"
        },
        "dharmastala": {
            "blogLinks": [
                "https://en.wikipedia.org/wiki/Tourism_in_Karnataka"
            ],
            "longitude": "75.3813122",
            "address": "Dharmasthala, Beltangadi taluk, Dakshina Kannada, Karnataka, 574216, India",
            "latitude": "12.9519571",
            "locType": "village",
            "closest_to": "thirthahalli"
        },
        "shimoga": {
            "blogLinks": [
                "https://en.wikipedia.org/wiki/Tourism_in_Karnataka",
                "http://karnatakatour.info/category/best-tourist-places-in-karnataka/page/4/"
            ],
            "longitude": "75.569737",
            "address": "Shivamogga, Shivamogga taluku, Shimoga district, Karnataka, 577200, India",
            "latitude": "13.9311723",
            "locType": "city",
            "closest_to": "thirthahalli"
        },
        "vishnu": {
            "blogLinks": [
                "https://en.wikipedia.org/wiki/Tourism_in_Karnataka"
            ],
            "longitude": "77.7198022157059",
            "address": "Vishnu Residency Apartments, Thubarahalli, Siddapura, Bangalore Urban, Karnataka, 560066, India",
            "latitude": "12.95388635",
            "locType": "residential",
            "closest_to": "thirthahalli"
        },
        "kalyani": {
            "blogLinks": [
                "https://en.wikipedia.org/wiki/Tourism_in_Karnataka"
            ],
            "longitude": "77.6286090192686",
            "address": "Kalyani, Neeladri Road, Electronics City Phase 1, Bettadasana Pura, Bangalore Urban, Karnataka, 560100, India",
            "latitude": "12.8406466",
            "locType": "water",
            "closest_to": "thirthahalli"
        },
        "karnataka": {
            "blogLinks": [
                "https://www.tripoto.com/travel-guide/thirthahalli",
                "http://www.holidaymonk.com/15-places-to-visit-in-karnataka/",
                "https://en.wikipedia.org/wiki/Tourism_in_Karnataka",
                "http://www.holidayiq.com/Bijapur-Sightseeing-646.html",
                "https://www.travelblog.org/Asia/India/Karnataka/Bangalore/Koramangala/blog-914055.html",
                "http://www.nivalink.com/destination/hospet",
                "https://www.quora.com/What-are-the-best-places-to-visit-in-Karnataka-India",
                "http://www.hoparoundindia.com/state-guides/karnataka.aspx",
                "http://www.mapsofindia.com/karnataka/tourism/",
                "http://karnatakatour.info/category/best-tourist-places-in-karnataka/page/4/",
                "https://www.tripoto.com/weekend-getaways/from-thirthahalli",
                "http://www.nivalink.com/destination/thirthahalli",
                "http://www.karnatakatourism.org/",
                "https://en.wikipedia.org/wiki/Shimoga_district",
                "http://www.myhappyjourney.com/Bijapur"
            ],
            "longitude": "76.6639936",
            "address": "Karnataka, Shalivahana Road, Nazarbad, Mysuru, Mysuru taluk, Mysuru district, Karnataka, 570001, India",
            "latitude": "12.3084901",
            "locType": "atm",
            "closest_to": "thirthahalli"
        },
        "jagara": {
            "blogLinks": [
                "https://en.wikipedia.org/wiki/Shimoga_district"
            ],
            "longitude": "75.6731446",
            "address": "Jagara, Chikkamagaluru taluku, Chikkamagaluru district, Karnataka, India",
            "latitude": "13.4436522",
            "locType": "village",
            "closest_to": "thirthahalli"
        },
        "dattatreya": {
            "blogLinks": [
                "https://en.wikipedia.org/wiki/Tourism_in_Karnataka"
            ],
            "longitude": "75.7539724",
            "address": "Inam Dattatreya Pitha, Chikkamagaluru taluku, Chikkamagaluru district, Karnataka, India",
            "latitude": "13.4315216",
            "locType": "hamlet",
            "closest_to": "thirthahalli"
        },
        "kumta": {
            "blogLinks": [
                "https://en.wikipedia.org/wiki/Tourism_in_Karnataka"
            ],
            "longitude": "74.4107617",
            "address": "Kumta, Kumata taluk, Uttara Kannada, Karnataka, India",
            "latitude": "14.4261647",
            "locType": "town",
            "closest_to": "thirthahalli"
        },
        "kodasalli dam": {
            "blogLinks": [
                "https://www.quora.com/What-are-the-best-places-to-visit-in-Karnataka-India"
            ],
            "longitude": "74.5353892832085",
            "address": "Kodasalli Dam, Yallapura taluk, Uttara Kannada, Karnataka, India",
            "latitude": "14.91893295",
            "locType": "dam",
            "closest_to": "thirthahalli"
        },
        "tamil nadu": {
            "blogLinks": [
                "http://www.holidaymonk.com/15-places-to-visit-in-karnataka/",
                "https://en.wikipedia.org/wiki/Tourism_in_Karnataka",
                "https://www.travelblog.org/Asia/India/Karnataka/Bangalore/Koramangala/blog-914055.html",
                "http://karnatakatour.info/category/best-tourist-places-in-karnataka/page/4/",
                "https://www.tripoto.com/weekend-getaways/from-thirthahalli",
                "https://en.wikipedia.org/wiki/Shimoga_district"
            ],
            "longitude": "76.9514152",
            "address": "KARNATAKA BANK, Diwan Bhadur Road, Five Corner, RS Puram, Coimbatore, Coimbatore district, Tamil Nadu, 641001, India",
            "latitude": "11.0025894",
            "locType": "bank",
            "closest_to": "thirthahalli"
        },
        "mekedatu": {
            "blogLinks": [
                "https://en.wikipedia.org/wiki/Tourism_in_Karnataka"
            ],
            "longitude": "77.4475194",
            "address": "Mekedatu, SH92, Mahalli, Kanakapura taluk, Ramanagara district, Karnataka, India",
            "latitude": "12.2584997",
            "locType": "attraction",
            "closest_to": "thirthahalli"
        },
        "mysore district": {
            "blogLinks": [
                "https://en.wikipedia.org/wiki/Tourism_in_Karnataka"
            ],
            "longitude": "76.6553609",
            "address": "Mysuru, Mysuru taluk, Mysuru district, Karnataka, 570001, India",
            "latitude": "12.3051828",
            "locType": "city",
            "closest_to": "thirthahalli"
        },
        "kodachadri": {
            "blogLinks": [
                "https://en.wikipedia.org/wiki/Tourism_in_Karnataka"
            ],
            "longitude": "74.8705395",
            "address": "Kodachadri, \u0c95\u0cc1\u0c82\u0ca6\u0cbe\u0caa\u0cc1\u0cb0 \u0ca4\u0cbe\u0cb2\u0cc2\u0c95\u0cc1, Udupi district, Karnataka, India",
            "latitude": "13.8565758",
            "locType": "peak",
            "closest_to": "thirthahalli"
        },
        "dubare": {
            "blogLinks": [
                "https://www.quora.com/What-are-the-best-places-to-visit-in-Karnataka-India"
            ],
            "longitude": "75.9066719",
            "address": "Dubare Elephant Camp, SH91, Dodda Bettageri, Somawarpet taluk, Kodagu, Karnataka, India",
            "latitude": "12.3716865",
            "locType": "attraction",
            "closest_to": "thirthahalli"
        },
        "lakkavalli": {
            "blogLinks": [
                "https://en.wikipedia.org/wiki/Shimoga_district"
            ],
            "longitude": "75.1078097",
            "address": "Lakkavalli, Soraba taluk, Shimoga district, Karnataka, India",
            "latitude": "14.5841018",
            "locType": "village",
            "closest_to": "thirthahalli"
        },
        "chandragiri": {
            "blogLinks": [
                "http://www.holidaymonk.com/15-places-to-visit-in-karnataka/"
            ],
            "longitude": "76.4878052",
            "address": "Chandragiri, Channarayapattana taluk, Hassan district, Karnataka, India",
            "latitude": "12.8617132",
            "locType": "peak",
            "closest_to": "thirthahalli"
        },
        "nalluru": {
            "blogLinks": [
                "https://en.wikipedia.org/wiki/Shimoga_district"
            ],
            "longitude": "78.2692604",
            "address": "Nalluru, Mulubagilu taluk, Kolar district, Karnataka, India",
            "latitude": "13.1680568",
            "locType": "village",
            "closest_to": "thirthahalli"
        },
        "new delhi": {
            "blogLinks": [
                "https://en.wikipedia.org/wiki/Shimoga_district"
            ],
            "longitude": "76.6142178649055",
            "address": "Regional Institute of Education, Chaduranga Road, Jayalakshmipuram, Mysuru, Mysuru taluk, Mysuru district, Karnataka, 570001, India",
            "latitude": "12.30911465",
            "locType": "college",
            "closest_to": "thirthahalli"
        },
        "siddheshwara": {
            "blogLinks": [
                "https://en.wikipedia.org/wiki/Tourism_in_Karnataka"
            ],
            "longitude": "77.5876527",
            "address": "Siddheshwara Medicals, Judicial Layout, Allalasandra, Bangalore, 7th Main Road, Judicial Layout, Bengaluru, Bangalore Urban, Karnataka, 560001, India",
            "latitude": "13.0797146",
            "locType": "pharmacy",
            "closest_to": "thirthahalli"
        },
        "bhatkal": {
            "blogLinks": [
                "https://en.wikipedia.org/wiki/Tourism_in_Karnataka",
                "https://en.wikipedia.org/wiki/Shimoga_district"
            ],
            "longitude": "74.5485295",
            "address": "Bhatkal, Bhatkala taluk, Uttara Kannada, Karnataka, 581320, India",
            "latitude": "13.9952114",
            "locType": "town",
            "closest_to": "thirthahalli"
        },
        "davanagere district": {
            "blogLinks": [
                "https://en.wikipedia.org/wiki/Shimoga_district"
            ],
            "longitude": "75.8904782659728",
            "address": "Davanagere district, Karnataka, India",
            "latitude": "14.37090835",
            "locType": "administrative",
            "closest_to": "thirthahalli"
        },
        "dakshina kannada": {
            "blogLinks": [
                "https://en.wikipedia.org/wiki/Tourism_in_Karnataka",
                "https://www.quora.com/What-are-the-best-places-to-visit-in-Karnataka-India"
            ],
            "longitude": "75.1008028650794",
            "address": "Dakshina Kannada, Karnataka, India",
            "latitude": "12.8114089",
            "locType": "administrative",
            "closest_to": "thirthahalli"
        },
        "nehru": {
            "blogLinks": [
                "https://en.wikipedia.org/wiki/Shimoga_district"
            ],
            "longitude": "75.1428430366112",
            "address": "Nehru Stadium, Koppikar Road, J C Nagar, Kamaripet, Hubballi - \u0cb9\u0cc1\u0cac\u0ccd\u0cac\u0cb3\u0ccd\u0cb3\u0cbf, Hubballi taluku, Dharwad district, Karnataka, 580020, India",
            "latitude": "15.3504494",
            "locType": "stadium",
            "closest_to": "thirthahalli"
        },
        "fort hill": {
            "blogLinks": [
                "http://karnatakatour.info/category/best-tourist-places-in-karnataka/page/4/"
            ],
            "longitude": "74.5255651",
            "address": "Belgaum Fort, Belagavi, Belagavi taluku, Belgaum district, Karnataka, 590001, India",
            "latitude": "15.8581696",
            "locType": "locality",
            "closest_to": "thirthahalli"
        },
        "tarikere": {
            "blogLinks": [
                "http://karnatakatour.info/category/best-tourist-places-in-karnataka/page/4/"
            ],
            "longitude": "76.9606245",
            "address": "Tarikere, Madduru taluk, Mandya district, Karnataka, India",
            "latitude": "12.7569125",
            "locType": "village",
            "closest_to": "thirthahalli"
        },
        "bagamandala": {
            "blogLinks": [
                "https://en.wikipedia.org/wiki/Tourism_in_Karnataka"
            ],
            "longitude": "75.748408",
            "address": "Madikeri - Bagamandala ,Tala Kaveri Road, Mekeri, Madikeri taluku, Kodagu, Karnataka, India",
            "latitude": "12.388062",
            "locType": "primary",
            "closest_to": "thirthahalli"
        },
        "shivanasamudra": {
            "blogLinks": [
                "https://en.wikipedia.org/wiki/Tourism_in_Karnataka"
            ],
            "longitude": "77.1703215",
            "address": "Shivanasamudra, Kollegala taluk, Chamarajanagar district, Karnataka, India",
            "latitude": "12.2719056",
            "locType": "village",
            "closest_to": "thirthahalli"
        },
        "om beach": {
            "blogLinks": [
                "https://en.wikipedia.org/wiki/Tourism_in_Karnataka"
            ],
            "longitude": "74.3254331800289",
            "address": "Om Beach, Om beach road, Gokarna, Kumata taluk, Uttara Kannada, Karnataka, 581326, India",
            "latitude": "14.5190376",
            "locType": "beach",
            "closest_to": "thirthahalli"
        },
        "india": {
            "blogLinks": [
                "http://www.holidaymonk.com/15-places-to-visit-in-karnataka/",
                "https://en.wikipedia.org/wiki/Tourism_in_Karnataka",
                "https://www.travelblog.org/Asia/India/Karnataka/Bangalore/Koramangala/blog-914055.html",
                "http://www.nivalink.com/destination/hospet",
                "https://www.quora.com/What-are-the-best-places-to-visit-in-Karnataka-India",
                "http://www.hoparoundindia.com/state-guides/karnataka.aspx",
                "http://www.mapsofindia.com/karnataka/tourism/",
                "http://karnatakatour.info/category/best-tourist-places-in-karnataka/page/4/",
                "https://www.tripoto.com/weekend-getaways/from-thirthahalli",
                "https://en.wikipedia.org/wiki/Shimoga_district"
            ],
            "longitude": "75.7223521",
            "address": "Karnataka, India",
            "latitude": "14.5203896",
            "locType": "administrative",
            "closest_to": "thirthahalli"
        },
        "india karnataka": {
            "blogLinks": [
                "https://www.quora.com/What-are-the-best-places-to-visit-in-Karnataka-India"
            ],
            "longitude": "76.6639936",
            "address": "Karnataka, Shalivahana Road, Nazarbad, Mysuru, Mysuru taluk, Mysuru district, Karnataka, 570001, India",
            "latitude": "12.3084901",
            "locType": "atm",
            "closest_to": "thirthahalli"
        },
        "maravante": {
            "blogLinks": [
                "https://www.quora.com/What-are-the-best-places-to-visit-in-Karnataka-India"
            ],
            "longitude": "74.6428565",
            "address": "Maravante, \u0c95\u0cc1\u0c82\u0ca6\u0cbe\u0caa\u0cc1\u0cb0 \u0ca4\u0cbe\u0cb2\u0cc2\u0c95\u0cc1, Udupi district, Karnataka, India",
            "latitude": "13.7248514",
            "locType": "village",
            "closest_to": "thirthahalli"
        },
        "ooty": {
            "blogLinks": [
                "https://www.quora.com/What-are-the-best-places-to-visit-in-Karnataka-India",
                "http://www.hoparoundindia.com/state-guides/karnataka.aspx"
            ],
            "longitude": "76.6586807",
            "address": "Ooty Road, Vidyaranyapuram, Mysuru, Mysuru taluk, Mysuru district, Karnataka, 570001, India",
            "latitude": "12.2774807",
            "locType": "primary",
            "closest_to": "thirthahalli"
        },
        "gudavi": {
            "blogLinks": [
                "https://en.wikipedia.org/wiki/Tourism_in_Karnataka"
            ],
            "longitude": "75.009649",
            "address": "Gudavi, Soraba taluk, Shimoga district, Karnataka, India",
            "latitude": "14.4400296",
            "locType": "village",
            "closest_to": "thirthahalli"
        },
        "manipal": {
            "blogLinks": [
                "https://en.wikipedia.org/wiki/Tourism_in_Karnataka",
                "http://www.mapsofindia.com/karnataka/tourism/"
            ],
            "longitude": "74.7870308",
            "address": "Manipal, Udupi taluku, Udupi district, Karnataka, India",
            "latitude": "13.3519723",
            "locType": "town",
            "closest_to": "thirthahalli"
        },
        "chalukya": {
            "blogLinks": [
                "https://en.wikipedia.org/wiki/Tourism_in_Karnataka"
            ],
            "longitude": "77.5192989605445",
            "address": "Chalukya Nagar, Chandra Layout, GKW Layout, Bangalore Urban, Karnataka, 560072, India",
            "latitude": "12.9617207",
            "locType": "residential",
            "closest_to": "thirthahalli"
        },
        "bandaje falls": {
            "blogLinks": [
                "https://www.quora.com/What-are-the-best-places-to-visit-in-Karnataka-India"
            ],
            "longitude": "75.3809448",
            "address": "Bandaje to Bandaje falls, Bangadi, Beltangadi taluk, Dakshina Kannada, Karnataka, 574290, India",
            "latitude": "13.0801279",
            "locType": "track",
            "closest_to": "thirthahalli"
        },
        "bengal": {
            "blogLinks": [
                "https://www.travelblog.org/Asia/India/Karnataka/Bangalore/Koramangala/blog-914055.html"
            ],
            "longitude": "77.7517038151245",
            "address": "Bengal Lamps, Konadasapura, Bangalore Urban, Karnataka, 560066, India",
            "latitude": "13.0492646",
            "locType": "industrial",
            "closest_to": "thirthahalli"
        },
        "malpe": {
            "blogLinks": [
                "https://en.wikipedia.org/wiki/Tourism_in_Karnataka",
                "https://www.quora.com/What-are-the-best-places-to-visit-in-Karnataka-India"
            ],
            "longitude": "74.7036914",
            "address": "Malpe, Udupi taluku, Udupi district, Karnataka, India",
            "latitude": "13.3507423",
            "locType": "village",
            "closest_to": "thirthahalli"
        },
        "kuvempu": {
            "blogLinks": [
                "https://en.wikipedia.org/wiki/Shimoga_district"
            ],
            "longitude": "77.5064032",
            "address": "Kuvempu, Kengeri Main Road, ITI Layout, Jnana Bharathi, Nagadevanahalli, Bangalore Urban, Karnataka, 560056, India",
            "latitude": "12.9560369",
            "locType": "artwork",
            "closest_to": "thirthahalli"
        },
        "itagi": {
            "blogLinks": [
                "https://en.wikipedia.org/wiki/Tourism_in_Karnataka"
            ],
            "longitude": "75.6701043",
            "address": "Itagi, Ranebennuru taluk, Haveri district, Karnataka, India",
            "latitude": "14.550374",
            "locType": "village",
            "closest_to": "thirthahalli"
        },
        "gokak": {
            "blogLinks": [
                "https://en.wikipedia.org/wiki/Tourism_in_Karnataka"
            ],
            "longitude": "74.8224338",
            "address": "Gokak, Gokak taluku, Belgaum district, Karnataka, 591307, India",
            "latitude": "16.1693033",
            "locType": "town",
            "closest_to": "thirthahalli"
        },
        "samse": {
            "blogLinks": [
                "https://www.quora.com/What-are-the-best-places-to-visit-in-Karnataka-India"
            ],
            "longitude": "75.3332678",
            "address": "Samse, Mudigere taluk, Chikkamagaluru district, Karnataka, India",
            "latitude": "13.1894244",
            "locType": "village",
            "closest_to": "thirthahalli"
        },
        "north karnataka": {
            "blogLinks": [
                "http://www.holidaymonk.com/15-places-to-visit-in-karnataka/",
                "https://en.wikipedia.org/wiki/Tourism_in_Karnataka",
                "https://www.quora.com/What-are-the-best-places-to-visit-in-Karnataka-India",
                "https://www.travelblog.org/Asia/India/Karnataka/Bangalore/Koramangala/blog-914055.html"
            ],
            "longitude": "77.7660547",
            "address": "N, Chaithanya Samarpan, Kadugodi, Kannamangala, Bangalore Urban, Karnataka, 560066, India",
            "latitude": "13.0217151",
            "locType": "service",
            "closest_to": "thirthahalli"
        },
        "gadag": {
            "blogLinks": [
                "https://en.wikipedia.org/wiki/Tourism_in_Karnataka"
            ],
            "longitude": "75.6300786",
            "address": "Gadag, Gadag taluk, Gadag district, Karnataka, 582101, India",
            "latitude": "15.4263647",
            "locType": "town",
            "closest_to": "thirthahalli"
        },
        "belur": {
            "blogLinks": [
                "http://www.holidaymonk.com/15-places-to-visit-in-karnataka/",
                "http://www.hoparoundindia.com/state-guides/karnataka.aspx"
            ],
            "longitude": "75.8634851",
            "address": "Belur, Beluru taluk, Hassan district, Karnataka, 573115, India",
            "latitude": "13.1645671",
            "locType": "town",
            "closest_to": "thirthahalli"
        },
        "tunga": {
            "blogLinks": [
                "https://en.wikipedia.org/wiki/Shimoga_district"
            ],
            "longitude": "75.3221835",
            "address": "Tunga, Tirthahalli taluk, Shimoga district, Karnataka, India",
            "latitude": "13.6632221",
            "locType": "river",
            "closest_to": "thirthahalli"
        },
        "nagarhole national park": {
            "blogLinks": [
                "http://www.holidaymonk.com/15-places-to-visit-in-karnataka/",
                "https://en.wikipedia.org/wiki/Tourism_in_Karnataka"
            ],
            "longitude": "76.1537073415874",
            "address": "Nagarahole National Park, Virajpet taluk, Kodagu, Karnataka, India",
            "latitude": "12.0600362",
            "locType": "national_park",
            "closest_to": "thirthahalli"
        },
        "hoysala": {
            "blogLinks": [
                "http://www.holidaymonk.com/15-places-to-visit-in-karnataka/",
                "https://en.wikipedia.org/wiki/Tourism_in_Karnataka",
                "http://www.hoparoundindia.com/state-guides/karnataka.aspx",
                "http://www.mapsofindia.com/karnataka/tourism/"
            ],
            "longitude": "77.6375990817051",
            "address": "Hoysala Nagar, Bengaluru, Bangalore Urban, Karnataka, 560001, India",
            "latitude": "12.97813815",
            "locType": "administrative",
            "closest_to": "thirthahalli"
        },
        "virupaksha temple": {
            "blogLinks": [
                "https://en.wikipedia.org/wiki/Tourism_in_Karnataka"
            ],
            "longitude": "76.4587777156223",
            "address": "Virupaksha Temple, Hampi Bazaar, Hampe, Hosapete taluk, Bellary district, Karnataka, 583239, India",
            "latitude": "15.3351754",
            "locType": "place_of_worship",
            "closest_to": "thirthahalli"
        },
        "chikmagalur district": {
            "blogLinks": [
                "https://en.wikipedia.org/wiki/Tourism_in_Karnataka",
                "https://en.wikipedia.org/wiki/Shimoga_district"
            ],
            "longitude": "75.5",
            "address": "Chikmagalur, Chikkamagaluru district, Karnataka, India",
            "latitude": "13.5",
            "locType": "county",
            "closest_to": "thirthahalli"
        },
        "talakadu": {
            "blogLinks": [
                "https://www.tripoto.com/weekend-getaways/from-thirthahalli"
            ],
            "longitude": "77.0293979",
            "address": "Talakadu, Tirumakudalu Narasipura taluk, Mysuru district, Karnataka, India",
            "latitude": "12.1919942",
            "locType": "village",
            "closest_to": "thirthahalli"
        },
        "gokarna": {
            "blogLinks": [
                "https://en.wikipedia.org/wiki/Tourism_in_Karnataka",
                "https://www.quora.com/What-are-the-best-places-to-visit-in-Karnataka-India",
                "http://www.mapsofindia.com/karnataka/tourism/"
            ],
            "longitude": "74.3184418",
            "address": "Gokarna, Kumata taluk, Uttara Kannada, Karnataka, 581326, India",
            "latitude": "14.5439629",
            "locType": "town",
            "closest_to": "thirthahalli"
        },
        "baga": {
            "blogLinks": [
                "https://www.tripoto.com/weekend-getaways/from-thirthahalli"
            ],
            "longitude": "76.9300452",
            "address": "Baga Hipparaga, Basavakalyana taluku, Bidar district, Karnataka, India",
            "latitude": "17.6148763",
            "locType": "village",
            "closest_to": "bijapur"
        },
        "silicon city": {
            "blogLinks": [
                "http://www.hoparoundindia.com/state-guides/karnataka.aspx"
            ],
            "longitude": "77.6518846392183",
            "address": "Concorde Silicon Valley, Electronics City Phase 1, Doddathoguru, Bangalore Urban, Karnataka, 560100, India",
            "latitude": "12.8387524",
            "locType": "residential",
            "closest_to": "thirthahalli"
        },
        "almatti dam": {
            "blogLinks": [
                "http://www.holidayiq.com/Bijapur-Sightseeing-646.html",
                "https://www.travelblog.org/Asia/India/Karnataka/Bangalore/Koramangala/blog-914055.html"
            ],
            "longitude": "75.9517801",
            "address": "Almatti Left Bank Canal, Basavana Bagevadi Taluku, Bijapur district, Karnataka, India",
            "latitude": "16.3648934",
            "locType": "canal",
            "closest_to": "thirthahalli"
        },
        "bidar": {
            "blogLinks": [
                "http://karnatakatour.info/category/best-tourist-places-in-karnataka/page/4/"
            ],
            "longitude": "77.333333",
            "address": "Bidar, Bidar district, Karnataka, India",
            "latitude": "18.083333",
            "locType": "county",
            "closest_to": "bijapur"
        },
        "somanathapura": {
            "blogLinks": [
                "https://www.quora.com/What-are-the-best-places-to-visit-in-Karnataka-India"
            ],
            "longitude": "77.9957587",
            "address": "Somanathapura, Bagepalli taluk, Chikkaballapura district, Karnataka, India",
            "latitude": "13.75905",
            "locType": "village",
            "closest_to": "thirthahalli"
        },
        "sorab": {
            "blogLinks": [
                "https://en.wikipedia.org/wiki/Shimoga_district"
            ],
            "longitude": "75.1114212",
            "address": "Sorab Ulavi Rd, Ulavi, Soraba taluk, Shimoga district, Karnataka, 577434, India",
            "latitude": "14.2779168",
            "locType": "secondary",
            "closest_to": "thirthahalli"
        },
        "banavasi": {
            "blogLinks": [
                "https://en.wikipedia.org/wiki/Tourism_in_Karnataka",
                "https://en.wikipedia.org/wiki/Shimoga_district"
            ],
            "longitude": "75.0129845",
            "address": "Banavasi, Shirasi taluk, Uttara Kannada, Karnataka, India",
            "latitude": "14.5389738",
            "locType": "town",
            "closest_to": "thirthahalli"
        },
        "hosanagara taluk": {
            "blogLinks": [
                "https://en.wikipedia.org/wiki/Shimoga_district"
            ],
            "longitude": "75.0686275463311",
            "address": "Hosanagara taluk, Shimoga district, Karnataka, India",
            "latitude": "13.8498942",
            "locType": "administrative",
            "closest_to": "thirthahalli"
        },
        "kukke": {
            "blogLinks": [
                "http://www.hoparoundindia.com/state-guides/karnataka.aspx"
            ],
            "longitude": "75.3076538",
            "address": "Kukke, Tirthahalli taluk, Shimoga district, Karnataka, India",
            "latitude": "13.7523964",
            "locType": "village",
            "closest_to": "thirthahalli"
        },
        "karkala": {
            "blogLinks": [
                "https://en.wikipedia.org/wiki/Tourism_in_Karnataka",
                "https://www.quora.com/What-are-the-best-places-to-visit-in-Karnataka-India"
            ],
            "longitude": "74.9959586",
            "address": "Karkala, Karkala taluk, Udupi district, Karnataka, 574104, India",
            "latitude": "13.2112826",
            "locType": "town",
            "closest_to": "thirthahalli"
        },
        "goa": {
            "blogLinks": [
                "http://www.holidaymonk.com/15-places-to-visit-in-karnataka/",
                "https://en.wikipedia.org/wiki/Tourism_in_Karnataka",
                "https://www.tripoto.com/weekend-getaways/from-thirthahalli",
                "https://www.quora.com/What-are-the-best-places-to-visit-in-Karnataka-India",
                "http://www.hoparoundindia.com/state-guides/karnataka.aspx"
            ],
            "longitude": "77.6200027",
            "address": "Carnival De Goa, Bhaskaran Road, Gupta Layout, Halasuru, Bengaluru, Bangalore Urban, Karnataka, 560001, India",
            "latitude": "12.9750047",
            "locType": "restaurant",
            "closest_to": "thirthahalli"
        },
        "chandramoulishwara": {
            "blogLinks": [
                "https://en.wikipedia.org/wiki/Tourism_in_Karnataka"
            ],
            "longitude": "76.6290267",
            "address": "Chandramoulishwara Temple, Adipampa Road, Gokulam, Mysuru, Mysuru taluk, Mysuru district, Karnataka, 570001, India",
            "latitude": "12.3225663",
            "locType": "place_of_worship",
            "closest_to": "thirthahalli"
        },
        "lokapura": {
            "blogLinks": [
                "https://en.wikipedia.org/wiki/Tourism_in_Karnataka"
            ],
            "longitude": "75.3685939",
            "address": "Lokapura, Mudhola taluku, Bagalkote district, Karnataka, 587122, India",
            "latitude": "16.1627427",
            "locType": "town",
            "closest_to": "thirthahalli"
        },
        "sharavati": {
            "blogLinks": [
                "https://en.wikipedia.org/wiki/Tourism_in_Karnataka",
                "https://en.wikipedia.org/wiki/Shimoga_district"
            ],
            "longitude": "74.7647294",
            "address": "Sharavati, Sagara taluk, Shimoga district, Karnataka, India",
            "latitude": "14.2360979",
            "locType": "river",
            "closest_to": "thirthahalli"
        },
        "nataraja": {
            "blogLinks": [
                "https://www.travelblog.org/Asia/India/Karnataka/Bangalore/Koramangala/blog-914055.html"
            ],
            "longitude": "77.5730381173154",
            "address": "Nataraja, Sirur Park Road, Vyalikaval, Seshadripuram, Bengaluru, Bangalore Urban, Karnataka, 560001, India",
            "latitude": "12.9900332",
            "locType": "cinema",
            "closest_to": "thirthahalli"
        },
        "kerala": {
            "blogLinks": [
                "http://www.holidaymonk.com/15-places-to-visit-in-karnataka/",
                "https://www.quora.com/What-are-the-best-places-to-visit-in-Karnataka-India",
                "http://www.hoparoundindia.com/state-guides/karnataka.aspx"
            ],
            "longitude": "77.6382683",
            "address": "New Life Kerala Mess, Sai Baba Mandira Road, Mottappanapalaya, Indiranagar, Bengaluru, Bangalore Urban, Karnataka, 560001, India",
            "latitude": "12.9726449",
            "locType": "restaurant",
            "closest_to": "thirthahalli"
        },
        "bhadra river": {
            "blogLinks": [
                "https://en.wikipedia.org/wiki/Tourism_in_Karnataka"
            ],
            "longitude": "75.527118",
            "address": "Bhadra, Chikkamagaluru taluku, Chikkamagaluru district, Karnataka, India",
            "latitude": "13.4888356",
            "locType": "river",
            "closest_to": "thirthahalli"
        },
        "hasan": {
            "blogLinks": [
                "http://www.mapsofindia.com/karnataka/tourism/"
            ],
            "longitude": "76.0992703",
            "address": "Hassan, Hasana taluk, Hassan district, Karnataka, 573201, India",
            "latitude": "13.0070817",
            "locType": "town",
            "closest_to": "thirthahalli"
        },
        "nittur": {
            "blogLinks": [
                "https://en.wikipedia.org/wiki/Shimoga_district"
            ],
            "longitude": "75.7595937",
            "address": "Malebennur Nittur Road, Nitturu, Harihara taluku, Davanagere district, Karnataka, 577530, India",
            "latitude": "14.3579814",
            "locType": "tertiary",
            "closest_to": "thirthahalli"
        },
        "anegudde": {
            "blogLinks": [
                "http://www.hoparoundindia.com/state-guides/karnataka.aspx"
            ],
            "longitude": "74.70466635",
            "address": "Anegudde Ganapathi Temple, Anugudde Ganapathi Temple Road, Vaderahobali, Kumbhashi, \u0c95\u0cc1\u0c82\u0ca6\u0cbe\u0caa\u0cc1\u0cb0 \u0ca4\u0cbe\u0cb2\u0cc2\u0c95\u0cc1, Udupi district, Karnataka, 576231, India",
            "latitude": "13.56926545",
            "locType": "place_of_worship",
            "closest_to": "thirthahalli"
        },
        "hindupur": {
            "blogLinks": [
                "https://www.quora.com/What-are-the-best-places-to-visit-in-Karnataka-India"
            ],
            "longitude": "77.5237128",
            "address": "Hindupur ByPass Road, Bachchahalli, Doddaballapura taluk, Bangalore Rural, Karnataka, India",
            "latitude": "13.3580171",
            "locType": "primary",
            "closest_to": "thirthahalli"
        },
        "gadag district": {
            "blogLinks": [
                "https://en.wikipedia.org/wiki/Tourism_in_Karnataka"
            ],
            "longitude": "75.6807542794645",
            "address": "Gadag district, Karnataka, India",
            "latitude": "15.416337",
            "locType": "administrative",
            "closest_to": "thirthahalli"
        },
        "nethrani island": {
            "blogLinks": [
                "https://en.wikipedia.org/wiki/Tourism_in_Karnataka"
            ],
            "longitude": "74.3272086675849",
            "address": "Netrani, Uttara Kannada, Karnataka, India",
            "latitude": "14.0174924",
            "locType": "island",
            "closest_to": "thirthahalli"
        },
        "rock garden": {
            "blogLinks": [
                "https://en.wikipedia.org/wiki/Tourism_in_Karnataka"
            ],
            "longitude": "75.6142269",
            "address": "Waterfalls by the Rock site, Madikeri taluku, Kodagu, Karnataka, India",
            "latitude": "12.2248591",
            "locType": "waterfall",
            "closest_to": "thirthahalli"
        },
        "thirthahalli": {
            "blogLinks": [
                "https://www.tripoto.com/travel-guide/thirthahalli",
                "http://www.holidaymonk.com/15-places-to-visit-in-karnataka/",
                "http://www.holidayiq.com/Bijapur-Sightseeing-646.html",
                "https://www.tripoto.com/weekend-getaways/from-thirthahalli",
                "http://www.nivalink.com/destination/thirthahalli",
                "https://en.wikipedia.org/wiki/Shimoga_district"
            ],
            "longitude": "74.9626368",
            "address": "Thirthahalli - Udupi Highway, Shivapura, Karkala taluk, Udupi district, Karnataka, India",
            "latitude": "13.4265327",
            "locType": "trunk",
            "closest_to": "thirthahalli"
        },
        "karwar": {
            "blogLinks": [
                "http://www.holidaymonk.com/15-places-to-visit-in-karnataka/",
                "https://en.wikipedia.org/wiki/Tourism_in_Karnataka",
                "http://www.hoparoundindia.com/state-guides/karnataka.aspx"
            ],
            "longitude": "74.1319229",
            "address": "Karwar, Karavara taluk, Uttara Kannada, Karnataka, 581300, India",
            "latitude": "14.8120931",
            "locType": "town",
            "closest_to": "thirthahalli"
        },
        "bellary district": {
            "blogLinks": [
                "https://en.wikipedia.org/wiki/Tourism_in_Karnataka"
            ],
            "longitude": "76.7137978546465",
            "address": "Bellary district, Karnataka, India",
            "latitude": "15.20597305",
            "locType": "administrative",
            "closest_to": "thirthahalli"
        },
        "sogane": {
            "blogLinks": [
                "https://en.wikipedia.org/wiki/Shimoga_district"
            ],
            "longitude": "75.6154786",
            "address": "Sogane, Shivamogga taluku, Shimoga district, Karnataka, India",
            "latitude": "13.871288",
            "locType": "village",
            "closest_to": "thirthahalli"
        },
        "bidar fort bidar fort": {
            "blogLinks": [
                "http://karnatakatour.info/category/best-tourist-places-in-karnataka/page/4/"
            ],
            "longitude": "77.5265890380672",
            "address": "Bidar Fort, Qila Road, Multani Colony, Old City, Bidar, Bidar taluku, Bidar district, Karnataka, 585400, India",
            "latitude": "17.92480435",
            "locType": "castle",
            "closest_to": "bijapur"
        },
        "hampi": {
            "blogLinks": [
                "https://en.wikipedia.org/wiki/Tourism_in_Karnataka",
                "http://www.nivalink.com/destination/hospet",
                "https://www.quora.com/What-are-the-best-places-to-visit-in-Karnataka-India",
                "http://www.hoparoundindia.com/state-guides/karnataka.aspx",
                "http://www.mapsofindia.com/karnataka/tourism/"
            ],
            "longitude": "76.4606199",
            "address": "Hampe, Hosapete taluk, Bellary district, Karnataka, 583239, India",
            "latitude": "15.3359769",
            "locType": "village",
            "closest_to": "thirthahalli"
        },
        "koppal": {
            "blogLinks": [
                "https://en.wikipedia.org/wiki/Tourism_in_Karnataka"
            ],
            "longitude": "76.1547421",
            "address": "Koppala, Koppala taluku, Koppal district, Karnataka, 583231, India",
            "latitude": "15.3484144",
            "locType": "town",
            "closest_to": "thirthahalli"
        },
        "mastikatte": {
            "blogLinks": [
                "https://en.wikipedia.org/wiki/Tourism_in_Karnataka",
                "https://en.wikipedia.org/wiki/Shimoga_district"
            ],
            "longitude": "74.4604101",
            "address": "Mastikatte, Ankola taluk, Uttara Kannada, Karnataka, India",
            "latitude": "14.6857168",
            "locType": "village",
            "closest_to": "thirthahalli"
        },
        "krishna river": {
            "blogLinks": [
                "http://www.holidayiq.com/Bijapur-Sightseeing-646.html"
            ],
            "longitude": "77.0529845",
            "address": "Krishna, Shahapura taluku, Yadagiri district, Karnataka, India",
            "latitude": "16.5209569",
            "locType": "river",
            "closest_to": "bijapur"
        },
        "netravati": {
            "blogLinks": [
                "https://en.wikipedia.org/wiki/Tourism_in_Karnataka"
            ],
            "longitude": "75.1562182",
            "address": "Netravati, Bantwal taluk, Dakshina Kannada, Karnataka, India",
            "latitude": "12.8537655",
            "locType": "river",
            "closest_to": "thirthahalli"
        },
        "kabini river": {
            "blogLinks": [
                "https://en.wikipedia.org/wiki/Tourism_in_Karnataka"
            ],
            "longitude": "76.6477184",
            "address": "Kabini right bank canal, Nanjanagudu taluk, Mysuru district, Karnataka, India",
            "latitude": "12.0780998",
            "locType": "canal",
            "closest_to": "thirthahalli"
        },
        "banashankari temple": {
            "blogLinks": [
                "https://en.wikipedia.org/wiki/Tourism_in_Karnataka"
            ],
            "longitude": "77.5731752886765",
            "address": "Banashankari Temple, Kanakapura Road, JP Nagar 1st Phase, Kaderenahalli, Bengaluru, Bangalore Urban, Karnataka, 560001, India",
            "latitude": "12.91568785",
            "locType": "place_of_worship",
            "closest_to": "thirthahalli"
        },
        "coimbatore": {
            "blogLinks": [
                "https://www.tripoto.com/weekend-getaways/from-thirthahalli"
            ],
            "longitude": "76.6318246",
            "address": "Gundlupet - Coimbatore Highway, Bandipur, Gundlupet taluk, Chamarajanagar district, Karnataka, India",
            "latitude": "11.6793976",
            "locType": "trunk",
            "closest_to": "thirthahalli"
        },
        "silicon valley": {
            "blogLinks": [
                "https://www.tripoto.com/weekend-getaways/from-thirthahalli"
            ],
            "longitude": "77.6053133563105",
            "address": "RK Estates : Silicon Valley Layout, Vidyanagar, Bengaluru, Bangalore Urban, Karnataka, 560001, India",
            "latitude": "13.1650062",
            "locType": "residential",
            "closest_to": "thirthahalli"
        },
        "kargal": {
            "blogLinks": [
                "https://en.wikipedia.org/wiki/Shimoga_district"
            ],
            "longitude": "75.9613152",
            "address": "Kargal, Arakalagudu taluk, Hassan district, Karnataka, India",
            "latitude": "12.627292",
            "locType": "village",
            "closest_to": "thirthahalli"
        },
        "gotagodi village": {
            "blogLinks": [
                "https://en.wikipedia.org/wiki/Tourism_in_Karnataka"
            ],
            "longitude": "75.0452834",
            "address": "Gotagodi, Hanagal taluk, Haveri district, Karnataka, India",
            "latitude": "14.7634556",
            "locType": "village",
            "closest_to": "thirthahalli"
        },
        "northern india": {
            "blogLinks": [
                "http://www.holidaymonk.com/15-places-to-visit-in-karnataka/"
            ],
            "longitude": "77.6804678",
            "address": "Northern Operating  Services Pvt Ltd, RMZ Ecospace, Internal Rd, RMZ Ecospace, Bellandur, Doddakannelli, Bangalore Urban, Karnataka, 560037, India",
            "latitude": "12.9257442",
            "locType": "company",
            "closest_to": "thirthahalli"
        },
        "melige": {
            "blogLinks": [
                "https://en.wikipedia.org/wiki/Shimoga_district"
            ],
            "longitude": "75.2868444",
            "address": "Melige, Tirthahalli taluk, Shimoga district, Karnataka, India",
            "latitude": "13.6660298",
            "locType": "village",
            "closest_to": "thirthahalli"
        },
        "annapoorneshwari temple": {
            "blogLinks": [
                "https://www.quora.com/What-are-the-best-places-to-visit-in-Karnataka-India",
                "http://www.hoparoundindia.com/state-guides/karnataka.aspx"
            ],
            "longitude": "74.9006001",
            "address": "Sri Ambika Annapoorneshwari Temple, SH101, Sunkadakatte, Mangaluru taluk, Dakshina Kannada, Karnataka, India",
            "latitude": "12.97910715",
            "locType": "place_of_worship",
            "closest_to": "thirthahalli"
        },
        "india.karnataka": {
            "blogLinks": [
                "http://www.holidaymonk.com/15-places-to-visit-in-karnataka/"
            ],
            "longitude": "76.6639936",
            "address": "Karnataka, Shalivahana Road, Nazarbad, Mysuru, Mysuru taluk, Mysuru district, Karnataka, 570001, India",
            "latitude": "12.3084901",
            "locType": "atm",
            "closest_to": "thirthahalli"
        },
        "mercara": {
            "blogLinks": [
                "https://en.wikipedia.org/wiki/Tourism_in_Karnataka"
            ],
            "longitude": "75.740031",
            "address": "Madikeri, Madikeri taluku, Kodagu, Karnataka, India",
            "latitude": "12.4204003",
            "locType": "town",
            "closest_to": "thirthahalli"
        },
        "gulbarga district": {
            "blogLinks": [
                "https://en.wikipedia.org/wiki/Tourism_in_Karnataka"
            ],
            "longitude": "77.083333",
            "address": "Kalaburgi, Kalaburagi district, Karnataka, India",
            "latitude": "17.166667",
            "locType": "county",
            "closest_to": "bijapur"
        },
        "afzalpur": {
            "blogLinks": [
                "https://en.wikipedia.org/wiki/Tourism_in_Karnataka"
            ],
            "longitude": "76.3605783",
            "address": "Afzalpur, Afzalpura taluku, Kalaburagi district, Karnataka, 585301, India",
            "latitude": "17.2005764",
            "locType": "town",
            "closest_to": "bijapur"
        },
        "keshava temple": {
            "blogLinks": [
                "http://www.hoparoundindia.com/state-guides/karnataka.aspx"
            ],
            "longitude": "76.8815598",
            "address": "\u0c9a\u0cc6\u0ca8\u0ccd\u0ca8\u0c95\u0cc7\u0cb6\u0cb5 \u0ca6\u0cc7\u0cb5\u0cb8\u0ccd\u0ca5\u0cbe\u0ca8, SH79, Bevinahalli, Tirumakudalu Narasipura taluk, Mysuru district, Karnataka, India",
            "latitude": "12.27576785",
            "locType": "attraction",
            "closest_to": "thirthahalli"
        },
        "sannati": {
            "blogLinks": [
                "https://en.wikipedia.org/wiki/Tourism_in_Karnataka"
            ],
            "longitude": "76.9080631",
            "address": "Sannati, Chitapura taluku, Kalaburagi district, Karnataka, India",
            "latitude": "16.8293201",
            "locType": "village",
            "closest_to": "bijapur"
        },
        "mookambika": {
            "blogLinks": [
                "https://en.wikipedia.org/wiki/Tourism_in_Karnataka"
            ],
            "longitude": "74.8145296",
            "address": "Mukambika Devasthana, NH766C;SH26, Halkal, \u0c95\u0cc1\u0c82\u0ca6\u0cbe\u0caa\u0cc1\u0cb0 \u0ca4\u0cbe\u0cb2\u0cc2\u0c95\u0cc1, Udupi district, Karnataka, 576220, India",
            "latitude": "13.8638043",
            "locType": "place_of_worship",
            "closest_to": "thirthahalli"
        },
        "uttara kannada": {
            "blogLinks": [
                "https://en.wikipedia.org/wiki/Tourism_in_Karnataka",
                "https://en.wikipedia.org/wiki/Shimoga_district"
            ],
            "longitude": "74.4729163045979",
            "address": "Uttara Kannada, Karnataka, India",
            "latitude": "14.6726379",
            "locType": "administrative",
            "closest_to": "thirthahalli"
        },
        "shikaripura": {
            "blogLinks": [
                "https://en.wikipedia.org/wiki/Shimoga_district"
            ],
            "longitude": "75.3587796",
            "address": "Shikaripura, Shikaripura taluk, Shimoga district, Karnataka, 577427, India",
            "latitude": "14.2639661",
            "locType": "town",
            "closest_to": "thirthahalli"
        },
        "dharma river": {
            "blogLinks": [
                "https://en.wikipedia.org/wiki/Tourism_in_Karnataka"
            ],
            "longitude": "77.5575864485219",
            "address": "Dharma Naidu Udhyanavana, 44th cross, Rajajinagar 4th Block, Rajaji Nagar, Bengaluru, Bangalore Urban, Karnataka, 560001, India",
            "latitude": "12.98914885",
            "locType": "park",
            "closest_to": "thirthahalli"
        },
        "lal bagh": {
            "blogLinks": [
                "https://www.tripoto.com/weekend-getaways/from-thirthahalli"
            ],
            "longitude": "74.8386152",
            "address": "Lal Bagh Bus Stop, Mahatma Gandhi Road, Lalbagh, Ladyhill, Mangaluru, Mangaluru taluk, Dakshina Kannada, Karnataka, 575001, India",
            "latitude": "12.8859223",
            "locType": "bus_stop",
            "closest_to": "thirthahalli"
        },
        "chamarajanagar": {
            "blogLinks": [
                "https://en.wikipedia.org/wiki/Tourism_in_Karnataka"
            ],
            "longitude": "76.9331345",
            "address": "Chamarajanagar, Nanjangudu-Chamarajanagar Road, Kadahalli, Chamarajanagara taluk, Chamarajanagar district, Karnataka, 571313, India",
            "latitude": "11.9346624",
            "locType": "station",
            "closest_to": "thirthahalli"
        },
        "arabhavi": {
            "blogLinks": [
                "https://en.wikipedia.org/wiki/Tourism_in_Karnataka"
            ],
            "longitude": "74.8213227",
            "address": "Arabhavi, Gokak taluku, Belgaum district, Karnataka, India",
            "latitude": "16.2193552",
            "locType": "village",
            "closest_to": "thirthahalli"
        },
        "tungabhadra river": {
            "blogLinks": [
                "http://www.nivalink.com/destination/hospet"
            ],
            "longitude": "76.4931607",
            "address": "Tungabhadra, Gangavati taluku, Koppal district, Karnataka, India",
            "latitude": "15.3446123",
            "locType": "river",
            "closest_to": "thirthahalli"
        },
        "kozhikode": {
            "blogLinks": [
                "https://www.quora.com/What-are-the-best-places-to-visit-in-Karnataka-India"
            ],
            "longitude": "76.6598864",
            "address": "Kozhikode - Kollegal Highway, Ittigegudu, Mysuru, Mysuru taluk, Mysuru district, Karnataka, 570001, India",
            "latitude": "12.2926117",
            "locType": "primary",
            "closest_to": "thirthahalli"
        },
        "tunga river": {
            "blogLinks": [
                "https://en.wikipedia.org/wiki/Shimoga_district"
            ],
            "longitude": "75.3221835",
            "address": "Tunga, Tirthahalli taluk, Shimoga district, Karnataka, India",
            "latitude": "13.6632221",
            "locType": "river",
            "closest_to": "thirthahalli"
        },
        "thirthahalli taluk": {
            "blogLinks": [
                "https://en.wikipedia.org/wiki/Shimoga_district"
            ],
            "longitude": "75.0382054",
            "address": "Thirthahalli - Udupi Highway, Someshwara, Karkala taluk, Udupi district, Karnataka, 576129, India",
            "latitude": "13.4738839",
            "locType": "trunk",
            "closest_to": "thirthahalli"
        },
        "mallikarjuna": {
            "blogLinks": [
                "https://en.wikipedia.org/wiki/Tourism_in_Karnataka"
            ],
            "longitude": "77.0590502",
            "address": "Mallikarjuna Vadi, Basavakalyana taluku, Bidar district, Karnataka, India",
            "latitude": "17.8106693",
            "locType": "village",
            "closest_to": "bijapur"
        },
        "lakshmeshwar": {
            "blogLinks": [
                "https://en.wikipedia.org/wiki/Tourism_in_Karnataka"
            ],
            "longitude": "75.4741167",
            "address": "Lakshmeshwar KSRTC Bus stand, SH6, Bastibana, Lakshmeshvara, Shirahatti taluku, Gadag district, Karnataka, 582116, India",
            "latitude": "15.12373",
            "locType": "bus_station",
            "closest_to": "thirthahalli"
        },
        "kalaseshwara temple": {
            "blogLinks": [
                "http://www.nivalink.com/destination/thirthahalli"
            ],
            "longitude": "75.363446975",
            "address": "Kalaseshwara Temple, SH66, Kalasa, Mudigere taluk, Chikkamagaluru district, Karnataka, 577124, India",
            "latitude": "13.23228505",
            "locType": "place_of_worship",
            "closest_to": "thirthahalli"
        },
        "margao": {
            "blogLinks": [
                "https://www.tripoto.com/weekend-getaways/from-thirthahalli"
            ],
            "longitude": "73.9583411",
            "address": "Karnataka bank, NH66, Aquem, Fatorda, Margao, South Goa, Goa, 403600, India",
            "latitude": "15.2740083",
            "locType": "bank",
            "closest_to": "thirthahalli"
        },
        "arasikere": {
            "blogLinks": [
                "https://en.wikipedia.org/wiki/Tourism_in_Karnataka"
            ],
            "longitude": "76.2568436",
            "address": "Arasikere, Arasikere taluku, Hassan district, Karnataka, 573103, India",
            "latitude": "13.3159809",
            "locType": "town",
            "closest_to": "thirthahalli"
        },
        "hampi bazaar": {
            "blogLinks": [
                "http://www.nivalink.com/destination/hospet"
            ],
            "longitude": "76.4621571",
            "address": "Hampi Bazaar, Hampe, Hosapete taluk, Bellary district, Karnataka, 583239, India",
            "latitude": "15.3347585",
            "locType": "unclassified",
            "closest_to": "thirthahalli"
        },
        "kali river": {
            "blogLinks": [
                "https://www.quora.com/What-are-the-best-places-to-visit-in-Karnataka-India"
            ],
            "longitude": "74.5802901",
            "address": "Kali, Joida taluk, Uttara Kannada, Karnataka, India",
            "latitude": "15.0145378",
            "locType": "river",
            "closest_to": "thirthahalli"
        },
        "grevillea": {
            "blogLinks": [
                "https://en.wikipedia.org/wiki/Shimoga_district"
            ],
            "longitude": "77.5845738",
            "address": "Grevillea Robusta A.Cunn - Australian Silver Oak, Krumbiegal Road, Mavalli, VV Puram, Bengaluru, Bangalore Urban, Karnataka, 560001, India",
            "latitude": "12.9539614",
            "locType": "tree",
            "closest_to": "thirthahalli"
        },
        "venkatappa art gallery": {
            "blogLinks": [
                "http://www.mapsofindia.com/karnataka/tourism/"
            ],
            "longitude": "77.5952077",
            "address": "Venkatappa Art Gallery, Kasturba Road, Shantala Nagar, MacIvor Town, Bengaluru, Bangalore Urban, Karnataka, 560001, India",
            "latitude": "12.9742592",
            "locType": "museum",
            "closest_to": "thirthahalli"
        },
        "shirali": {
            "blogLinks": [
                "https://en.wikipedia.org/wiki/Tourism_in_Karnataka"
            ],
            "longitude": "74.5286591",
            "address": "Shirali, Bhatkala taluk, Uttara Kannada, Karnataka, 581354, India",
            "latitude": "14.0280925",
            "locType": "village",
            "closest_to": "thirthahalli"
        },
        "mandya": {
            "blogLinks": [
                "https://en.wikipedia.org/wiki/Tourism_in_Karnataka",
                "https://en.wikipedia.org/wiki/Shimoga_district"
            ],
            "longitude": "76.8937392",
            "address": "Mandya, Mandya taluk, Mandya district, Karnataka, 571401, India",
            "latitude": "12.5217836",
            "locType": "town",
            "closest_to": "thirthahalli"
        },
        "bannerghatta national park": {
            "blogLinks": [
                "https://en.wikipedia.org/wiki/Tourism_in_Karnataka",
                "https://www.quora.com/What-are-the-best-places-to-visit-in-Karnataka-India"
            ],
            "longitude": "77.5722783830694",
            "address": "Bannerghatta National Park, Anekal Road, Begihalli, Bangalore Urban, Karnataka, 560076, India",
            "latitude": "12.77900335",
            "locType": "national_park",
            "closest_to": "thirthahalli"
        },
        "srirangapatna": {
            "blogLinks": [
                "https://en.wikipedia.org/wiki/Tourism_in_Karnataka",
                "https://www.quora.com/What-are-the-best-places-to-visit-in-Karnataka-India"
            ],
            "longitude": "76.6850743",
            "address": "Srirangapatna, Srirangapattana taluk, Mandya district, Karnataka, 571438, India",
            "latitude": "12.4225604",
            "locType": "town",
            "closest_to": "thirthahalli"
        },
        "pattadakal": {
            "blogLinks": [
                "http://www.holidaymonk.com/15-places-to-visit-in-karnataka/",
                "https://en.wikipedia.org/wiki/Tourism_in_Karnataka",
                "http://www.hoparoundindia.com/state-guides/karnataka.aspx",
                "https://www.travelblog.org/Asia/India/Karnataka/Bangalore/Koramangala/blog-914055.html",
                "http://www.mapsofindia.com/karnataka/tourism/"
            ],
            "longitude": "75.815884048161",
            "address": "Pattadakal Temples, SH14, \u0cac\u0cbe\u0c9a\u0cbf\u0ca8\u0c97\u0cc1\u0ca1\u0ccd\u0ca1, Badami taluku, Bagalkote district, Karnataka, 587211, India",
            "latitude": "15.9506349",
            "locType": "attraction",
            "closest_to": "thirthahalli"
        },
        "maharashtra": {
            "blogLinks": [
                "http://www.holidaymonk.com/15-places-to-visit-in-karnataka/",
                "https://en.wikipedia.org/wiki/Tourism_in_Karnataka",
                "http://www.hoparoundindia.com/state-guides/karnataka.aspx",
                "https://www.travelblog.org/Asia/India/Karnataka/Bangalore/Koramangala/blog-914055.html"
            ],
            "longitude": "77.5856013",
            "address": "Bank of Maharashtra, 24th Main, K R Layout, Puttenahalli, Bengaluru, Bangalore Urban, Karnataka, 560001, India",
            "latitude": "12.9049455",
            "locType": "bank",
            "closest_to": "thirthahalli"
        },
        "udupi district": {
            "blogLinks": [
                "https://en.wikipedia.org/wiki/Shimoga_district"
            ],
            "longitude": "74.7469037178649",
            "address": "Udupi district, Karnataka, India",
            "latitude": "13.49007305",
            "locType": "administrative",
            "closest_to": "thirthahalli"
        },
        "subramanya": {
            "blogLinks": [
                "https://en.wikipedia.org/wiki/Tourism_in_Karnataka"
            ],
            "longitude": "77.6015800913134",
            "address": "Subramanya Arcade, Marenahalli, Bengaluru, Bangalore Urban, Karnataka, 560001, India",
            "latitude": "12.9251206",
            "locType": "commercial",
            "closest_to": "thirthahalli"
        },
        "gulbarga": {
            "blogLinks": [
                "https://en.wikipedia.org/wiki/Tourism_in_Karnataka",
                "http://www.holidayiq.com/Bijapur-Sightseeing-646.html"
            ],
            "longitude": "77.083333",
            "address": "Kalaburgi, Kalaburagi district, Karnataka, India",
            "latitude": "17.166667",
            "locType": "county",
            "closest_to": "bijapur"
        },
        "dharwad": {
            "blogLinks": [
                "https://en.wikipedia.org/wiki/Tourism_in_Karnataka"
            ],
            "longitude": "75.0066516",
            "address": "Dharwad, Dharawada taluku, Dharwad district, Karnataka, 580001, India",
            "latitude": "15.4540505",
            "locType": "city",
            "closest_to": "thirthahalli"
        },
        "chitradurga": {
            "blogLinks": [
                "https://en.wikipedia.org/wiki/Tourism_in_Karnataka",
                "https://www.travelblog.org/Asia/India/Karnataka/Bangalore/Koramangala/blog-914055.html"
            ],
            "longitude": "76.4005122",
            "address": "Chitradurga, Chitradurga taluku, Chitradurga district, Karnataka, 577500, India",
            "latitude": "14.2266443",
            "locType": "town",
            "closest_to": "thirthahalli"
        },
        "mullayanagiri": {
            "blogLinks": [
                "http://www.holidaymonk.com/15-places-to-visit-in-karnataka/"
            ],
            "longitude": "75.7214034",
            "address": "Mullayyanagiri, Chikkamagaluru, Chikkamagaluru taluku, Chikkamagaluru district, Karnataka, 577101, India",
            "latitude": "13.3909217",
            "locType": "peak",
            "closest_to": "thirthahalli"
        },
        "nagarahole national park": {
            "blogLinks": [
                "https://en.wikipedia.org/wiki/Tourism_in_Karnataka"
            ],
            "longitude": "76.1537073415874",
            "address": "Nagarahole National Park, Virajpet taluk, Kodagu, Karnataka, India",
            "latitude": "12.0600362",
            "locType": "national_park",
            "closest_to": "thirthahalli"
        },
        "bellary": {
            "blogLinks": [
                "https://en.wikipedia.org/wiki/Tourism_in_Karnataka"
            ],
            "longitude": "76.8323648",
            "address": "Bellary, Bellary district, Karnataka, India",
            "latitude": "15.2485413",
            "locType": "county",
            "closest_to": "thirthahalli"
        },
        "mrugavadhe": {
            "blogLinks": [
                "https://en.wikipedia.org/wiki/Shimoga_district"
            ],
            "longitude": "75.3895327",
            "address": "Mrugavadhe, Tirthahalli taluk, Shimoga district, Karnataka, India",
            "latitude": "13.6519388",
            "locType": "village",
            "closest_to": "thirthahalli"
        },
        "kanakapura": {
            "blogLinks": [
                "https://www.quora.com/What-are-the-best-places-to-visit-in-Karnataka-India"
            ],
            "longitude": "77.4199095",
            "address": "Kanakapura, Kanakapura taluk, Ramanagara district, Karnataka, 562117, India",
            "latitude": "12.5450268",
            "locType": "town",
            "closest_to": "thirthahalli"
        },
        "gol gumbaz": {
            "blogLinks": [
                "http://www.myhappyjourney.com/Bijapur"
            ],
            "longitude": "75.7360929",
            "address": "Gol Gumbaz, Station Road, Ibrahimpura, Vijayapura, Vijayapura taluk, Bijapur district, Karnataka, 586101, India",
            "latitude": "16.8300223",
            "locType": "attraction",
            "closest_to": "bijapur"
        },
        "varadaraja": {
            "blogLinks": [
                "https://en.wikipedia.org/wiki/Tourism_in_Karnataka"
            ],
            "longitude": "77.5542736",
            "address": "Varadaraja Petrol / Gas Station, Dr. Rajkumar Road, Rajajinagar 1st Block, Subrahmanya Nagar, Bengaluru, Bangalore Urban, Karnataka, 560001, India",
            "latitude": "13.005885",
            "locType": "fuel",
            "closest_to": "thirthahalli"
        },
        "chikkamagaluru district of karnataka": {
            "blogLinks": [
                "http://karnatakatour.info/category/best-tourist-places-in-karnataka/page/4/"
            ],
            "longitude": "75.6327382353719",
            "address": "Chikkamagaluru district, Karnataka, India",
            "latitude": "13.4005751",
            "locType": "administrative",
            "closest_to": "thirthahalli"
        },
        "hassan district": {
            "blogLinks": [
                "https://en.wikipedia.org/wiki/Tourism_in_Karnataka"
            ],
            "longitude": "76.1745460751981",
            "address": "Hassan district, Karnataka, India",
            "latitude": "13.0315068",
            "locType": "administrative",
            "closest_to": "thirthahalli"
        },
        "marikamba": {
            "blogLinks": [
                "https://en.wikipedia.org/wiki/Shimoga_district"
            ],
            "longitude": "74.8103631279317",
            "address": "Marikamba Temple, NH766C;SH26, Halkal, \u0c95\u0cc1\u0c82\u0ca6\u0cbe\u0caa\u0cc1\u0cb0 \u0ca4\u0cbe\u0cb2\u0cc2\u0c95\u0cc1, Udupi district, Karnataka, 576220, India",
            "latitude": "13.8626958",
            "locType": "place_of_worship",
            "closest_to": "thirthahalli"
        },
        "navule": {
            "blogLinks": [
                "https://en.wikipedia.org/wiki/Shimoga_district"
            ],
            "longitude": "75.575263",
            "address": "Navule, Shivamogga taluku, Shimoga district, Karnataka, India",
            "latitude": "13.9549729",
            "locType": "village",
            "closest_to": "thirthahalli"
        },
        "varada": {
            "blogLinks": [
                "https://en.wikipedia.org/wiki/Tourism_in_Karnataka"
            ],
            "longitude": "75.47206",
            "address": "Varada, Savanura taluk, Haveri district, Karnataka, India",
            "latitude": "14.8717792",
            "locType": "river",
            "closest_to": "thirthahalli"
        },
        "shravanabelagola": {
            "blogLinks": [
                "https://en.wikipedia.org/wiki/Tourism_in_Karnataka",
                "http://www.hoparoundindia.com/state-guides/karnataka.aspx"
            ],
            "longitude": "76.4869997",
            "address": "Shravanabelagola, Channarayapattana taluk, Hassan district, Karnataka, 573135, India",
            "latitude": "12.8581305",
            "locType": "town",
            "closest_to": "thirthahalli"
        },
        "' river sharavathi": {
            "blogLinks": [
                "https://en.wikipedia.org/wiki/Shimoga_district"
            ],
            "longitude": "77.5476521",
            "address": "Vrishabavathi, Bengaluru, Bangalore Urban, Karnataka, 560001, India",
            "latitude": "12.967526",
            "locType": "river",
            "closest_to": "thirthahalli"
        },
        "bellary road": {
            "blogLinks": [
                "https://www.quora.com/What-are-the-best-places-to-visit-in-Karnataka-India"
            ],
            "longitude": "77.5915237",
            "address": "Bellary Road, Kanaka Nagar, Hebbal, Bengaluru, Bangalore Urban, Karnataka, 560001, India",
            "latitude": "13.0465345",
            "locType": "trunk",
            "closest_to": "thirthahalli"
        },
        "kalasa": {
            "blogLinks": [
                "https://en.wikipedia.org/wiki/Tourism_in_Karnataka",
                "https://www.quora.com/What-are-the-best-places-to-visit-in-Karnataka-India"
            ],
            "longitude": "75.3582366",
            "address": "Kalasa, Mudigere taluk, Chikkamagaluru district, Karnataka, 577124, India",
            "latitude": "13.2322235",
            "locType": "town",
            "closest_to": "thirthahalli"
        },
        "kambadahalli": {
            "blogLinks": [
                "https://en.wikipedia.org/wiki/Tourism_in_Karnataka"
            ],
            "longitude": "77.1671918",
            "address": "Kambadahalli, Madhugiri taluk, Tumkur district, Karnataka, India",
            "latitude": "13.6843692",
            "locType": "village",
            "closest_to": "thirthahalli"
        },
        "ulsoor lake": {
            "blogLinks": [
                "http://www.mapsofindia.com/karnataka/tourism/"
            ],
            "longitude": "77.6191669052984",
            "address": "Halasuru lake, Annaswamy Mudaliar Road, Kothandram Layout, Halasuru, Bengaluru, Bangalore Urban, Karnataka, 560001, India",
            "latitude": "12.9823891",
            "locType": "water",
            "closest_to": "thirthahalli"
        },
        "talakaveri": {
            "blogLinks": [
                "http://www.holidaymonk.com/15-places-to-visit-in-karnataka/"
            ],
            "longitude": "75.4930074",
            "address": "Talakaveri, Madikeri taluku, Kodagu, Karnataka, India",
            "latitude": "12.3858456",
            "locType": "hamlet",
            "closest_to": "thirthahalli"
        },
        "bijapur": {
            "blogLinks": [
                "http://www.holidaymonk.com/15-places-to-visit-in-karnataka/",
                "https://en.wikipedia.org/wiki/Tourism_in_Karnataka",
                "http://www.holidayiq.com/Bijapur-Sightseeing-646.html",
                "https://www.travelblog.org/Asia/India/Karnataka/Bangalore/Koramangala/blog-914055.html",
                "http://www.hoparoundindia.com/state-guides/karnataka.aspx",
                "http://karnatakatour.info/category/best-tourist-places-in-karnataka/page/4/",
                "http://www.myhappyjourney.com/Bijapur"
            ],
            "longitude": "75.7175387",
            "address": "Vijayapura, Vijayapura taluk, Bijapur district, Karnataka, 586101, India",
            "latitude": "16.8269911",
            "locType": "city",
            "closest_to": "thirthahalli"
        },
        "southern india": {
            "blogLinks": [
                "https://www.tripoto.com/travel-guide/thirthahalli",
                "http://www.holidaymonk.com/15-places-to-visit-in-karnataka/"
            ],
            "longitude": "77.6227757667762",
            "address": "Survey Of India - Southern Zone, Madivala, Bengaluru, Bangalore Urban, Karnataka, 560001, India",
            "latitude": "12.92588785",
            "locType": "commercial",
            "closest_to": "thirthahalli"
        },
        "south karnataka": {
            "blogLinks": [
                "http://www.holidaymonk.com/15-places-to-visit-in-karnataka/",
                "https://en.wikipedia.org/wiki/Tourism_in_Karnataka"
            ],
            "longitude": "77.8040874",
            "address": "s, Vijayapura, Devanahalli taluk, Bangalore Rural, Karnataka, 562135, India",
            "latitude": "13.2942848",
            "locType": "residential",
            "closest_to": "thirthahalli"
        },
        "sringeri": {
            "blogLinks": [
                "http://www.nivalink.com/destination/thirthahalli",
                "https://www.quora.com/What-are-the-best-places-to-visit-in-Karnataka-India",
                "http://www.hoparoundindia.com/state-guides/karnataka.aspx"
            ],
            "longitude": "75.2553718",
            "address": "Sringeri, Sringeri taluku, Chikkamagaluru district, Karnataka, 577592, India",
            "latitude": "13.4261724",
            "locType": "town",
            "closest_to": "thirthahalli"
        },
        "chikkamagaluru": {
            "blogLinks": [
                "http://karnatakatour.info/category/best-tourist-places-in-karnataka/page/4/",
                "https://en.wikipedia.org/wiki/Shimoga_district"
            ],
            "longitude": "75.7738743",
            "address": "Chikkamagaluru, Chikkamagaluru taluku, Chikkamagaluru district, Karnataka, 577101, India",
            "latitude": "13.318014",
            "locType": "city",
            "closest_to": "thirthahalli"
        },
        "badami of karnataka": {
            "blogLinks": [
                "http://www.mapsofindia.com/karnataka/tourism/"
            ],
            "longitude": "75.6419100722642",
            "address": "Badami taluku, Bagalkote district, Karnataka, India",
            "latitude": "15.98301895",
            "locType": "administrative",
            "closest_to": "thirthahalli"
        },
        "irupu falls": {
            "blogLinks": [
                "https://en.wikipedia.org/wiki/Tourism_in_Karnataka"
            ],
            "longitude": "75.9839484",
            "address": "Iruppu Falls, SH89, Taila, Virajpet taluk, Kodagu, Karnataka, 571217, India",
            "latitude": "11.9667954",
            "locType": "attraction",
            "closest_to": "thirthahalli"
        },
        "mysore": {
            "blogLinks": [
                "https://www.quora.com/What-are-the-best-places-to-visit-in-Karnataka-India",
                "http://www.hoparoundindia.com/state-guides/karnataka.aspx"
            ],
            "longitude": "76.6553609",
            "address": "Mysuru, Mysuru taluk, Mysuru district, Karnataka, 570001, India",
            "latitude": "12.3051828",
            "locType": "city",
            "closest_to": "thirthahalli"
        },
        "nagareshwara": {
            "blogLinks": [
                "https://en.wikipedia.org/wiki/Tourism_in_Karnataka"
            ],
            "longitude": "77.3934679",
            "address": "Nagareshwara Temple, SH126, Dantapur, Yadagiri taluku, Yadagiri district, Karnataka, India",
            "latitude": "16.8662525",
            "locType": "place_of_worship",
            "closest_to": "bijapur"
        },
        "hosanagar": {
            "blogLinks": [
                "https://en.wikipedia.org/wiki/Shimoga_district"
            ],
            "longitude": "75.0631116",
            "address": "Hosanagar Santhe Market, Nehru Road, Kaluru, Hosanagara taluk, Shimoga district, Karnataka, 577418, India",
            "latitude": "13.9166601",
            "locType": "marketplace",
            "closest_to": "thirthahalli"
        },
        "anshi national park": {
            "blogLinks": [
                "https://en.wikipedia.org/wiki/Tourism_in_Karnataka"
            ],
            "longitude": "74.3934408094182",
            "address": "Anshi National Park, SH46, Bidoli, Joida taluk, Uttara Kannada, Karnataka, India",
            "latitude": "14.9994424",
            "locType": "national_park",
            "closest_to": "thirthahalli"
        },
        "anegundi": {
            "blogLinks": [
                "https://en.wikipedia.org/wiki/Tourism_in_Karnataka"
            ],
            "longitude": "76.4924232",
            "address": "Anegundi, Gangavati taluku, Koppal district, Karnataka, India",
            "latitude": "15.3509583",
            "locType": "village",
            "closest_to": "thirthahalli"
        },
        "tumkur": {
            "blogLinks": [
                "https://en.wikipedia.org/wiki/Tourism_in_Karnataka"
            ],
            "longitude": "77.0002445",
            "address": "Tumakuru, Tumkur district, Karnataka, India",
            "latitude": "13.4999406",
            "locType": "county",
            "closest_to": "thirthahalli"
        },
        "hebbe falls": {
            "blogLinks": [
                "https://en.wikipedia.org/wiki/Tourism_in_Karnataka"
            ],
            "longitude": "75.7253701",
            "address": "Hebbe falls, Kemmannagundi Road, Attigundi, Chikkamagaluru taluku, Chikkamagaluru district, Karnataka, India",
            "latitude": "13.5414025",
            "locType": "attraction",
            "closest_to": "thirthahalli"
        },
        "beluru": {
            "blogLinks": [
                "https://en.wikipedia.org/wiki/Tourism_in_Karnataka"
            ],
            "longitude": "75.8634851",
            "address": "Belur, Beluru taluk, Hassan district, Karnataka, 573115, India",
            "latitude": "13.1645671",
            "locType": "town",
            "closest_to": "thirthahalli"
        },
        "bankapura": {
            "blogLinks": [
                "https://en.wikipedia.org/wiki/Tourism_in_Karnataka"
            ],
            "longitude": "75.2639298",
            "address": "Bankapura, Shiggaon taluk, Haveri district, Karnataka, 581202, India",
            "latitude": "14.9217443",
            "locType": "town",
            "closest_to": "thirthahalli"
        },
        "tirupati": {
            "blogLinks": [
                "https://www.quora.com/What-are-the-best-places-to-visit-in-Karnataka-India"
            ],
            "longitude": "76.2727455",
            "address": "Malekallu Tirupathi, Arasikere taluku, Hassan district, Karnataka, India",
            "latitude": "13.3289007",
            "locType": "village",
            "closest_to": "thirthahalli"
        },
        "udupi hotel": {
            "blogLinks": [
                "https://www.travelblog.org/Asia/India/Karnataka/Bangalore/Koramangala/blog-914055.html"
            ],
            "longitude": "74.8346487",
            "address": "Udupi Hotel, Nataraj Raod, Sirsi, Shirasi taluk, Uttara Kannada, Karnataka, 581400, India",
            "latitude": "14.6157772",
            "locType": "hotel",
            "closest_to": "thirthahalli"
        },
        "japanese garden": {
            "blogLinks": [
                "https://www.tripoto.com/weekend-getaways/from-thirthahalli"
            ],
            "longitude": "77.6055915",
            "address": "Hae Kum Gang (Korean/Japanese), 20, Castle Street, Shantala Nagar, Ashok Nagar, Bengaluru, Bangalore Urban, Karnataka, 560001, India",
            "latitude": "12.9655328",
            "locType": "restaurant",
            "closest_to": "thirthahalli"
        },
        "tungabhadra": {
            "blogLinks": [
                "https://en.wikipedia.org/wiki/Tourism_in_Karnataka",
                "https://en.wikipedia.org/wiki/Shimoga_district",
                "http://www.nivalink.com/destination/hospet"
            ],
            "longitude": "76.4931607",
            "address": "Tungabhadra, Gangavati taluku, Koppal district, Karnataka, India",
            "latitude": "15.3446123",
            "locType": "river",
            "closest_to": "thirthahalli"
        },
        "aihole": {
            "blogLinks": [
                "https://en.wikipedia.org/wiki/Tourism_in_Karnataka",
                "http://www.hoparoundindia.com/state-guides/karnataka.aspx",
                "https://www.travelblog.org/Asia/India/Karnataka/Bangalore/Koramangala/blog-914055.html"
            ],
            "longitude": "75.8819129",
            "address": "Aihole, Hunagunda taluku, Bagalkote district, Karnataka, India",
            "latitude": "16.0192298",
            "locType": "village",
            "closest_to": "thirthahalli"
        },
        "koodli": {
            "blogLinks": [
                "https://en.wikipedia.org/wiki/Shimoga_district"
            ],
            "longitude": "74.7671",
            "address": "Koodli Road, Yadtadi, Udupi taluku, Udupi district, Karnataka, India",
            "latitude": "13.4868433",
            "locType": "tertiary",
            "closest_to": "thirthahalli"
        },
        "hosagadde": {
            "blogLinks": [
                "https://en.wikipedia.org/wiki/Shimoga_district"
            ],
            "longitude": "74.7527463",
            "address": "Hosagadde, Kelaginamane, Siddapura taluk, Uttara Kannada, Karnataka, India",
            "latitude": "14.3274092",
            "locType": "locality",
            "closest_to": "thirthahalli"
        },
        "kanaganahalli": {
            "blogLinks": [
                "https://en.wikipedia.org/wiki/Tourism_in_Karnataka"
            ],
            "longitude": "76.5876958",
            "address": "Kanaganahalli, Pandavapura taluk, Mandya district, Karnataka, India",
            "latitude": "12.5588444",
            "locType": "village",
            "closest_to": "thirthahalli"
        },
        "cubbon park": {
            "blogLinks": [
                "https://www.quora.com/What-are-the-best-places-to-visit-in-Karnataka-India",
                "http://www.mapsofindia.com/karnataka/tourism/"
            ],
            "longitude": "77.5977565",
            "address": "Cubbon Park, Cubbon Road, Tasker Town, Shivajinagar, Bengaluru, Bangalore Urban, Karnataka, 560001, India",
            "latitude": "12.9808487",
            "locType": "station",
            "closest_to": "thirthahalli"
        },
        "mangalore": {
            "blogLinks": [
                "https://en.wikipedia.org/wiki/Tourism_in_Karnataka",
                "https://www.quora.com/What-are-the-best-places-to-visit-in-Karnataka-India",
                "http://www.mapsofindia.com/karnataka/tourism/"
            ],
            "longitude": "74.8430082",
            "address": "Mangaluru, Mangaluru taluk, Dakshina Kannada, Karnataka, 575001, India",
            "latitude": "12.8698101",
            "locType": "city",
            "closest_to": "thirthahalli"
        },
        "anantapur district": {
            "blogLinks": [
                "https://www.quora.com/What-are-the-best-places-to-visit-in-Karnataka-India"
            ],
            "longitude": "77.7596024",
            "address": "RTO Karnataka, Srinagar - Kanyakumari Highway, Paragodu, Bagepalli taluk, Chikkaballapura district, Karnataka, 561207, India",
            "latitude": "13.7972948",
            "locType": "yes",
            "closest_to": "thirthahalli"
        },
        "kurnool": {
            "blogLinks": [
                "http://www.nivalink.com/destination/hospet"
            ],
            "longitude": "77.4217916",
            "address": "Karnataka Guest House, Jadcherla - Hagari Road, Kurnool, Andhra Pradesh, India",
            "latitude": "15.9394081",
            "locType": "hotel",
            "closest_to": "thirthahalli"
        },
        "prabhudeva": {
            "blogLinks": [
                "https://en.wikipedia.org/wiki/Shimoga_district"
            ],
            "longitude": "76.6669578",
            "address": "Sri Prabhudeva Service Station, Bangalore-Mysore Road, Mayannana Koppalu, Srirangapattana taluk, Mandya district, Karnataka, 571438, India",
            "latitude": "12.3927526",
            "locType": "fuel",
            "closest_to": "thirthahalli"
        },
        "kanakapura taluk": {
            "blogLinks": [
                "https://www.quora.com/What-are-the-best-places-to-visit-in-Karnataka-India"
            ],
            "longitude": "77.4224204245398",
            "address": "Kanakapura taluk, Ramanagara district, Karnataka, India",
            "latitude": "12.5199223",
            "locType": "administrative",
            "closest_to": "thirthahalli"
        },
        "kodagu": {
            "blogLinks": [
                "http://www.holidaymonk.com/15-places-to-visit-in-karnataka/",
                "https://en.wikipedia.org/wiki/Tourism_in_Karnataka",
                "https://www.quora.com/What-are-the-best-places-to-visit-in-Karnataka-India",
                "http://www.mapsofindia.com/karnataka/tourism/"
            ],
            "longitude": "75.6677235950852",
            "address": "Kodagu, Karnataka, India",
            "latitude": "12.38117345",
            "locType": "administrative",
            "closest_to": "thirthahalli"
        },
        "halebidu": {
            "blogLinks": [
                "https://en.wikipedia.org/wiki/Tourism_in_Karnataka",
                "http://www.hoparoundindia.com/state-guides/karnataka.aspx"
            ],
            "longitude": "76.4607075",
            "address": "Halebidu, Hunasuru taluk, Mysuru district, Karnataka, India",
            "latitude": "12.359893",
            "locType": "village",
            "closest_to": "thirthahalli"
        },
        "river sharavathi": {
            "blogLinks": [
                "http://www.holidaymonk.com/15-places-to-visit-in-karnataka/"
            ],
            "longitude": "77.5476521",
            "address": "Vrishabavathi, Bengaluru, Bangalore Urban, Karnataka, 560001, India",
            "latitude": "12.967526",
            "locType": "river",
            "closest_to": "thirthahalli"
        },
        "bijapur district": {
            "blogLinks": [
                "http://karnatakatour.info/category/best-tourist-places-in-karnataka/page/4/",
                "http://www.holidayiq.com/Bijapur-Sightseeing-646.html",
                "http://www.nivalink.com/destination/thirthahalli"
            ],
            "longitude": "75.897147327785",
            "address": "Bijapur district, Karnataka, India",
            "latitude": "16.81105965",
            "locType": "administrative",
            "closest_to": "bijapur"
        },
        "channagiri": {
            "blogLinks": [
                "https://en.wikipedia.org/wiki/Shimoga_district"
            ],
            "longitude": "75.925",
            "address": "Channagiri, Channagiri taluku, Davanagere district, Karnataka, 577213, India",
            "latitude": "14.0252",
            "locType": "town",
            "closest_to": "thirthahalli"
        },
        "bagalkot": {
            "blogLinks": [
                "https://www.quora.com/What-are-the-best-places-to-visit-in-Karnataka-India"
            ],
            "longitude": "75.6967919",
            "address": "Bagalakote, Bagalakote taluk, Bagalkote district, Karnataka, India",
            "latitude": "16.1853166",
            "locType": "city",
            "closest_to": "thirthahalli"
        },
        "manchanabele": {
            "blogLinks": [
                "https://www.quora.com/What-are-the-best-places-to-visit-in-Karnataka-India"
            ],
            "longitude": "77.3344212",
            "address": "Manchanabele, Magadi taluku, Ramanagara district, Karnataka, India",
            "latitude": "12.8668921",
            "locType": "village",
            "closest_to": "thirthahalli"
        },
        "sagara": {
            "blogLinks": [
                "https://en.wikipedia.org/wiki/Tourism_in_Karnataka"
            ],
            "longitude": "75.0262551",
            "address": "Sagara, Sagara taluk, Shimoga district, Karnataka, 577400, India",
            "latitude": "14.1666594",
            "locType": "town",
            "closest_to": "thirthahalli"
        },
        "chennakesava temple": {
            "blogLinks": [
                "http://www.mapsofindia.com/karnataka/tourism/"
            ],
            "longitude": "75.8603311",
            "address": "Chennakesava Temple, NH73, Navilahalli, Beluru taluk, Hassan district, Karnataka, India",
            "latitude": "13.1629239",
            "locType": "place_of_worship",
            "closest_to": "thirthahalli"
        },
        "bangalore bangalore": {
            "blogLinks": [
                "https://www.quora.com/What-are-the-best-places-to-visit-in-Karnataka-India"
            ],
            "longitude": "77.5912997",
            "address": "Bengaluru, Bangalore Urban, Karnataka, 560001, India",
            "latitude": "12.9791198",
            "locType": "city",
            "closest_to": "thirthahalli"
        },
        "kanakapura road": {
            "blogLinks": [
                "https://en.wikipedia.org/wiki/Tourism_in_Karnataka"
            ],
            "longitude": "77.5733483",
            "address": "Kanakapura Road, Rajotsava Nagar, Kaderenahalli, Bengaluru, Bangalore Urban, Karnataka, 560001, India",
            "latitude": "12.9064528",
            "locType": "trunk",
            "closest_to": "thirthahalli"
        },
        "hubli": {
            "blogLinks": [
                "https://en.wikipedia.org/wiki/Tourism_in_Karnataka",
                "http://www.nivalink.com/destination/hospet",
                "http://www.nivalink.com/destination/thirthahalli"
            ],
            "longitude": "75.1379848",
            "address": "Hubballi - \u0cb9\u0cc1\u0cac\u0ccd\u0cac\u0cb3\u0ccd\u0cb3\u0cbf, Hubballi taluku, Dharwad district, Karnataka, 580020, India",
            "latitude": "15.3518378",
            "locType": "city",
            "closest_to": "thirthahalli"
        },
        "gangavati": {
            "blogLinks": [
                "https://en.wikipedia.org/wiki/Shimoga_district"
            ],
            "longitude": "76.558686294086",
            "address": "Gangavati taluku, Koppal district, Karnataka, India",
            "latitude": "15.52741825",
            "locType": "administrative",
            "closest_to": "thirthahalli"
        },
        "karwar karwar": {
            "blogLinks": [
                "http://www.holidaymonk.com/15-places-to-visit-in-karnataka/"
            ],
            "longitude": "74.1319229",
            "address": "Karwar, Karavara taluk, Uttara Kannada, Karnataka, 581300, India",
            "latitude": "14.8120931",
            "locType": "town",
            "closest_to": "thirthahalli"
        },
        "hassan": {
            "blogLinks": [
                "http://www.holidaymonk.com/15-places-to-visit-in-karnataka/",
                "https://en.wikipedia.org/wiki/Tourism_in_Karnataka",
                "https://www.quora.com/What-are-the-best-places-to-visit-in-Karnataka-India"
            ],
            "longitude": "76.0992703",
            "address": "Hassan, Hasana taluk, Hassan district, Karnataka, 573201, India",
            "latitude": "13.0070817",
            "locType": "town",
            "closest_to": "thirthahalli"
        },
        "venkataramana": {
            "blogLinks": [
                "https://en.wikipedia.org/wiki/Shimoga_district"
            ],
            "longitude": "76.6254678",
            "address": "P. Venkataramana Road, Kuvempunagara, Mysuru, Mysuru taluk, Mysuru district, Karnataka, 570001, India",
            "latitude": "12.2823847",
            "locType": "tertiary",
            "closest_to": "thirthahalli"
        },
        "hyderabad": {
            "blogLinks": [
                "http://www.nivalink.com/destination/hospet"
            ],
            "longitude": "77.5344002",
            "address": "Hyderabad Road, Old City, Bidar, Bidar taluku, Bidar district, Karnataka, 585400, India",
            "latitude": "17.9003114",
            "locType": "primary",
            "closest_to": "bijapur"
        },
        "varur": {
            "blogLinks": [
                "https://en.wikipedia.org/wiki/Tourism_in_Karnataka"
            ],
            "longitude": "75.1387568",
            "address": "Varur, Hubballi taluku, Dharwad district, Karnataka, India",
            "latitude": "15.2077105",
            "locType": "village",
            "closest_to": "thirthahalli"
        },
        "sri krishna temple": {
            "blogLinks": [
                "http://www.hoparoundindia.com/state-guides/karnataka.aspx"
            ],
            "longitude": "77.6437236",
            "address": "Sri Krishna Temple Road, Old Binnamangala, Hoysala Nagar, Bengaluru, Bangalore Urban, Karnataka, 560001, India",
            "latitude": "12.9791699",
            "locType": "unclassified",
            "closest_to": "thirthahalli"
        },
        "unchalli falls": {
            "blogLinks": [
                "https://en.wikipedia.org/wiki/Tourism_in_Karnataka"
            ],
            "longitude": "74.7477592",
            "address": "\u0c89\u0c82\u0c9a\u0cb3\u0ccd\u0cb3\u0cbf \u0c9c\u0cb2\u0caa\u0cbe\u0ca4, Siddapura taluk, Uttara Kannada, Karnataka, India",
            "latitude": "14.4097755",
            "locType": "waterfall",
            "closest_to": "thirthahalli"
        },
        "magadi": {
            "blogLinks": [
                "https://www.quora.com/What-are-the-best-places-to-visit-in-Karnataka-India"
            ],
            "longitude": "77.2242281",
            "address": "Magadi, Magadi taluku, Ramanagara district, Karnataka, 562120, India",
            "latitude": "12.9567353",
            "locType": "town",
            "closest_to": "thirthahalli"
        },
        "shimoga district": {
            "blogLinks": [
                "https://en.wikipedia.org/wiki/Tourism_in_Karnataka"
            ],
            "longitude": "75.1312533993886",
            "address": "Shimoga district, Karnataka, India",
            "latitude": "14.0558284",
            "locType": "administrative",
            "closest_to": "thirthahalli"
        },
        "sagara taluk": {
            "blogLinks": [
                "https://en.wikipedia.org/wiki/Tourism_in_Karnataka"
            ],
            "longitude": "74.9610874491152",
            "address": "Sagara taluk, Shimoga district, Karnataka, India",
            "latitude": "14.09993045",
            "locType": "administrative",
            "closest_to": "thirthahalli"
        },
        "bankpur fort": {
            "blogLinks": [
                "https://en.wikipedia.org/wiki/Tourism_in_Karnataka"
            ],
            "longitude": "75.2512090188504",
            "address": "Bankapura Fort, SH137, Guddada Channapura, Shiggaon taluk, Haveri district, Karnataka, 581202, India",
            "latitude": "14.9231815",
            "locType": "archaeological_site",
            "closest_to": "thirthahalli"
        },