{
    "mysore": {
        "lat": "12.3051828",
        "class": "place",
        "importance": 0.6487665495944,
        "osm_type": "node",
        "lon": "76.6553609",
        "place_id": "20900757",
        "display_name": "Mysuru, Mysuru taluk, Mysuru district, Karnataka, 570001, India",
        "osm_id": "2068274800",
        "boundingbox": [
            "12.1451828",
            "12.4651828",
            "76.4953609",
            "76.8153609"
        ],
        "type": "city",
        "licence": "Data \u00a9 OpenStreetMap contributors, ODbL 1.0. http://www.openstreetmap.org/copyright",
        "icon": "https://nominatim.openstreetmap.org/images/mapicons/poi_place_city.p.20.png"
    },
    "mentions": {
        "ranganathittu bird sanctuary": {
            "blogLinks": [
                "http://www.holidayiq.com/Mysore-Sightseeing-472.html",
                "https://www.yatra.com/india-tourism/karnataka"
            ],
            "longitude": "76.6553081",
            "address": "Ranganathittu Bird Sanctuary, SH154, Palahalli, Srirangapattana taluk, Mandya district, Karnataka, 571438, India",
            "latitude": "12.4238524",
            "locType": "attraction",
            "closest_to": "mysore"
        },
        "river kaveri": {
            "blogLinks": [
                "http://www.holidayiq.com/Mysore-Sightseeing-472.html"
            ],
            "longitude": "77.0635531",
            "address": "Kaveri, Kollegala taluk, Chamarajanagar district, Karnataka, India",
            "latitude": "12.1687878",
            "locType": "river",
            "closest_to": "mysore"
        },
        "sharadamba": {
            "blogLinks": [
                "https://www.quora.com/What-are-the-best-places-to-visit-on-a-3-day-trip-in-and-around-Karnataka"
            ],
            "longitude": "77.5656194",
            "address": "Sharadamba Temple, 7th Main Road, Yediyur, Thyagaraja Nagar, Bengaluru, Bangalore Urban, Karnataka, 560001, India",
            "latitude": "12.9321898",
            "locType": "place_of_worship",
            "closest_to": "mysore"
        },
        "chamundeshwari temple": {
            "blogLinks": [
                "http://www.holidayiq.com/Mysore-Sightseeing-472.html"
            ],
            "longitude": "77.5793319839087",
            "address": "Chamundeshwari Temple, Nagarathpet Main Road, Ganigarpet, Chickpet, Bengaluru, Bangalore Urban, Karnataka, 560001, India",
            "latitude": "12.96746475",
            "locType": "place_of_worship",
            "closest_to": "mysore"
        },
        "mahadeshwara": {
            "blogLinks": [
                "https://www.quora.com/What-are-the-best-places-to-visit-on-a-3-day-trip-in-and-around-Karnataka"
            ],
            "longitude": "77.6123722",
            "address": "Mahadeshwara Nagara, BTM Layout, Bengaluru, Bangalore Urban, Karnataka, 560001, India",
            "latitude": "12.9076689",
            "locType": "neighbourhood",
            "closest_to": "mysore"
        },
        "kalyani": {
            "blogLinks": [
                "https://www.tripoto.com/trip/bijapur-5676f193761ee",
                "http://samharshbangalore.blogspot.com/2012/10/travelling-by-road-from-bangalore-to.html"
            ],
            "longitude": "77.6286090192686",
            "address": "Kalyani, Neeladri Road, Electronics City Phase 1, Bettadasana Pura, Bangalore Urban, Karnataka, 560100, India",
            "latitude": "12.8406466",
            "locType": "water",
            "closest_to": "mysore"
        },
        "kodagu district": {
            "blogLinks": [
                "https://en.wikipedia.org/wiki/Mysore_district"
            ],
            "longitude": "75.7412148",
            "address": "Kodagu, Karnataka, India",
            "latitude": "12.2519249",
            "locType": "county",
            "closest_to": "mysore"
        },
        "karanji lake": {
            "blogLinks": [
                "https://www.quora.com/What-are-the-best-places-to-visit-on-a-3-day-trip-in-and-around-Karnataka",
                "http://blog.indianluxurytrains.com/2014/09/best-places-to-visit-in-karnataka.html"
            ],
            "longitude": "77.5474867",
            "address": "Karanji, Aurad taluku, Bidar district, Karnataka, India",
            "latitude": "18.2681849",
            "locType": "village",
            "closest_to": "bijapur"
        },
        "chennai": {
            "blogLinks": [
                "http://www.godakshin.com/travel-guides/4-exciting-places-visit-around-bangalore-732.html",
                "https://en.wikipedia.org/wiki/Mysore_district"
            ],
            "longitude": "80.2197941",
            "address": "Karnataka Bank, Postal Colony 2nd Street, Postal Colony, Ashok Nagar, Chennai City Corporation Limits, Chennai district, Tamil Nadu, 600033, India",
            "latitude": "13.0365141",
            "locType": "bank",
            "closest_to": "mysore"
        },
        "tamil nadu": {
            "blogLinks": [
                "https://www.quora.com/What-are-the-best-places-to-visit-on-a-3-day-trip-in-and-around-Karnataka",
                "https://www.yatra.com/india-tourism/karnataka"
            ],
            "longitude": "76.9514152",
            "address": "KARNATAKA BANK, Diwan Bhadur Road, Five Corner, RS Puram, Coimbatore, Coimbatore district, Tamil Nadu, 641001, India",
            "latitude": "11.0025894",
            "locType": "bank",
            "closest_to": "mysore"
        },
        "mm hills": {
            "blogLinks": [
                "http://samharshbangalore.blogspot.com/2012/10/travelling-by-road-from-bangalore-to.html"
            ],
            "longitude": "77.5892977",
            "address": "Male Mahadeswara Betta, Kollegala taluk, Chamarajanagar district, Karnataka, India",
            "latitude": "12.0333126",
            "locType": "village",
            "closest_to": "mysore"
        },
        "mullayanagiri": {
            "blogLinks": [
                "https://www.quora.com/What-are-the-best-places-to-visit-on-a-3-day-trip-in-and-around-Karnataka"
            ],
            "longitude": "75.7214034",
            "address": "Mullayyanagiri, Chikkamagaluru, Chikkamagaluru taluku, Chikkamagaluru district, Karnataka, 577101, India",
            "latitude": "13.3909217",
            "locType": "peak",
            "closest_to": "mysore"
        },
        "kodachadri": {
            "blogLinks": [
                "https://www.quora.com/What-are-the-best-places-to-visit-on-a-3-day-trip-in-and-around-Karnataka"
            ],
            "longitude": "74.8705395",
            "address": "Kodachadri, \u0c95\u0cc1\u0c82\u0ca6\u0cbe\u0caa\u0cc1\u0cb0 \u0ca4\u0cbe\u0cb2\u0cc2\u0c95\u0cc1, Udupi district, Karnataka, India",
            "latitude": "13.8565758",
            "locType": "peak",
            "closest_to": "mysore"
        },
        "kudremukh national park": {
            "blogLinks": [
                "https://www.quora.com/What-are-the-best-places-to-visit-on-a-3-day-trip-in-and-around-Karnataka"
            ],
            "longitude": "75.1828713712862",
            "address": "Kudremukh National Park, SH66, Sringeri taluku, Chikkamagaluru district, Karnataka, India",
            "latitude": "13.25397485",
            "locType": "national_park",
            "closest_to": "mysore"
        },
        "ajanta": {
            "blogLinks": [
                "http://www.team-bhp.com/forum/route-travel-queries/77373-route-enquiry-bangalore-hampi-bijapur-shirdi-tadoba-hyderabad-bangalore.html"
            ],
            "longitude": "77.6289872",
            "address": "Ajanta, Banaswadi Road, MSO Colony, Cooke Town, Bengaluru, Bangalore Urban, Karnataka, 560001, India",
            "latitude": "13.0014203",
            "locType": "clothes",
            "closest_to": "mysore"
        },
        "dubai": {
            "blogLinks": [
                "https://www.yatra.com/india-tourism/karnataka"
            ],
            "longitude": "77.6067717",
            "address": "Dubai Plaza, Rest House Road, Shantala Nagar, Ashok Nagar, Bengaluru, Bangalore Urban, Karnataka, 560001, India",
            "latitude": "12.9737065",
            "locType": "gift",
            "closest_to": "mysore"
        },
        "bangalore-chennai": {
            "blogLinks": [
                "http://www.godakshin.com/travel-guides/4-exciting-places-visit-around-bangalore-732.html"
            ],
            "longitude": "78.3144556",
            "address": "Bangalore Chennai Road, Bimapura, Mulubagilu taluk, Kolar district, Karnataka, 563131, India",
            "latitude": "13.1522603",
            "locType": "trunk",
            "closest_to": "mysore"
        },
        "bengaluru": {
            "blogLinks": [
                "https://www.quora.com/What-are-the-best-places-to-visit-on-a-3-day-trip-in-and-around-Karnataka",
                "http://blog.indianluxurytrains.com/2014/09/best-places-to-visit-in-karnataka.html"
            ],
            "longitude": "77.5912997",
            "address": "Bengaluru, Bangalore Urban, Karnataka, 560001, India",
            "latitude": "12.9791198",
            "locType": "city",
            "closest_to": "mysore"
        },
        "chelavara falls": {
            "blogLinks": [
                "http://blog.indianluxurytrains.com/2014/09/best-places-to-visit-in-karnataka.html"
            ],
            "longitude": "75.6734811730693",
            "address": "Chelavara Falls, Madikeri taluku, Kodagu, Karnataka, India",
            "latitude": "12.20601005",
            "locType": "waterfall",
            "closest_to": "mysore"
        },
        "sathanur": {
            "blogLinks": [
                "http://samharshbangalore.blogspot.com/2012/10/travelling-by-road-from-bangalore-to.html"
            ],
            "longitude": "77.6464992",
            "address": "Sathanur Colony, Bagalur Road, Vidyanagar, Satanuru, Bangalore Urban, Karnataka, 562134, India",
            "latitude": "13.1278826",
            "locType": "bus_stop",
            "closest_to": "mysore"
        },
        "gangavadi": {
            "blogLinks": [
                "https://en.wikipedia.org/wiki/Mysore_district"
            ],
            "longitude": "77.0659307",
            "address": "Gangavadi, Chamarajanagara taluk, Chamarajanagar district, Karnataka, India",
            "latitude": "12.0014487",
            "locType": "village",
            "closest_to": "mysore"
        },
        "dakshina kannada": {
            "blogLinks": [
                "https://www.quora.com/What-are-the-best-places-to-visit-on-a-3-day-trip-in-and-around-Karnataka"
            ],
            "longitude": "75.1008028650794",
            "address": "Dakshina Kannada, Karnataka, India",
            "latitude": "12.8114089",
            "locType": "administrative",
            "closest_to": "mysore"
        },
        "bowring hospital": {
            "blogLinks": [
                "https://en.wikipedia.org/wiki/Mysore_district"
            ],
            "longitude": "77.6053792",
            "address": "Bowring Hospital Road, Tasker Town, Shivajinagar, Bengaluru, Bangalore Urban, Karnataka, 560001, India",
            "latitude": "12.9815575",
            "locType": "unclassified",
            "closest_to": "mysore"
        },
        "shirdi": {
            "blogLinks": [
                "http://www.team-bhp.com/forum/route-travel-queries/77373-route-enquiry-bangalore-hampi-bijapur-shirdi-tadoba-hyderabad-bangalore.html"
            ],
            "longitude": "75.1271532",
            "address": "Shirdi Saibaba Temple, Nrupathunga Betta Road, Shakti Colony, Vishweshwara Nagar, Hubballi - \u0cb9\u0cc1\u0cac\u0ccd\u0cac\u0cb3\u0ccd\u0cb3\u0cbf, Hubballi taluku, Dharwad district, Karnataka, 580020, India",
            "latitude": "15.3748524",
            "locType": "place_of_worship",
            "closest_to": "mysore"
        },
        "ulsoor lake": {
            "blogLinks": [
                "http://www.mapsofindia.com/karnataka/tourism/"
            ],
            "longitude": "77.6191669052984",
            "address": "Halasuru lake, Annaswamy Mudaliar Road, Kothandram Layout, Halasuru, Bengaluru, Bangalore Urban, Karnataka, 560001, India",
            "latitude": "12.9823891",
            "locType": "water",
            "closest_to": "mysore"
        },
        "india karnataka": {
            "blogLinks": [
                "https://www.quora.com/What-are-the-best-places-to-visit-on-a-3-day-trip-in-and-around-Karnataka"
            ],
            "longitude": "76.6639936",
            "address": "Karnataka, Shalivahana Road, Nazarbad, Mysuru, Mysuru taluk, Mysuru district, Karnataka, 570001, India",
            "latitude": "12.3084901",
            "locType": "atm",
            "closest_to": "mysore"
        },
        "vittala": {
            "blogLinks": [
                "http://blog.indianluxurytrains.com/2014/09/best-places-to-visit-in-karnataka.html"
            ],
            "longitude": "76.6237847175927",
            "address": "Vijaya Vittala PU College, Sahukar Chennaiah Road, Sarasvatipuram, Mysuru, Mysuru taluk, Mysuru district, Karnataka, 570001, India",
            "latitude": "12.30129655",
            "locType": "yes",
            "closest_to": "mysore"
        },
        "kabini": {
            "blogLinks": [
                "https://en.wikipedia.org/wiki/Mysore_district"
            ],
            "longitude": "76.4152088",
            "address": "Kabini, Heggadadevanakote taluk, Mysuru district, Karnataka, India",
            "latitude": "12.0140065",
            "locType": "river",
            "closest_to": "mysore"
        },
        "ooty": {
            "blogLinks": [
                "https://www.quora.com/What-are-the-best-places-to-visit-on-a-3-day-trip-in-and-around-Karnataka",
                "http://www.holidayiq.com/Mysore-Sightseeing-472.html"
            ],
            "longitude": "76.6586807",
            "address": "Ooty Road, Vidyaranyapuram, Mysuru, Mysuru taluk, Mysuru district, Karnataka, 570001, India",
            "latitude": "12.2774807",
            "locType": "primary",
            "closest_to": "mysore"
        },
        "mookambika": {
            "blogLinks": [
                "https://www.quora.com/What-are-the-best-places-to-visit-on-a-3-day-trip-in-and-around-Karnataka"
            ],
            "longitude": "74.8145296",
            "address": "Mukambika Devasthana, NH766C;SH26, Halkal, \u0c95\u0cc1\u0c82\u0ca6\u0cbe\u0caa\u0cc1\u0cb0 \u0ca4\u0cbe\u0cb2\u0cc2\u0c95\u0cc1, Udupi district, Karnataka, 576220, India",
            "latitude": "13.8638043",
            "locType": "place_of_worship",
            "closest_to": "mysore"
        },
        "manipal": {
            "blogLinks": [
                "http://www.mapsofindia.com/karnataka/tourism/"
            ],
            "longitude": "74.7870308",
            "address": "Manipal, Udupi taluku, Udupi district, Karnataka, India",
            "latitude": "13.3519723",
            "locType": "town",
            "closest_to": "mysore"
        },
        "kannada": {
            "blogLinks": [
                "https://www.quora.com/What-are-the-best-places-to-visit-on-a-3-day-trip-in-and-around-Karnataka",
                "http://wildplanetresort.com/blog/2016/03/top-11-places-to-visit-in-karnataka/"
            ],
            "longitude": "75.1008028650794",
            "address": "Dakshina Kannada, Karnataka, India",
            "latitude": "12.8114089",
            "locType": "administrative",
            "closest_to": "mysore"
        },
        "chamundi hill": {
            "blogLinks": [
                "https://www.quora.com/What-are-the-best-places-to-visit-on-a-3-day-trip-in-and-around-Karnataka",
                "https://en.wikipedia.org/wiki/Mysore_district"
            ],
            "longitude": "76.6703937",
            "address": "Chamundi Hill, Mysuru, Mysuru taluk, Mysuru district, Karnataka, 570001, India",
            "latitude": "12.2724017",
            "locType": "peak",
            "closest_to": "mysore"
        },
        "raghavendra swamy": {
            "blogLinks": [
                "http://samharshbangalore.blogspot.com/2012/10/travelling-by-road-from-bangalore-to.html"
            ],
            "longitude": "77.563636",
            "address": "Banashankari Raghavendra Swamy Mutt, 24th Main Road, Yediyur, Banashankari 2nd Stage, Bengaluru, Bangalore Urban, Karnataka, 560001, India",
            "latitude": "12.9276061",
            "locType": "place_of_worship",
            "closest_to": "mysore"
        },
        "gokak": {
            "blogLinks": [
                "https://www.quora.com/What-are-the-best-places-to-visit-on-a-3-day-trip-in-and-around-Karnataka"
            ],
            "longitude": "74.8224338",
            "address": "Gokak, Gokak taluku, Belgaum district, Karnataka, 591307, India",
            "latitude": "16.1693033",
            "locType": "town",
            "closest_to": "mysore"
        },
        "gadag": {
            "blogLinks": [
                "http://samharshbangalore.blogspot.com/2012/10/travelling-by-road-from-bangalore-to.html"
            ],
            "longitude": "75.6300786",
            "address": "Gadag, Gadag taluk, Gadag district, Karnataka, 582101, India",
            "latitude": "15.4263647",
            "locType": "town",
            "closest_to": "mysore"
        },
        "nagarhole national park": {
            "blogLinks": [
                "http://journeymart.com/de/india/karnataka/sightseeing/default.aspx",
                "https://www.quora.com/What-are-the-best-places-to-visit-on-a-3-day-trip-in-and-around-Karnataka",
                "http://blog.indianluxurytrains.com/2014/09/best-places-to-visit-in-karnataka.html"
            ],
            "longitude": "76.1537073415874",
            "address": "Nagarahole National Park, Virajpet taluk, Kodagu, Karnataka, India",
            "latitude": "12.0600362",
            "locType": "national_park",
            "closest_to": "mysore"
        },
        "hoysala": {
            "blogLinks": [
                "https://www.quora.com/What-are-the-best-places-to-visit-on-a-3-day-trip-in-and-around-Karnataka",
                "https://en.wikipedia.org/wiki/Mysore_district",
                "http://www.mapsofindia.com/karnataka/tourism/"
            ],
            "longitude": "77.6375990817051",
            "address": "Hoysala Nagar, Bengaluru, Bangalore Urban, Karnataka, 560001, India",
            "latitude": "12.97813815",
            "locType": "administrative",
            "closest_to": "mysore"
        },
        "virupaksha temple": {
            "blogLinks": [
                "http://blog.indianluxurytrains.com/2014/09/best-places-to-visit-in-karnataka.html"
            ],
            "longitude": "76.4587777156223",
            "address": "Virupaksha Temple, Hampi Bazaar, Hampe, Hosapete taluk, Bellary district, Karnataka, 583239, India",
            "latitude": "15.3351754",
            "locType": "place_of_worship",
            "closest_to": "mysore"
        },
        "talakadu": {
            "blogLinks": [
                "https://www.quora.com/What-are-the-best-places-to-visit-on-a-3-day-trip-in-and-around-Karnataka",
                "http://www.godakshin.com/travel-guides/4-exciting-places-visit-around-bangalore-732.html"
            ],
            "longitude": "77.0293979",
            "address": "Talakadu, Tirumakudalu Narasipura taluk, Mysuru district, Karnataka, India",
            "latitude": "12.1919942",
            "locType": "village",
            "closest_to": "mysore"
        },
        "gokarna": {
            "blogLinks": [
                "http://www.mapsofindia.com/karnataka/tourism/"
            ],
            "longitude": "74.3184418",
            "address": "Gokarna, Kumata taluk, Uttara Kannada, Karnataka, 581326, India",
            "latitude": "14.5439629",
            "locType": "town",
            "closest_to": "mysore"
        },
        "kenya": {
            "blogLinks": [
                "https://www.tripoto.com/trip/bijapur-5676f193761ee"
            ],
            "longitude": "75.5001151",
            "address": "Kenya, Sulya taluk, Dakshina Kannada, Karnataka, India",
            "latitude": "12.6920464",
            "locType": "hamlet",
            "closest_to": "mysore"
        },
        "kaveri river": {
            "blogLinks": [
                "https://en.wikipedia.org/wiki/Mysore_district"
            ],
            "longitude": "77.1600751",
            "address": "Kaveri, Malavalli taluk, Mandya district, Karnataka, India",
            "latitude": "12.2873835",
            "locType": "river",
            "closest_to": "mysore"
        },
        "mysore palace": {
            "blogLinks": [
                "http://www.holidayiq.com/Mysore-Sightseeing-472.html"
            ],
            "longitude": "76.6539249338108",
            "address": "Mysore Palace, Sayyaji Rao Road, Vani Vilas, Mysuru, Mysuru taluk, Mysuru district, Karnataka, 570001, India",
            "latitude": "12.3052915",
            "locType": "yes",
            "closest_to": "mysore"
        },
        "uttarahalli": {
            "blogLinks": [
                "http://samharshbangalore.blogspot.com/2012/10/travelling-by-road-from-bangalore-to.html"
            ],
            "longitude": "77.5455438",
            "address": "Uttarahalli, Bengaluru, Bangalore Urban, Karnataka, 560001, India",
            "latitude": "12.9055682",
            "locType": "suburb",
            "closest_to": "mysore"
        },
        "heart lake": {
            "blogLinks": [
                "https://www.quora.com/What-are-the-best-places-to-visit-on-a-3-day-trip-in-and-around-Karnataka"
            ],
            "longitude": "77.6033149073313",
            "address": "Sacred Heart Cemetry, Shanti Nagar, Bengaluru, Bangalore Urban, Karnataka, 560001, India",
            "latitude": "12.9542916",
            "locType": "cemetery",
            "closest_to": "mysore"
        },
        "markandeya river": {
            "blogLinks": [
                "https://www.quora.com/What-are-the-best-places-to-visit-on-a-3-day-trip-in-and-around-Karnataka"
            ],
            "longitude": "74.5774895",
            "address": "Markandeya, Belagavi taluku, Belgaum district, Karnataka, India",
            "latitude": "15.9707453",
            "locType": "river",
            "closest_to": "mysore"
        },
        "chanakya": {
            "blogLinks": [
                "http://samharshbangalore.blogspot.com/2012/10/travelling-by-road-from-bangalore-to.html"
            ],
            "longitude": "75.1318286",
            "address": "Chanakya Puri, Kamaripet, Hubballi - \u0cb9\u0cc1\u0cac\u0ccd\u0cac\u0cb3\u0ccd\u0cb3\u0cbf, Hubballi taluku, Dharwad district, Karnataka, 580020, India",
            "latitude": "15.3463273",
            "locType": "neighbourhood",
            "closest_to": "mysore"
        },
        "daria daulat gardens": {
            "blogLinks": [
                "https://www.quora.com/What-are-the-best-places-to-visit-on-a-3-day-trip-in-and-around-Karnataka"
            ],
            "longitude": "76.6969039957315",
            "address": "Daria Daulat Bagh Museum, Bangalore-Mysore Road, Srirangapatna, Srirangapattana taluk, Mandya district, Karnataka, 571438, India",
            "latitude": "12.4200182",
            "locType": "museum",
            "closest_to": "mysore"
        },
        "nanjangud": {
            "blogLinks": [
                "http://www.holidayiq.com/Mysore-Sightseeing-472.html",
                "https://en.wikipedia.org/wiki/Mysore_district"
            ],
            "longitude": "76.683164",
            "address": "Nanjangud, Nanjanagudu Bypass, Hejjige, Nanjanagudu taluk, Mysuru district, Karnataka, 571300, India",
            "latitude": "12.1229725",
            "locType": "station",
            "closest_to": "mysore"
        },
        "singapore": {
            "blogLinks": [
                "https://www.yatra.com/india-tourism/karnataka"
            ],
            "longitude": "77.5483703",
            "address": "Singapore Gardens, Vajrahalli, Bengaluru, Bangalore Urban, Karnataka, 560001, India",
            "latitude": "12.8861812",
            "locType": "neighbourhood",
            "closest_to": "mysore"
        },
        "karkala": {
            "blogLinks": [
                "https://www.quora.com/What-are-the-best-places-to-visit-on-a-3-day-trip-in-and-around-Karnataka"
            ],
            "longitude": "74.9959586",
            "address": "Karkala, Karkala taluk, Udupi district, Karnataka, 574104, India",
            "latitude": "13.2112826",
            "locType": "town",
            "closest_to": "mysore"
        },
        "kesare": {
            "blogLinks": [
                "https://en.wikipedia.org/wiki/Mysore_district"
            ],
            "longitude": "76.6701257",
            "address": "Kesare, Mysuru taluk, Mysuru district, Karnataka, India",
            "latitude": "12.356215",
            "locType": "village",
            "closest_to": "mysore"
        },
        "sharavati": {
            "blogLinks": [
                "https://www.quora.com/What-are-the-best-places-to-visit-on-a-3-day-trip-in-and-around-Karnataka"
            ],
            "longitude": "74.7647294",
            "address": "Sharavati, Sagara taluk, Shimoga district, Karnataka, India",
            "latitude": "14.2360979",
            "locType": "river",
            "closest_to": "mysore"
        },
        "nataraja": {
            "blogLinks": [
                "https://www.quora.com/What-are-the-best-places-to-visit-on-a-3-day-trip-in-and-around-Karnataka"
            ],
            "longitude": "77.5730381173154",
            "address": "Nataraja, Sirur Park Road, Vyalikaval, Seshadripuram, Bengaluru, Bangalore Urban, Karnataka, 560001, India",
            "latitude": "12.9900332",
            "locType": "cinema",
            "closest_to": "mysore"
        },
        "kerala": {
            "blogLinks": [
                "http://journeymart.com/de/india/karnataka/sightseeing/default.aspx",
                "https://www.quora.com/What-are-the-best-places-to-visit-on-a-3-day-trip-in-and-around-Karnataka",
                "http://wildplanetresort.com/blog/2016/03/top-11-places-to-visit-in-karnataka/",
                "https://www.yatra.com/india-tourism/karnataka",
                "https://en.wikipedia.org/wiki/Mysore_district"
            ],
            "longitude": "77.6382683",
            "address": "New Life Kerala Mess, Sai Baba Mandira Road, Mottappanapalaya, Indiranagar, Bengaluru, Bangalore Urban, Karnataka, 560001, India",
            "latitude": "12.9726449",
            "locType": "restaurant",
            "closest_to": "mysore"
        },
        "hong kong": {
            "blogLinks": [
                "https://www.yatra.com/india-tourism/karnataka"
            ],
            "longitude": "77.6768991",
            "address": "Hong Kong Noodles, Kalkere Main road, Ramamurthy Nagar, Varanasi, Bangalore Urban, Karnataka, 600042, India",
            "latitude": "13.020749",
            "locType": "restaurant",
            "closest_to": "mysore"
        },
        "hasan": {
            "blogLinks": [
                "http://www.mapsofindia.com/karnataka/tourism/"
            ],
            "longitude": "76.0992703",
            "address": "Hassan, Hasana taluk, Hassan district, Karnataka, 573201, India",
            "latitude": "13.0070817",
            "locType": "town",
            "closest_to": "mysore"
        },
        "indi": {
            "blogLinks": [
                "https://www.tripoto.com/trip/bijapur-5676f193761ee"
            ],
            "longitude": "75.7223521",
            "address": "Karnataka, India",
            "latitude": "14.5203896",
            "locType": "administrative",
            "closest_to": "mysore"
        },
        "ramanagar": {
            "blogLinks": [
                "http://samharshbangalore.blogspot.com/2012/10/travelling-by-road-from-bangalore-to.html",
                "https://en.wikipedia.org/wiki/Mysore_district"
            ],
            "longitude": "77.3418018",
            "address": "Ramanagar-Kanakapura Road, Avverahalli, Ramanagara taluk, Ramanagara district, Karnataka, 562159, India",
            "latitude": "12.649356",
            "locType": "primary",
            "closest_to": "mysore"
        },
        "venkataramana temple": {
            "blogLinks": [
                "http://blog.indianluxurytrains.com/2014/09/best-places-to-visit-in-karnataka.html"
            ],
            "longitude": "77.6895365754579",
            "address": "Venkataramana Temple, 20th Cross Road, Anantnagar, Sampige Nagara, Bangalore Urban, Karnataka, 560099, India",
            "latitude": "12.8380349",
            "locType": "place_of_worship",
            "closest_to": "mysore"
        },
        "karwar": {
            "blogLinks": [
                "https://www.quora.com/What-are-the-best-places-to-visit-on-a-3-day-trip-in-and-around-Karnataka"
            ],
            "longitude": "74.1319229",
            "address": "Karwar, Karavara taluk, Uttara Kannada, Karnataka, 581300, India",
            "latitude": "14.8120931",
            "locType": "town",
            "closest_to": "mysore"
        },
        "chamarajeshwara": {
            "blogLinks": [
                "http://samharshbangalore.blogspot.com/2012/10/travelling-by-road-from-bangalore-to.html"
            ],
            "longitude": "76.9377863895392",
            "address": "Sri Chamarajeshwara Temple, Car Street, Chamarajanagara, Chamarajanagara taluk, Chamarajanagar district, Karnataka, 571313, India",
            "latitude": "11.92690485",
            "locType": "place_of_worship",
            "closest_to": "mysore"
        },
        "hampi": {
            "blogLinks": [
                "http://journeymart.com/de/india/karnataka/sightseeing/default.aspx",
                "https://www.quora.com/What-are-the-best-places-to-visit-on-a-3-day-trip-in-and-around-Karnataka",
                "http://blog.indianluxurytrains.com/2014/09/best-places-to-visit-in-karnataka.html",
                "http://samharshbangalore.blogspot.com/2012/10/travelling-by-road-from-bangalore-to.html",
                "http://www.mapsofindia.com/karnataka/tourism/"
            ],
            "longitude": "76.4606199",
            "address": "Hampe, Hosapete taluk, Bellary district, Karnataka, 583239, India",
            "latitude": "15.3359769",
            "locType": "village",
            "closest_to": "mysore"
        },
        "grs fantasy park": {
            "blogLinks": [
                "https://www.quora.com/What-are-the-best-places-to-visit-on-a-3-day-trip-in-and-around-Karnataka"
            ],
            "longitude": "76.6338102194966",
            "address": "GRS Fantasy Park, Ring Road, Kumbara Koppalu, Metagalli Industrial Area, Mysuru, Mysuru taluk, Mysuru district, Karnataka, 570001, India",
            "latitude": "12.3540981",
            "locType": "theme_park",
            "closest_to": "mysore"
        },
        "valmiki": {
            "blogLinks": [
                "http://samharshbangalore.blogspot.com/2012/10/travelling-by-road-from-bangalore-to.html"
            ],
            "longitude": "77.55459",
            "address": "Valmiki Nagar, Bengaluru, Bangalore Urban, Karnataka, 560001, India",
            "latitude": "12.9567265",
            "locType": "suburb",
            "closest_to": "mysore"
        },
        "krishna river": {
            "blogLinks": [
                "http://www.holidayiq.com/Bijapur-Sightseeing-646.html"
            ],
            "longitude": "77.0529845",
            "address": "Krishna, Shahapura taluku, Yadagiri district, Karnataka, India",
            "latitude": "16.5209569",
            "locType": "river",
            "closest_to": "mysore"
        },
        "kautilya": {
            "blogLinks": [
                "http://samharshbangalore.blogspot.com/2012/10/travelling-by-road-from-bangalore-to.html"
            ],
            "longitude": "76.6396322289743",
            "address": "Kautilya Circle, Chamarajapuram, Mysuru, Mysuru taluk, Mysuru district, Karnataka, 570001, India",
            "latitude": "12.30705485",
            "locType": "secondary",
            "closest_to": "mysore"
        },
        "brindavan gardens": {
            "blogLinks": [
                "https://www.quora.com/What-are-the-best-places-to-visit-on-a-3-day-trip-in-and-around-Karnataka",
                "http://www.holidayiq.com/Mysore-Sightseeing-472.html"
            ],
            "longitude": "76.5741029405883",
            "address": "Brindavan Gardens, Krishnaraja Sagara Road, Krushnarajasagara, Srirangapattana taluk, Mandya district, Karnataka, India",
            "latitude": "12.4208084",
            "locType": "garden",
            "closest_to": "mysore"
        },
        "kusha garden": {
            "blogLinks": [
                "https://www.quora.com/What-are-the-best-places-to-visit-on-a-3-day-trip-in-and-around-Karnataka"
            ],
            "longitude": "76.6283545564802",
            "address": "Lava Kusha Park, Lalitadri Road, Kuvempunagara, Mysuru, Mysuru taluk, Mysuru district, Karnataka, 570001, India",
            "latitude": "12.2905505",
            "locType": "park",
            "closest_to": "mysore"
        },
        "silicon valley": {
            "blogLinks": [
                "http://blog.indianluxurytrains.com/2014/09/best-places-to-visit-in-karnataka.html",
                "http://wildplanetresort.com/blog/2016/03/top-11-places-to-visit-in-karnataka/"
            ],
            "longitude": "77.6053133563105",
            "address": "RK Estates : Silicon Valley Layout, Vidyanagar, Bengaluru, Bangalore Urban, Karnataka, 560001, India",
            "latitude": "13.1650062",
            "locType": "residential",
            "closest_to": "mysore"
        },
        "gokul garden": {
            "blogLinks": [
                "https://www.quora.com/What-are-the-best-places-to-visit-on-a-3-day-trip-in-and-around-Karnataka"
            ],
            "longitude": "75.1141861403246",
            "address": "Gokul Garden, Gokul Road / Airport Road, Renuka Nagar, Padmaraj Nagar, Gokul, Hubballi taluku, Dharwad district, Karnataka, 580030, India",
            "latitude": "15.35009745",
            "locType": "recreation_ground",
            "closest_to": "mysore"
        },
        "andhra pradesh": {
            "blogLinks": [
                "http://www.holidayiq.com/Bijapur-Sightseeing-646.html",
                "https://www.yatra.com/india-tourism/karnataka"
            ],
            "longitude": "79.3452447",
            "address": "Karnataka, West Mada Street, Srivari Temple, Tirumala, Chittoor, Andhra Pradesh, 517504, India",
            "latitude": "13.6841958",
            "locType": "hotel",
            "closest_to": "mysore"
        },
        "krishnarajendra terrace garden": {
            "blogLinks": [
                "http://www.holidayiq.com/Mysore-Sightseeing-472.html"
            ],
            "longitude": "77.583027619944",
            "address": "Silver Jubilee Park, Narasimharaja Road, Ganigarpet, Kalasipalya, Bengaluru, Bangalore Urban, Karnataka, 560001, India",
            "latitude": "12.96370475",
            "locType": "park",
            "closest_to": "mysore"
        },
        "tagore": {
            "blogLinks": [
                "https://www.quora.com/What-are-the-best-places-to-visit-on-a-3-day-trip-in-and-around-Karnataka"
            ],
            "longitude": "77.595715",
            "address": "Rabindranath Tagore Nagar, Bengaluru, Bangalore Urban, Karnataka, 560001, India",
            "latitude": "13.0227204",
            "locType": "suburb",
            "closest_to": "mysore"
        },
        "delhi": {
            "blogLinks": [
                "https://www.tripoto.com/trip/bijapur-5676f193761ee",
                "http://blog.indianluxurytrains.com/2014/09/best-places-to-visit-in-karnataka.html",
                "http://wildplanetresort.com/blog/2016/03/top-11-places-to-visit-in-karnataka/"
            ],
            "longitude": "77.6666062",
            "address": "Outer Ring Road, Green Glen Layout, Iblur, Bengaluru, Bangalore Urban, Karnataka, 560001, India",
            "latitude": "12.9212473",
            "locType": "trunk",
            "closest_to": "mysore"
        },
        "chennakeshava": {
            "blogLinks": [
                "https://www.quora.com/What-are-the-best-places-to-visit-on-a-3-day-trip-in-and-around-Karnataka"
            ],
            "longitude": "76.1294164",
            "address": "Chennakeshava Temple, NH73, Arakere, Arasikere taluku, Hassan district, Karnataka, 573112, India",
            "latitude": "13.3748908",
            "locType": "place_of_worship",
            "closest_to": "mysore"
        },
        "kodava": {
            "blogLinks": [
                "https://www.quora.com/What-are-the-best-places-to-visit-on-a-3-day-trip-in-and-around-Karnataka"
            ],
            "longitude": "77.5947466457941",
            "address": "Kodava Samaja, M V Jayaram Road, Jayamahal Extension, Vasantnagar, Bengaluru, Bangalore Urban, Karnataka, 560001, India",
            "latitude": "12.9946227",
            "locType": "community_centre",
            "closest_to": "mysore"
        },
        "vijaynagar": {
            "blogLinks": [
                "http://wildplanetresort.com/blog/2016/03/top-11-places-to-visit-in-karnataka/"
            ],
            "longitude": "77.5376657",
            "address": "Vijaynagar, Chord Road, Marenahalli, Vijaya Nagar, Binny Layout, Bangalore Urban, Karnataka, 560040, India",
            "latitude": "12.9720356",
            "locType": "bus_stop",
            "closest_to": "mysore"
        },
        "silent valley": {
            "blogLinks": [
                "https://www.quora.com/What-are-the-best-places-to-visit-on-a-3-day-trip-in-and-around-Karnataka"
            ],
            "longitude": "76.5819054",
            "address": "Silent Shores Resort, Krishnaraja Sagara Road, Kurgalli, Bastipura, Srirangapattana taluk, Mandya district, Karnataka, 570027, India",
            "latitude": "12.3459371",
            "locType": "hotel",
            "closest_to": "mysore"
        },
        "railway museum": {
            "blogLinks": [
                "http://blog.indianluxurytrains.com/2014/09/best-places-to-visit-in-karnataka.html"
            ],
            "longitude": "77.6182271274845",
            "address": "Bangalore East Railway Station, Cox Town, Bengaluru, Bangalore Urban, Karnataka, 560001, India",
            "latitude": "13.001147",
            "locType": "railway",
            "closest_to": "mysore"
        },
        "anjaneya swamy temple": {
            "blogLinks": [
                "http://samharshbangalore.blogspot.com/2012/10/travelling-by-road-from-bangalore-to.html"
            ],
            "longitude": "77.7169608592617",
            "address": "Anjaneya Swamy Temple, Seetharampalya Road, Green Domain Layout, Hoodi, Sitaramapalya, Bangalore Urban, Karnataka, 560066, India",
            "latitude": "12.9820478",
            "locType": "place_of_worship",
            "closest_to": "mysore"
        },
        "lakshminarayana": {
            "blogLinks": [
                "http://samharshbangalore.blogspot.com/2012/10/travelling-by-road-from-bangalore-to.html"
            ],
            "longitude": "76.4786794480367",
            "address": "Sri Lakshminarayana Swami Temple, SH85, Kattaraghatta, Krishnarajapete taluk, Mandya district, Karnataka, India",
            "latitude": "12.64241745",
            "locType": "place_of_worship",
            "closest_to": "mysore"
        },
        "chamarajanagar": {
            "blogLinks": [
                "https://en.wikipedia.org/wiki/Mysore_district"
            ],
            "longitude": "76.9331345",
            "address": "Chamarajanagar, Nanjangudu-Chamarajanagar Road, Kadahalli, Chamarajanagara taluk, Chamarajanagar district, Karnataka, 571313, India",
            "latitude": "11.9346624",
            "locType": "station",
            "closest_to": "mysore"
        },
        "almatti dam": {
            "blogLinks": [
                "http://www.holidayiq.com/Bijapur-Sightseeing-646.html"
            ],
            "longitude": "75.9517801",
            "address": "Almatti Left Bank Canal, Basavana Bagevadi Taluku, Bijapur district, Karnataka, India",
            "latitude": "16.3648934",
            "locType": "canal",
            "closest_to": "mysore"
        },
        "mandalpatti": {
            "blogLinks": [
                "https://www.quora.com/What-are-the-best-places-to-visit-on-a-3-day-trip-in-and-around-Karnataka"
            ],
            "longitude": "75.7307012",
            "address": "Mandalpatti road junction, Galibidu Road, Kalakeri Nidugane, Madikeri taluku, Kodagu, Karnataka, India",
            "latitude": "12.4486242",
            "locType": "attraction",
            "closest_to": "mysore"
        },
        "banavasi": {
            "blogLinks": [
                "https://www.quora.com/What-are-the-best-places-to-visit-on-a-3-day-trip-in-and-around-Karnataka"
            ],
            "longitude": "75.0129845",
            "address": "Banavasi, Shirasi taluk, Uttara Kannada, Karnataka, India",
            "latitude": "14.5389738",
            "locType": "town",
            "closest_to": "mysore"
        },
        "goa": {
            "blogLinks": [
                "https://www.quora.com/What-are-the-best-places-to-visit-on-a-3-day-trip-in-and-around-Karnataka",
                "http://travelmasti.com/domestic/karnataka/bijapur.htm",
                "https://www.yatra.com/india-tourism/karnataka"
            ],
            "longitude": "77.6200027",
            "address": "Carnival De Goa, Bhaskaran Road, Gupta Layout, Halasuru, Bengaluru, Bangalore Urban, Karnataka, 560001, India",
            "latitude": "12.9750047",
            "locType": "restaurant",
            "closest_to": "mysore"
        },
        "veera narayana temple": {
            "blogLinks": [
                "https://www.quora.com/What-are-the-best-places-to-visit-on-a-3-day-trip-in-and-around-Karnataka"
            ],
            "longitude": "75.9953525",
            "address": "Veera Narayana Temple, Chikmagalur Javagal Road, Narasipura, Chikkamagaluru taluku, Chikkamagaluru district, Karnataka, India",
            "latitude": "13.2821212",
            "locType": "place_of_worship",
            "closest_to": "mysore"
        },
        "kalyan": {
            "blogLinks": [
                "https://www.quora.com/What-are-the-best-places-to-visit-on-a-3-day-trip-in-and-around-Karnataka"
            ],
            "longitude": "77.6403368",
            "address": "Kalyan Nagar, Chelekere, Bangalore Urban, Karnataka, India",
            "latitude": "13.0221416",
            "locType": "suburb",
            "closest_to": "mysore"
        },
        "iruppu falls": {
            "blogLinks": [
                "https://www.quora.com/What-are-the-best-places-to-visit-on-a-3-day-trip-in-and-around-Karnataka"
            ],
            "longitude": "75.9839484",
            "address": "Iruppu Falls, SH89, Taila, Virajpet taluk, Kodagu, Karnataka, 571217, India",
            "latitude": "11.9667954",
            "locType": "attraction",
            "closest_to": "mysore"
        },
        "mysore": {
            "blogLinks": [
                "https://en.wikipedia.org/wiki/Mysore_district",
                "https://www.quora.com/What-are-the-best-places-to-visit-on-a-3-day-trip-in-and-around-Karnataka",
                "http://blog.indianluxurytrains.com/2014/09/best-places-to-visit-in-karnataka.html",
                "http://samharshbangalore.blogspot.com/2012/10/travelling-by-road-from-bangalore-to.html",
                "http://www.holidayiq.com/Mysore-Sightseeing-472.html"
            ],
            "longitude": "76.6553609",
            "address": "Mysuru, Mysuru taluk, Mysuru district, Karnataka, 570001, India",
            "latitude": "12.3051828",
            "locType": "city",
            "closest_to": "mysore"
        },
        "tunga": {
            "blogLinks": [
                "https://www.quora.com/What-are-the-best-places-to-visit-on-a-3-day-trip-in-and-around-Karnataka"
            ],
            "longitude": "75.3221835",
            "address": "Tunga, Tirthahalli taluk, Shimoga district, Karnataka, India",
            "latitude": "13.6632221",
            "locType": "river",
            "closest_to": "mysore"
        },
        "kali river": {
            "blogLinks": [
                "https://www.quora.com/What-are-the-best-places-to-visit-on-a-3-day-trip-in-and-around-Karnataka"
            ],
            "longitude": "74.5802901",
            "address": "Kali, Joida taluk, Uttara Kannada, Karnataka, India",
            "latitude": "15.0145378",
            "locType": "river",
            "closest_to": "mysore"
        },
        "bangalore palace": {
            "blogLinks": [
                "https://www.yatra.com/india-tourism/karnataka"
            ],
            "longitude": "77.5920094892276",
            "address": "Bangalore Palace, Jayamahal Road, Jayamahal Extension, Jayamahal, Bengaluru, Bangalore Urban, Karnataka, 560001, India",
            "latitude": "12.9985963",
            "locType": "attraction",
            "closest_to": "mysore"
        },
        "railway station": {
            "blogLinks": [
                "http://www.team-bhp.com/forum/route-travel-queries/77373-route-enquiry-bangalore-hampi-bijapur-shirdi-tadoba-hyderabad-bangalore.html"
            ],
            "longitude": "77.515738",
            "address": "Railway Station, Gauribidanuru taluk, Chikkaballapura district, Karnataka, India",
            "latitude": "13.5029417",
            "locType": "village",
            "closest_to": "mysore"
        },
        "srirangapatna": {
            "blogLinks": [
                "https://en.wikipedia.org/wiki/Mysore_district",
                "http://samharshbangalore.blogspot.com/2012/10/travelling-by-road-from-bangalore-to.html",
                "http://www.holidayiq.com/Mysore-Sightseeing-472.html"
            ],
            "longitude": "76.6850743",
            "address": "Srirangapatna, Srirangapattana taluk, Mandya district, Karnataka, 571438, India",
            "latitude": "12.4225604",
            "locType": "town",
            "closest_to": "mysore"
        },
        "pattadakal": {
            "blogLinks": [
                "http://journeymart.com/de/india/karnataka/sightseeing/default.aspx",
                "http://travelmasti.com/domestic/karnataka/bijapur.htm",
                "http://blog.indianluxurytrains.com/2014/09/best-places-to-visit-in-karnataka.html",
                "http://www.mapsofindia.com/karnataka/tourism/"
            ],
            "longitude": "75.815884048161",
            "address": "Pattadakal Temples, SH14, \u0cac\u0cbe\u0c9a\u0cbf\u0ca8\u0c97\u0cc1\u0ca1\u0ccd\u0ca1, Badami taluku, Bagalkote district, Karnataka, 587211, India",
            "latitude": "15.9506349",
            "locType": "attraction",
            "closest_to": "mysore"
        },
        "abbur": {
            "blogLinks": [
                "http://samharshbangalore.blogspot.com/2012/10/travelling-by-road-from-bangalore-to.html"
            ],
            "longitude": "76.18024",
            "address": "Government Higher Primary School Abbur, Abburu, Hunasuru taluk, Mysuru district, Karnataka, India",
            "latitude": "12.22133",
            "locType": "school",
            "closest_to": "mysore"
        },
        "sripadaraja": {
            "blogLinks": [
                "http://samharshbangalore.blogspot.com/2012/10/travelling-by-road-from-bangalore-to.html"
            ],
            "longitude": "78.4098989814967",
            "address": "Sri Sripadaraja Mutt, Old Madras Road, Halekuppa, Mulubagilu taluk, Kolar district, Karnataka, India",
            "latitude": "13.1741086",
            "locType": "place_of_worship",
            "closest_to": "mysore"
        },
        "chikmagalur": {
            "blogLinks": [
                "https://www.quora.com/What-are-the-best-places-to-visit-on-a-3-day-trip-in-and-around-Karnataka",
                "https://www.yatra.com/india-tourism/karnataka"
            ],
            "longitude": "75.5",
            "address": "Chikmagalur, Chikkamagaluru district, Karnataka, India",
            "latitude": "13.5",
            "locType": "county",
            "closest_to": "mysore"
        },
        "golconda": {
            "blogLinks": [
                "http://www.holidayiq.com/Mysore-Sightseeing-472.html"
            ],
            "longitude": "77.7127571",
            "address": "Golconda Chimney, Varthur Road, Vaikuntam Layout, AECS Layout, Siddapura, Bangalore Urban, Karnataka, 560066, India",
            "latitude": "12.9558467",
            "locType": "restaurant",
            "closest_to": "mysore"
        },
        "mahabaleshwara": {
            "blogLinks": [
                "https://www.quora.com/What-are-the-best-places-to-visit-on-a-3-day-trip-in-and-around-Karnataka"
            ],
            "longitude": "77.5899749843004",
            "address": "Mahabaleshwara Temple, Mission Road (Kalinga Rao Road ), Sampangirama Nagar, Shanti Nagar, Bengaluru, Bangalore Urban, Karnataka, 560001, India",
            "latitude": "12.96264945",
            "locType": "place_of_worship",
            "closest_to": "mysore"
        },
        "gulbarga": {
            "blogLinks": [
                "http://www.holidayiq.com/Bijapur-Sightseeing-646.html",
                "https://www.quora.com/What-are-the-best-places-to-visit-on-a-3-day-trip-in-and-around-Karnataka"
            ],
            "longitude": "77.083333",
            "address": "Kalaburgi, Kalaburagi district, Karnataka, India",
            "latitude": "17.166667",
            "locType": "county",
            "closest_to": "bijapur"
        },
        "dharwad": {
            "blogLinks": [
                "https://www.yatra.com/india-tourism/karnataka"
            ],
            "longitude": "75.0066516",
            "address": "Dharwad, Dharawada taluku, Dharwad district, Karnataka, 580001, India",
            "latitude": "15.4540505",
            "locType": "city",
            "closest_to": "mysore"
        },
        "mullayanagiri range": {
            "blogLinks": [
                "https://www.quora.com/What-are-the-best-places-to-visit-on-a-3-day-trip-in-and-around-Karnataka"
            ],
            "longitude": "75.7214034",
            "address": "Mullayyanagiri, Chikkamagaluru, Chikkamagaluru taluku, Chikkamagaluru district, Karnataka, 577101, India",
            "latitude": "13.3909217",
            "locType": "peak",
            "closest_to": "mysore"
        },
        "venkatappa art gallery": {
            "blogLinks": [
                "http://blog.indianluxurytrains.com/2014/09/best-places-to-visit-in-karnataka.html",
                "http://www.mapsofindia.com/karnataka/tourism/"
            ],
            "longitude": "77.5952077",
            "address": "Venkatappa Art Gallery, Kasturba Road, Shantala Nagar, MacIvor Town, Bengaluru, Bangalore Urban, Karnataka, 560001, India",
            "latitude": "12.9742592",
            "locType": "museum",
            "closest_to": "mysore"
        },
        "bellary": {
            "blogLinks": [
                "https://www.yatra.com/india-tourism/karnataka"
            ],
            "longitude": "76.8323648",
            "address": "Bellary, Bellary district, Karnataka, India",
            "latitude": "15.2485413",
            "locType": "county",
            "closest_to": "mysore"
        },
        "mahatma gandhi park": {
            "blogLinks": [
                "http://blog.indianluxurytrains.com/2014/09/best-places-to-visit-in-karnataka.html"
            ],
            "longitude": "77.5997033330292",
            "address": "Mahatma Gandhi Park, Mahatma Gandhi Road, Shantala Nagar, MacIvor Town, Bengaluru, Bangalore Urban, Karnataka, 560001, India",
            "latitude": "12.9772144",
            "locType": "park",
            "closest_to": "mysore"
        },
        "kanva river": {
            "blogLinks": [
                "http://samharshbangalore.blogspot.com/2012/10/travelling-by-road-from-bangalore-to.html"
            ],
            "longitude": "77.2039784730662",
            "address": "Kanva Reservoir, Chamanahalli, Ramanagara taluk, Ramanagara district, Karnataka, India",
            "latitude": "12.73575",
            "locType": "reservoir",
            "closest_to": "mysore"
        },
        "chamundeshwari": {
            "blogLinks": [
                "http://www.holidayiq.com/Mysore-Sightseeing-472.html"
            ],
            "longitude": "77.5924927",
            "address": "Chamundeshwari, Chidananda Maharashi Ashram Road, Sampangi Rama Nagara, MacIvor Town, Bengaluru, Bangalore Urban, Karnataka, 560027, India",
            "latitude": "12.9658588",
            "locType": "clothes",
            "closest_to": "mysore"
        },
        "krishnagiri": {
            "blogLinks": [
                "http://www.godakshin.com/travel-guides/4-exciting-places-visit-around-bangalore-732.html"
            ],
            "longitude": "75.1096736",
            "address": "Krishnagiri Colony, Padmaraj Nagar, Hubballi - \u0cb9\u0cc1\u0cac\u0ccd\u0cac\u0cb3\u0ccd\u0cb3\u0cbf, Hubballi taluku, Dharwad district, Karnataka, 580020, India",
            "latitude": "15.3375394",
            "locType": "neighbourhood",
            "closest_to": "mysore"
        },
        "badami of karnataka": {
            "blogLinks": [
                "http://www.mapsofindia.com/karnataka/tourism/"
            ],
            "longitude": "75.6419100722642",
            "address": "Badami taluku, Bagalkote district, Karnataka, India",
            "latitude": "15.98301895",
            "locType": "administrative",
            "closest_to": "mysore"
        },
        "ananthapadmanabha": {
            "blogLinks": [
                "https://www.quora.com/What-are-the-best-places-to-visit-on-a-3-day-trip-in-and-around-Karnataka"
            ],
            "longitude": "74.8937899082456",
            "address": "Kudupu Ananthapadmanabha Temple, Solapur-Mangalore Highway, Shakthinagar, Kulashekara, Kudupu, Mangaluru taluk, Dakshina Kannada, Karnataka, 575007, India",
            "latitude": "12.9039019",
            "locType": "place_of_worship",
            "closest_to": "mysore"
        },
        "brahmagiri range": {
            "blogLinks": [
                "https://www.quora.com/What-are-the-best-places-to-visit-on-a-3-day-trip-in-and-around-Karnataka"
            ],
            "longitude": "76.8122474",
            "address": "Brahmagiri Betta, Molakalmuru taluku, Chitradurga district, Karnataka, India",
            "latitude": "14.8001586",
            "locType": "peak",
            "closest_to": "mysore"
        },
        "mandovi": {
            "blogLinks": [
                "https://www.quora.com/What-are-the-best-places-to-visit-on-a-3-day-trip-in-and-around-Karnataka"
            ],
            "longitude": "77.6190505",
            "address": "Mandovi Motors, Wheeler Road Flyover, MSO Colony, Cox Town, Bengaluru, Bangalore Urban, Karnataka, 560001, India",
            "latitude": "12.9965335",
            "locType": "car",
            "closest_to": "mysore"
        },
        "botanical garden": {
            "blogLinks": [
                "https://www.quora.com/What-are-the-best-places-to-visit-on-a-3-day-trip-in-and-around-Karnataka"
            ],
            "longitude": "77.5744817798899",
            "address": "Botanical Garden, Cart road, Judicial Layout, Jakkur, Bangalore Urban, Karnataka, 560065, India",
            "latitude": "13.08099125",
            "locType": "protected_area",
            "closest_to": "mysore"
        },
        "karanja": {
            "blogLinks": [
                "http://www.team-bhp.com/forum/route-travel-queries/77373-route-enquiry-bangalore-hampi-bijapur-shirdi-tadoba-hyderabad-bangalore.html"
            ],
            "longitude": "77.3394601",
            "address": "Karanja, Bidar taluku, Bidar district, Karnataka, India",
            "latitude": "17.8416491",
            "locType": "river",
            "closest_to": "bijapur"
        },
        "bangalore-mysore": {
            "blogLinks": [
                "http://samharshbangalore.blogspot.com/2012/10/travelling-by-road-from-bangalore-to.html"
            ],
            "longitude": "76.807544",
            "address": "Bangalore-Mysore Road, Yaliyuru, Mandya taluk, Mandya district, Karnataka, 571426, India",
            "latitude": "12.4964879",
            "locType": "trunk",
            "closest_to": "mysore"
        },
        "uma maheshwara temple": {
            "blogLinks": [
                "http://blog.indianluxurytrains.com/2014/09/best-places-to-visit-in-karnataka.html"
            ],
            "longitude": "74.3120254424635",
            "address": "Uma-maheshwara temple, Om beach road, Gokarna, Kumata taluk, Uttara Kannada, Karnataka, 581326, India",
            "latitude": "14.5234594",
            "locType": "place_of_worship",
            "closest_to": "mysore"
        },
        "ocean": {
            "blogLinks": [
                "https://www.quora.com/What-are-the-best-places-to-visit-on-a-3-day-trip-in-and-around-Karnataka"
            ],
            "longitude": "77.7178261979437",
            "address": "Gayatri Ocean Blue Apartments, Thubarahalli, Siddapura, Bangalore Urban, Karnataka, 560066, India",
            "latitude": "12.95490595",
            "locType": "residential",
            "closest_to": "mysore"
        },
        "wonderla": {
            "blogLinks": [
                "http://samharshbangalore.blogspot.com/2012/10/travelling-by-road-from-bangalore-to.html"
            ],
            "longitude": "77.4026822",
            "address": "Wonderla, Wonder La Road, Manchanayakanahalli, Ramanagara taluk, Ramanagara district, Karnataka, India",
            "latitude": "12.8382986",
            "locType": "bus_stop",
            "closest_to": "mysore"
        },
        "maharaja": {
            "blogLinks": [
                "https://en.wikipedia.org/wiki/Mysore_district"
            ],
            "longitude": "76.6438602",
            "address": "Maharaja, College Road, Vani Vilas, Mysuru, Mysuru taluk, Mysuru district, Karnataka, 570001, India",
            "latitude": "12.3047676",
            "locType": "restaurant",
            "closest_to": "mysore"
        },
        "channarayapatna of hassan": {
            "blogLinks": [
                "http://blog.indianluxurytrains.com/2014/09/best-places-to-visit-in-karnataka.html"
            ],
            "longitude": "76.4628912",
            "address": "Tiptur - Channarayapatna Road, Rampura, Channarayapattana taluk, Hassan district, Karnataka, India",
            "latitude": "13.0775815",
            "locType": "primary",
            "closest_to": "mysore"
        },
        "india": {
            "blogLinks": [
                "https://www.quora.com/What-are-the-best-places-to-visit-on-a-3-day-trip-in-and-around-Karnataka",
                "http://blog.indianluxurytrains.com/2014/09/best-places-to-visit-in-karnataka.html",
                "https://www.yatra.com/india-tourism/karnataka",
                "http://www.indianholiday.com/weekend-getaways/from-bangalore.html",
                "http://distancecalculator.globefeed.com/India_Distance_Calculator.asp?state=19",
                "https://en.wikipedia.org/wiki/Mysore_district",
                "http://wildplanetresort.com/blog/2016/03/top-11-places-to-visit-in-karnataka/",
                "http://www.holidayiq.com/Mysore-Sightseeing-472.html",
                "http://samharshbangalore.blogspot.com/2012/10/travelling-by-road-from-bangalore-to.html",
                "http://www.godakshin.com/travel-guides/4-exciting-places-visit-around-bangalore-732.html",
                "http://www.mapsofindia.com/karnataka/tourism/",
                "http://www.team-bhp.com/forum/route-travel-queries/77373-route-enquiry-bangalore-hampi-bijapur-shirdi-tadoba-hyderabad-bangalore.html",
                "http://travelmasti.com/domestic/karnataka/bijapur.htm"
            ],
            "longitude": "75.7223521",
            "address": "Karnataka, India",
            "latitude": "14.5203896",
            "locType": "administrative",
            "closest_to": "mysore"
        },
        "bettadapura": {
            "blogLinks": [
                "https://en.wikipedia.org/wiki/Mysore_district"
            ],
            "longitude": "76.1794982",
            "address": "Bettadapura, Arasikere taluku, Hassan district, Karnataka, India",
            "latitude": "13.3307903",
            "locType": "village",
            "closest_to": "mysore"
        },
        "bijapur": {
            "blogLinks": [
                "http://www.holidayiq.com/Bijapur-Sightseeing-646.html",
                "http://travelmasti.com/domestic/karnataka/bijapur.htm",
                "https://www.tripoto.com/trip/bijapur-5676f193761ee",
                "http://samharshbangalore.blogspot.com/2012/10/travelling-by-road-from-bangalore-to.html",
                "http://www.holidayiq.com/Mysore-Sightseeing-472.html"
            ],
            "longitude": "75.7175387",
            "address": "Vijayapura, Vijayapura taluk, Bijapur district, Karnataka, 586101, India",
            "latitude": "16.8269911",
            "locType": "city",
            "closest_to": "bijapur"
        },
        "southern india": {
            "blogLinks": [
                "https://www.yatra.com/india-tourism/karnataka"
            ],
            "longitude": "77.6227757667762",
            "address": "Survey Of India - Southern Zone, Madivala, Bengaluru, Bangalore Urban, Karnataka, 560001, India",
            "latitude": "12.92588785",
            "locType": "commercial",
            "closest_to": "mysore"
        },
        "kaladagi": {
            "blogLinks": [
                "http://distancecalculator.globefeed.com/India_Distance_Calculator.asp?state=19"
            ],
            "longitude": "75.4996999",
            "address": "Kaladagi, Bagalakote taluk, Bagalkote district, Karnataka, 587204, India",
            "latitude": "16.2071441",
            "locType": "village",
            "closest_to": "mysore"
        },
        "kengeri-uttarahalli": {
            "blogLinks": [
                "http://samharshbangalore.blogspot.com/2012/10/travelling-by-road-from-bangalore-to.html"
            ],
            "longitude": "77.5259323",
            "address": "Uttarahalli - Kengeri Road, AGS Layout, Ganakkal, Bangalore Urban, Karnataka, 560086, India",
            "latitude": "12.9041537",
            "locType": "secondary",
            "closest_to": "mysore"
        },
        "talakad": {
            "blogLinks": [
                "https://en.wikipedia.org/wiki/Mysore_district"
            ],
            "longitude": "77.026146",
            "address": "Talakad Riverside, SH79, Mavinahalli, Tirumakudalu Narasipura taluk, Mysuru district, Karnataka, India",
            "latitude": "12.1731685",
            "locType": "picnic_site",
            "closest_to": "mysore"
        },
        "sakleshpur": {
            "blogLinks": [
                "https://www.quora.com/What-are-the-best-places-to-visit-on-a-3-day-trip-in-and-around-Karnataka"
            ],
            "longitude": "75.7862318",
            "address": "Sakaleshpura, Sakaleshapura taluk, Hassan district, Karnataka, 573134, India",
            "latitude": "12.9434349",
            "locType": "town",
            "closest_to": "mysore"
        },
        "panambur - panambur beach": {
            "blogLinks": [
                "https://www.quora.com/What-are-the-best-places-to-visit-on-a-3-day-trip-in-and-around-Karnataka"
            ],
            "longitude": "74.8034667207214",
            "address": "Panambur Beach, Panambur Beach Road, Gandhinagar, Panambur, Mangaluru taluk, Dakshina Kannada, Karnataka, 575013, India",
            "latitude": "12.93907195",
            "locType": "beach",
            "closest_to": "mysore"
        },
        "mantralaya": {
            "blogLinks": [
                "http://samharshbangalore.blogspot.com/2012/10/travelling-by-road-from-bangalore-to.html"
            ],
            "longitude": "77.3610338",
            "address": "Mantralaya Road, Raichur, Rayachuru taluku, Raichur district, Karnataka, 584100, India",
            "latitude": "16.1912419",
            "locType": "trunk",
            "closest_to": "mysore"
        },
        "bijapur district of karnataka": {
            "blogLinks": [
                "https://www.tripoto.com/trip/bijapur-5676f193761ee"
            ],
            "longitude": "75.897147327785",
            "address": "Bijapur district, Karnataka, India",
            "latitude": "16.81105965",
            "locType": "administrative",
            "closest_to": "mysore"
        },
        "amboli": {
            "blogLinks": [
                "https://www.quora.com/What-are-the-best-places-to-visit-on-a-3-day-trip-in-and-around-Karnataka"
            ],
            "longitude": "74.4340839",
            "address": "Amboli, Khanapura taluku, Belgaum district, Karnataka, India",
            "latitude": "15.6456171",
            "locType": "village",
            "closest_to": "mysore"
        },
        "mangalore": {
            "blogLinks": [
                "http://journeymart.com/de/india/karnataka/sightseeing/default.aspx",
                "https://www.quora.com/What-are-the-best-places-to-visit-on-a-3-day-trip-in-and-around-Karnataka",
                "http://wildplanetresort.com/blog/2016/03/top-11-places-to-visit-in-karnataka/",
                "https://www.yatra.com/india-tourism/karnataka",
                "http://www.mapsofindia.com/karnataka/tourism/"
            ],
            "longitude": "74.8430082",
            "address": "Mangaluru, Mangaluru taluk, Dakshina Kannada, Karnataka, 575001, India",
            "latitude": "12.8698101",
            "locType": "city",
            "closest_to": "mysore"
        },
        "juma masjid": {
            "blogLinks": [
                "http://samharshbangalore.blogspot.com/2012/10/travelling-by-road-from-bangalore-to.html"
            ],
            "longitude": "74.8447647",
            "address": "New Juma Masjid, Pudiyo Palli, MSEZL Corridor Rd, Jokatte, Mangaluru taluk, Dakshina Kannada, Karnataka, 575014, India",
            "latitude": "12.9623947",
            "locType": "place_of_worship",
            "closest_to": "mysore"
        },
        "emirates": {
            "blogLinks": [
                "https://www.yatra.com/india-tourism/karnataka"
            ],
            "longitude": "77.5572955",
            "address": "Emirates, Rahman Khan Road, Rajajinagar 1st Block, Yeshwantpur, Deewanarapalya, Bangalore Urban, Karnataka, 560022, India",
            "latitude": "13.0192135",
            "locType": "restaurant",
            "closest_to": "mysore"
        },
        "sangam": {
            "blogLinks": [
                "http://samharshbangalore.blogspot.com/2012/10/travelling-by-road-from-bangalore-to.html"
            ],
            "longitude": "77.6065672",
            "address": "Sangam, FM Cariappa Road (Residency Road), Shantala Nagar, MacIvor Town, Bengaluru, Bangalore Urban, Karnataka, 560001, India",
            "latitude": "12.9718928",
            "locType": "restaurant",
            "closest_to": "mysore"
        },
        "kudremukh peak": {
            "blogLinks": [
                "https://www.quora.com/What-are-the-best-places-to-visit-on-a-3-day-trip-in-and-around-Karnataka"
            ],
            "longitude": "75.2748196",
            "address": "Kudremukha, Mudigere taluk, Chikkamagaluru district, Karnataka, India",
            "latitude": "13.1255691",
            "locType": "peak",
            "closest_to": "mysore"
        },
        "maharashtra": {
            "blogLinks": [
                "https://www.yatra.com/india-tourism/karnataka"
            ],
            "longitude": "77.5856013",
            "address": "Bank of Maharashtra, 24th Main, K R Layout, Puttenahalli, Bengaluru, Bangalore Urban, Karnataka, 560001, India",
            "latitude": "12.9049455",
            "locType": "bank",
            "closest_to": "mysore"
        },
        "belagola": {
            "blogLinks": [
                "https://en.wikipedia.org/wiki/Mysore_district"
            ],
            "longitude": "76.4869997",
            "address": "Shravanabelagola, Channarayapattana taluk, Hassan district, Karnataka, 573135, India",
            "latitude": "12.8581305",
            "locType": "town",
            "closest_to": "mysore"
        },
        "ooty lake": {
            "blogLinks": [
                "https://www.quora.com/What-are-the-best-places-to-visit-on-a-3-day-trip-in-and-around-Karnataka"
            ],
            "longitude": "76.6586807",
            "address": "Ooty Road, Vidyaranyapuram, Mysuru, Mysuru taluk, Mysuru district, Karnataka, 570001, India",
            "latitude": "12.2774807",
            "locType": "primary",
            "closest_to": "mysore"
        },
        "cubbon park": {
            "blogLinks": [
                "https://en.wikipedia.org/wiki/Mysore_district",
                "http://blog.indianluxurytrains.com/2014/09/best-places-to-visit-in-karnataka.html",
                "https://www.yatra.com/india-tourism/karnataka",
                "http://www.mapsofindia.com/karnataka/tourism/"
            ],
            "longitude": "77.5977565",
            "address": "Cubbon Park, Cubbon Road, Tasker Town, Shivajinagar, Bengaluru, Bangalore Urban, Karnataka, 560001, India",
            "latitude": "12.9808487",
            "locType": "station",
            "closest_to": "mysore"
        },
        "madduramma": {
            "blogLinks": [
                "http://samharshbangalore.blogspot.com/2012/10/travelling-by-road-from-bangalore-to.html"
            ],
            "longitude": "77.0472724",
            "address": "Madduramma Temple, Bangalore-Mysore Road, Gejjalagere, Madduru taluk, Mandya district, Karnataka, India",
            "latitude": "12.5921286",
            "locType": "place_of_worship",
            "closest_to": "mysore"
        },
        "veerabhadra": {
            "blogLinks": [
                "http://samharshbangalore.blogspot.com/2012/10/travelling-by-road-from-bangalore-to.html"
            ],
            "longitude": "74.8354754",
            "address": "Veerabhadra Galli, Sirsi, Shirasi taluk, Uttara Kannada, Karnataka, 581400, India",
            "latitude": "14.6129642",
            "locType": "residential",
            "closest_to": "mysore"
        },
        "belgaum": {
            "blogLinks": [
                "https://www.quora.com/What-are-the-best-places-to-visit-on-a-3-day-trip-in-and-around-Karnataka"
            ],
            "longitude": "74.75",
            "address": "Belgaum, Belgaum district, Karnataka, India",
            "latitude": "16.333333",
            "locType": "county",
            "closest_to": "mysore"
        },
        "middle east": {
            "blogLinks": [
                "https://www.yatra.com/india-tourism/karnataka"
            ],
            "longitude": "77.3394684",
            "address": "Government Middle And Primary School, NH48, Dodderi, Nelamangala taluk, Bangalore Rural, Karnataka, India",
            "latitude": "13.1487605",
            "locType": "school",
            "closest_to": "mysore"
        },
        "bangalore-mysore road": {
            "blogLinks": [
                "http://samharshbangalore.blogspot.com/2012/10/travelling-by-road-from-bangalore-to.html"
            ],
            "longitude": "77.4337983",
            "address": "Bangalore-Mysore Road, Bangalore Urban, Karnataka, 560074, India",
            "latitude": "12.8633084",
            "locType": "trunk",
            "closest_to": "mysore"
        },
        "kodagu": {
            "blogLinks": [
                "https://en.wikipedia.org/wiki/Mysore_district",
                "https://www.quora.com/What-are-the-best-places-to-visit-on-a-3-day-trip-in-and-around-Karnataka",
                "http://blog.indianluxurytrains.com/2014/09/best-places-to-visit-in-karnataka.html",
                "http://wildplanetresort.com/blog/2016/03/top-11-places-to-visit-in-karnataka/",
                "http://www.mapsofindia.com/karnataka/tourism/"
            ],
            "longitude": "75.6677235950852",
            "address": "Kodagu, Karnataka, India",
            "latitude": "12.38117345",
            "locType": "administrative",
            "closest_to": "mysore"
        },
        "kote anjaneya temple": {
            "blogLinks": [
                "http://samharshbangalore.blogspot.com/2012/10/travelling-by-road-from-bangalore-to.html"
            ],
            "longitude": "75.5827042",
            "address": "Kote Anjaneya Temple, Kote Road, Lashkar Mohalla, Shivamogga, Shivamogga taluku, Shimoga district, Karnataka, 577200, India",
            "latitude": "13.9277488",
            "locType": "place_of_worship",
            "closest_to": "mysore"
        },
        "karnataka": {
            "blogLinks": [
                "https://www.quora.com/What-are-the-best-places-to-visit-on-a-3-day-trip-in-and-around-Karnataka",
                "http://blog.indianluxurytrains.com/2014/09/best-places-to-visit-in-karnataka.html",
                "https://www.yatra.com/india-tourism/karnataka",
                "http://distancecalculator.globefeed.com/India_Distance_Calculator.asp?state=19",
                "https://en.wikipedia.org/wiki/Mysore_district",
                "http://www.holidayiq.com/Bijapur-Sightseeing-646.html",
                "http://wildplanetresort.com/blog/2016/03/top-11-places-to-visit-in-karnataka/",
                "http://samharshbangalore.blogspot.com/2012/10/travelling-by-road-from-bangalore-to.html",
                "http://www.godakshin.com/travel-guides/4-exciting-places-visit-around-bangalore-732.html",
                "http://www.mapsofindia.com/karnataka/tourism/",
                "http://journeymart.com/de/india/karnataka/sightseeing/default.aspx",
                "http://www.karnatakatourism.org/",
                "http://travelmasti.com/domestic/karnataka/bijapur.htm"
            ],
            "longitude": "76.6639936",
            "address": "Karnataka, Shalivahana Road, Nazarbad, Mysuru, Mysuru taluk, Mysuru district, Karnataka, 570001, India",
            "latitude": "12.3084901",
            "locType": "atm",
            "closest_to": "mysore"
        },
        "bijapur district": {
            "blogLinks": [
                "http://www.holidayiq.com/Bijapur-Sightseeing-646.html",
                "https://www.quora.com/What-are-the-best-places-to-visit-on-a-3-day-trip-in-and-around-Karnataka"
            ],
            "longitude": "75.897147327785",
            "address": "Bijapur district, Karnataka, India",
            "latitude": "16.81105965",
            "locType": "administrative",
            "closest_to": "mysore"
        },
        "north karnataka": {
            "blogLinks": [
                "https://www.quora.com/What-are-the-best-places-to-visit-on-a-3-day-trip-in-and-around-Karnataka"
            ],
            "longitude": "77.7660547",
            "address": "N, Chaithanya Samarpan, Kadugodi, Kannamangala, Bangalore Urban, Karnataka, 560066, India",
            "latitude": "13.0217151",
            "locType": "service",
            "closest_to": "mysore"
        },
        "bagalkot": {
            "blogLinks": [
                "http://www.holidayiq.com/Bijapur-Sightseeing-646.html",
                "http://blog.indianluxurytrains.com/2014/09/best-places-to-visit-in-karnataka.html"
            ],
            "longitude": "75.6967919",
            "address": "Bagalakote, Bagalakote taluk, Bagalkote district, Karnataka, India",
            "latitude": "16.1853166",
            "locType": "city",
            "closest_to": "mysore"
        },
        "coorg": {
            "blogLinks": [
                "https://www.quora.com/What-are-the-best-places-to-visit-on-a-3-day-trip-in-and-around-Karnataka"
            ],
            "longitude": "75.740031",
            "address": "Madikeri, Madikeri taluku, Kodagu, Karnataka, India",
            "latitude": "12.4204003",
            "locType": "town",
            "closest_to": "mysore"
        },
        "sangameshwara": {
            "blogLinks": [
                "https://www.quora.com/What-are-the-best-places-to-visit-on-a-3-day-trip-in-and-around-Karnataka"
            ],
            "longitude": "74.87651",
            "address": "Sangameshwara, Kalaghatagi taluku, Dharwad district, Karnataka, India",
            "latitude": "15.184341",
            "locType": "village",
            "closest_to": "mysore"
        },
        "parvati": {
            "blogLinks": [
                "https://www.quora.com/What-are-the-best-places-to-visit-on-a-3-day-trip-in-and-around-Karnataka"
            ],
            "longitude": "75.7898501",
            "address": "Parvati, Badami taluku, Bagalkote district, Karnataka, India",
            "latitude": "16.0395701",
            "locType": "village",
            "closest_to": "mysore"
        },
        "hubli": {
            "blogLinks": [
                "http://wildplanetresort.com/blog/2016/03/top-11-places-to-visit-in-karnataka/",
                "https://www.yatra.com/india-tourism/karnataka"
            ],
            "longitude": "75.1379848",
            "address": "Hubballi - \u0cb9\u0cc1\u0cac\u0ccd\u0cac\u0cb3\u0ccd\u0cb3\u0cbf, Hubballi taluku, Dharwad district, Karnataka, 580020, India",
            "latitude": "15.3518378",
            "locType": "city",
            "closest_to": "mysore"
        },
        "gurupura": {
            "blogLinks": [
                "https://www.quora.com/What-are-the-best-places-to-visit-on-a-3-day-trip-in-and-around-Karnataka"
            ],
            "longitude": "75.7161587",
            "address": "Gurupura, Tarikere taluku, Chikkamagaluru district, Karnataka, India",
            "latitude": "13.6686411",
            "locType": "village",
            "closest_to": "mysore"
        },
        "chennakesava": {
            "blogLinks": [
                "http://blog.indianluxurytrains.com/2014/09/best-places-to-visit-in-karnataka.html"
            ],
            "longitude": "75.8603311",
            "address": "Chennakesava Temple, NH73, Navilahalli, Beluru taluk, Hassan district, Karnataka, India",
            "latitude": "13.1629239",
            "locType": "place_of_worship",
            "closest_to": "mysore"
        },
        "hassan": {
            "blogLinks": [
                "http://blog.indianluxurytrains.com/2014/09/best-places-to-visit-in-karnataka.html"
            ],
            "longitude": "76.0992703",
            "address": "Hassan, Hasana taluk, Hassan district, Karnataka, 573201, India",
            "latitude": "13.0070817",
            "locType": "town",
            "closest_to": "mysore"
        },
        "hyderabad": {
            "blogLinks": [
                "https://www.tripoto.com/trip/bijapur-5676f193761ee",
                "http://wildplanetresort.com/blog/2016/03/top-11-places-to-visit-in-karnataka/"
            ],
            "longitude": "77.5344002",
            "address": "Hyderabad Road, Old City, Bidar, Bidar taluku, Bidar district, Karnataka, 585400, India",
            "latitude": "17.9003114",
            "locType": "primary",
            "closest_to": "bijapur"
        },
        "raichur": {
            "blogLinks": [
                "https://www.yatra.com/india-tourism/karnataka"
            ],
            "longitude": "77.166667",
            "address": "Raichur, Raichur district, Karnataka, India",
            "latitude": "16.083333",
            "locType": "county",
            "closest_to": "mysore"
        },
        "chitradurga": {
            "blogLinks": [
                "https://www.yatra.com/india-tourism/karnataka"
            ],
            "longitude": "76.4005122",
            "address": "Chitradurga, Chitradurga taluku, Chitradurga district, Karnataka, 577500, India",
            "latitude": "14.2266443",
            "locType": "town",
            "closest_to": "mysore"
        },
        "tahsildars": {
            "blogLinks": [
                "https://en.wikipedia.org/wiki/Mysore_district"
            ],
            "longitude": "74.4490713214619",
            "address": "Tahsildar's Office, Honnavar, Honnavara taluku, Uttara Kannada, Karnataka, 581334, India",
            "latitude": "14.280596",
            "locType": "commercial",
            "closest_to": "mysore"
        },
        "ramagiri": {
            "blogLinks": [
                "http://samharshbangalore.blogspot.com/2012/10/travelling-by-road-from-bangalore-to.html"
            ],
            "longitude": "76.122208",
            "address": "Ramagiri, Holalkere taluk, Chitradurga district, Karnataka, India",
            "latitude": "13.9535932",
            "locType": "village",
            "closest_to": "mysore"
        },
        "kuvempu": {
            "blogLinks": [
                "https://www.quora.com/What-are-the-best-places-to-visit-on-a-3-day-trip-in-and-around-Karnataka"
            ],
            "longitude": "77.5064032",
            "address": "Kuvempu, Kengeri Main Road, ITI Layout, Jnana Bharathi, Nagadevanahalli, Bangalore Urban, Karnataka, 560056, India",
            "latitude": "12.9560369",
            "locType": "artwork",
            "closest_to": "mysore"
        },
        "manjunatha temple": {
            "blogLinks": [
                "https://www.quora.com/What-are-the-best-places-to-visit-on-a-3-day-trip-in-and-around-Karnataka"
            ],
            "longitude": "77.5640116772773",
            "address": "Devagiri Manjunatha Swamy Temple, 30th Cross, Jayanagar 8th Block, Banashankari 2nd Stage, Bengaluru, Bangalore Urban, Karnataka, 560001, India",
            "latitude": "12.9211928",
            "locType": "place_of_worship",
            "closest_to": "mysore"
        },
        "malkapur": {
            "blogLinks": [
                "http://www.team-bhp.com/forum/route-travel-queries/77373-route-enquiry-bangalore-hampi-bijapur-shirdi-tadoba-hyderabad-bangalore.html"
            ],
            "longitude": "76.46267",
            "address": "Lower Primary School Malkapur, SH60, \u0cb6\u0cb3\u0ccd\u0cb3\u0c97\u0cbf, Muddebihala taluku, Bijapur district, Karnataka, India",
            "latitude": "16.6278",
            "locType": "school",
            "closest_to": "mysore"
        },
        "bahubali": {
            "blogLinks": [
                "https://www.quora.com/What-are-the-best-places-to-visit-on-a-3-day-trip-in-and-around-Karnataka"
            ],
            "longitude": "76.4846128",
            "address": "Bahubali Statue, SH8, Shravanabelagola, Channarayapattana taluk, Hassan district, Karnataka, 573135, India",
            "latitude": "12.8540505",
            "locType": "place_of_worship",
            "closest_to": "mysore"
        },
        "sirsi": {
            "blogLinks": [
                "https://www.quora.com/What-are-the-best-places-to-visit-on-a-3-day-trip-in-and-around-Karnataka"
            ],
            "longitude": "74.8388611",
            "address": "Sirsi, Shirasi taluk, Uttara Kannada, Karnataka, 581400, India",
            "latitude": "14.6192362",
            "locType": "town",
            "closest_to": "mysore"
        },
        "vijaynagara": {
            "blogLinks": [
                "http://blog.indianluxurytrains.com/2014/09/best-places-to-visit-in-karnataka.html"
            ],
            "longitude": "77.5383681",
            "address": "Vijaynagara, Chord Road, Marenahalli, Vijaya Nagar, Binny Layout, Bangalore Urban, Karnataka, 560040, India",
            "latitude": "12.9726377",
            "locType": "bus_stop",
            "closest_to": "mysore"
        },
        "ranganatha swamy": {
            "blogLinks": [
                "http://samharshbangalore.blogspot.com/2012/10/travelling-by-road-from-bangalore-to.html"
            ],
            "longitude": "76.1656215275047",
            "address": "Ranganatha Swamy Betta, Hasana taluk, Hassan district, Karnataka, India",
            "latitude": "13.14749975",
            "locType": "hamlet",
            "closest_to": "mysore"
        },
        "mecca gate": {
            "blogLinks": [
                "http://www.holidayiq.com/Bijapur-Sightseeing-646.html"
            ],
            "longitude": "77.5509669",
            "address": "masjid e mecca, 7th cross padarayana pura, Hosahalli Main Road, Rajajinagar 6th Block, Goripalya, Bengaluru, Bangalore Urban, Karnataka, 560001, India",
            "latitude": "12.9618838",
            "locType": "place_of_worship",
            "closest_to": "mysore"
        },
        "bahmani": {
            "blogLinks": [
                "http://blog.indianluxurytrains.com/2014/09/best-places-to-visit-in-karnataka.html"
            ],
            "longitude": "76.8315008",
            "address": "Bahmani Fort, Alanda Road, Fort, Rauza, Kalaburagi, Gulbarga taluku, Kalaburagi district, Karnataka, 585101, India",
            "latitude": "17.3415485",
            "locType": "castle",
            "closest_to": "bijapur"
        },
        "madhukeshwara": {
            "blogLinks": [
                "https://www.quora.com/What-are-the-best-places-to-visit-on-a-3-day-trip-in-and-around-Karnataka"
            ],
            "longitude": "75.1480027",
            "address": "Madhukeshwara Temple, Kattinakere Road, Kattinakere Bus Stand, Soraba taluk, Shimoga district, Karnataka, India",
            "latitude": "14.3058996",
            "locType": "place_of_worship",
            "closest_to": "mysore"
        },
        "papanatha": {
            "blogLinks": [
                "http://blog.indianluxurytrains.com/2014/09/best-places-to-visit-in-karnataka.html"
            ],
            "longitude": "75.8164391839286",
            "address": "Papanatha Temple, SH14, \u0cac\u0cbe\u0c9a\u0cbf\u0ca8\u0c97\u0cc1\u0ca1\u0ccd\u0ca1, Badami taluku, Bagalkote district, Karnataka, 587211, India",
            "latitude": "15.94762935",
            "locType": "yes",
            "closest_to": "mysore"
        },
        "marikamba temple": {
            "blogLinks": [
                "https://www.quora.com/What-are-the-best-places-to-visit-on-a-3-day-trip-in-and-around-Karnataka"
            ],
            "longitude": "74.8103631279317",
            "address": "Marikamba Temple, NH766C;SH26, Halkal, \u0c95\u0cc1\u0c82\u0ca6\u0cbe\u0caa\u0cc1\u0cb0 \u0ca4\u0cbe\u0cb2\u0cc2\u0c95\u0cc1, Udupi district, Karnataka, 576220, India",
            "latitude": "13.8626958",
            "locType": "place_of_worship",
            "closest_to": "mysore"
        },
        "himavad gopalaswamy betta": {
            "blogLinks": [
                "https://www.quora.com/What-are-the-best-places-to-visit-on-a-3-day-trip-in-and-around-Karnataka"
            ],
            "longitude": "76.5804063",
            "address": "Gopalaswami Temple, Gopal Swami Betta road, Devarahalli, Gundlupet taluk, Chamarajanagar district, Karnataka, India",
            "latitude": "11.7206016",
            "locType": "place_of_worship",
            "closest_to": "mysore"
        },
        "bidadi": {
            "blogLinks": [
                "http://www.godakshin.com/travel-guides/4-exciting-places-visit-around-bangalore-732.html",
                "http://samharshbangalore.blogspot.com/2012/10/travelling-by-road-from-bangalore-to.html"
            ],
            "longitude": "77.3869947",
            "address": "Bidadi, Ramanagara taluk, Ramanagara district, Karnataka, India",
            "latitude": "12.7988507",
            "locType": "town",
            "closest_to": "mysore"
        },
        "cauvery": {
            "blogLinks": [
                "http://samharshbangalore.blogspot.com/2012/10/travelling-by-road-from-bangalore-to.html"
            ],
            "longitude": "77.5832796015599",
            "address": "Cauvery, 1st Main Road, Lower Palace Orchard, Guttahalli, Bengaluru, Bangalore Urban, Karnataka, 560001, India",
            "latitude": "13.00262215",
            "locType": "cinema",
            "closest_to": "mysore"
        },
        "kadamba": {
            "blogLinks": [
                "https://www.quora.com/What-are-the-best-places-to-visit-on-a-3-day-trip-in-and-around-Karnataka"
            ],
            "longitude": "77.7436954",
            "address": "Kadamba Avenue, R. Narayanapura, Brookefields, Dodsworth Enclave, Bangalore Urban, Karnataka, 560066, India",
            "latitude": "12.9703178",
            "locType": "residential",
            "closest_to": "mysore"
        },
        "kudalasangama": {
            "blogLinks": [
                "http://www.holidayiq.com/Bijapur-Sightseeing-646.html"
            ],
            "longitude": "76.0604244",
            "address": "Kudala Sangama, Hunagunda taluku, Bagalkote district, Karnataka, India",
            "latitude": "16.2033992",
            "locType": "village",
            "closest_to": "mysore"
        },
        "sri krishna temple": {
            "blogLinks": [
                "https://www.quora.com/What-are-the-best-places-to-visit-on-a-3-day-trip-in-and-around-Karnataka"
            ],
            "longitude": "77.6437236",
            "address": "Sri Krishna Temple Road, Old Binnamangala, Hoysala Nagar, Bengaluru, Bangalore Urban, Karnataka, 560001, India",
            "latitude": "12.9791699",
            "locType": "unclassified",
            "closest_to": "mysore"
        },
        "national park": {
            "blogLinks": [
                "https://en.wikipedia.org/wiki/Mysore_district"
            ],
            "longitude": "77.5722783830694",
            "address": "Bannerghatta National Park, Anekal Road, Begihalli, Bangalore Urban, Karnataka, 560076, India",
            "latitude": "12.77900335",
            "locType": "national_park",
            "closest_to": "mysore"
        },
        "south": {
            "blogLinks": [
                "https://www.quora.com/What-are-the-best-places-to-visit-on-a-3-day-trip-in-and-around-Karnataka"
            ],
            "longitude": "77.8040874",
            "address": "s, Vijayapura, Devanahalli taluk, Bangalore Rural, Karnataka, 562135, India",
            "latitude": "13.2942848",
            "locType": "residential",
            "closest_to": "mysore"
        },
        "jain": {
            "blogLinks": [
                "http://blog.indianluxurytrains.com/2014/09/best-places-to-visit-in-karnataka.html"
            ],
            "longitude": "74.9977469",
            "address": "Moodabidri, Mangaluru taluk, Dakshina Kannada, Karnataka, 574227, India",
            "latitude": "13.0699218",
            "locType": "town",
            "closest_to": "mysore"
        },
        "kali": {
            "blogLinks": [
                "https://www.quora.com/What-are-the-best-places-to-visit-on-a-3-day-trip-in-and-around-Karnataka"
            ],
            "longitude": "74.5802901",
            "address": "Kali, Joida taluk, Uttara Kannada, Karnataka, India",
            "latitude": "15.0145378",
            "locType": "river",
            "closest_to": "mysore"
        },
        "south-west": {
            "blogLinks": [
                "http://wildplanetresort.com/blog/2016/03/top-11-places-to-visit-in-karnataka/"
            ],
            "longitude": "75.7223521",
            "address": "Karnataka, India",
            "latitude": "14.5203896",
            "locType": "administrative",
            "closest_to": "mysore"
        },
        "bangalore karnataka": {
            "blogLinks": [
                "https://www.quora.com/What-are-the-best-places-to-visit-on-a-3-day-trip-in-and-around-Karnataka"
            ],
            "longitude": "77.5912997",
            "address": "Bengaluru, Bangalore Urban, Karnataka, 560001, India",
            "latitude": "12.9791198",
            "locType": "city",
            "closest_to": "mysore"
        },
        "bangkok": {
            "blogLinks": [
                "https://www.quora.com/What-are-the-best-places-to-visit-on-a-3-day-trip-in-and-around-Karnataka"
            ],
            "longitude": "77.6382633",
            "address": "One night in Bangkok, 12th Main Road, HAL 2nd Stage, Indiranagar, Bengaluru, Bangalore Urban, Karnataka, 560001, India",
            "latitude": "12.9701967",
            "locType": "bar",
            "closest_to": "mysore"
        },
        "abhiman": {
            "blogLinks": [
                "http://samharshbangalore.blogspot.com/2012/10/travelling-by-road-from-bangalore-to.html"
            ],
            "longitude": "74.84860285",
            "address": "Abhiman Residency, Kudumal Ranga Rao Road, Bikarnakatte, Mallikatte, Mangaluru, Mangaluru taluk, Dakshina Kannada, Karnataka, 575001, India",
            "latitude": "12.8766361",
            "locType": "hotel",
            "closest_to": "mysore"
        },
        "hoysaleswara": {
            "blogLinks": [
                "http://blog.indianluxurytrains.com/2014/09/best-places-to-visit-in-karnataka.html"
            ],
            "longitude": "75.9941649",
            "address": "Hoysaleswara Temple, SH21, Halebidu, Beluru taluk, Hassan district, Karnataka, 573121, India",
            "latitude": "13.2127193",
            "locType": "place_of_worship",
            "closest_to": "mysore"
        },
        "agumbe": {
            "blogLinks": [
                "https://www.quora.com/What-are-the-best-places-to-visit-on-a-3-day-trip-in-and-around-Karnataka"
            ],
            "longitude": "75.0965525",
            "address": "Agumbe, Tirthahalli taluk, Shimoga district, Karnataka, 577411, India",
            "latitude": "13.5094998",
            "locType": "village",
            "closest_to": "mysore"
        },
        "agra": {
            "blogLinks": [
                "http://travelmasti.com/domestic/karnataka/bijapur.htm"
            ],
            "longitude": "77.6468085",
            "address": "Agara, Geddalahalli, Bangalore Urban, Karnataka, India",
            "latitude": "13.0386734",
            "locType": "suburb",
            "closest_to": "mysore"
        },
        "river tungabhadra": {
            "blogLinks": [
                "http://wildplanetresort.com/blog/2016/03/top-11-places-to-visit-in-karnataka/"
            ],
            "longitude": "76.4931607",
            "address": "Tungabhadra, Gangavati taluku, Koppal district, Karnataka, India",
            "latitude": "15.3446123",
            "locType": "river",
            "closest_to": "mysore"
        },
        "mirjan fort": {
            "blogLinks": [
                "https://www.quora.com/What-are-the-best-places-to-visit-on-a-3-day-trip-in-and-around-Karnataka"
            ],
            "longitude": "74.4174838158512",
            "address": "Mirjana Fort, Edapally- Panvel Highway, Kimani, Kumata taluk, Uttara Kannada, Karnataka, 581344, India",
            "latitude": "14.48905715",
            "locType": "attraction",
            "closest_to": "mysore"
        },
        "vijayapura": {
            "blogLinks": [
                "https://www.tripoto.com/trip/bijapur-5676f193761ee"
            ],
            "longitude": "75.916667",
            "address": "Vijayapura, Bijapur district, Karnataka, India",
            "latitude": "16.666667",
            "locType": "county",
            "closest_to": "mysore"
        },
        "mandya": {
            "blogLinks": [
                "https://en.wikipedia.org/wiki/Mysore_district"
            ],
            "longitude": "76.8937392",
            "address": "Mandya, Mandya taluk, Mandya district, Karnataka, 571401, India",
            "latitude": "12.5217836",
            "locType": "town",
            "closest_to": "mysore"
        },
        "durga temple": {
            "blogLinks": [
                "https://www.quora.com/What-are-the-best-places-to-visit-on-a-3-day-trip-in-and-around-Karnataka"
            ],
            "longitude": "77.6125928",
            "address": "Durga Temple, 29th Main, Mahadeshwara Nagara, BTM Layout, Bengaluru, Bangalore Urban, Karnataka, 560001, India",
            "latitude": "12.9057731",
            "locType": "place_of_worship",
            "closest_to": "mysore"
        },
        "cubbon road": {
            "blogLinks": [
                "https://en.wikipedia.org/wiki/Mysore_district"
            ],
            "longitude": "77.6086131",
            "address": "Cubbon Road, Tasker Town, Ashok Nagar, Bengaluru, Bangalore Urban, Karnataka, 560001, India",
            "latitude": "12.9771571",
            "locType": "primary",
            "closest_to": "mysore"
        },
        "kaveri": {
            "blogLinks": [
                "https://www.quora.com/What-are-the-best-places-to-visit-on-a-3-day-trip-in-and-around-Karnataka",
                "http://www.godakshin.com/travel-guides/4-exciting-places-visit-around-bangalore-732.html",
                "https://en.wikipedia.org/wiki/Mysore_district"
            ],
            "longitude": "77.0635531",
            "address": "Kaveri, Kollegala taluk, Chamarajanagar district, Karnataka, India",
            "latitude": "12.1687878",
            "locType": "river",
            "closest_to": "mysore"
        },
        "beijing": {
            "blogLinks": [
                "https://www.quora.com/What-are-the-best-places-to-visit-on-a-3-day-trip-in-and-around-Karnataka"
            ],
            "longitude": "77.637388",
            "address": "Beijing bites, 407, Kammanahalli Main Road, GNR Gardens, Kalyan Nagar, Bengaluru, Bangalore Urban, Karnataka, 560043, India",
            "latitude": "13.0245897",
            "locType": "restaurant",
            "closest_to": "mysore"
        },
        "golden temple": {
            "blogLinks": [
                "https://www.quora.com/What-are-the-best-places-to-visit-on-a-3-day-trip-in-and-around-Karnataka",
                "http://samharshbangalore.blogspot.com/2012/10/travelling-by-road-from-bangalore-to.html"
            ],
            "longitude": "75.9674656",
            "address": "Padmasambhava Buddhist Vihara (Golden Temple), MDR21, Koppa, Piriyapattana taluk, Mysuru district, Karnataka, India",
            "latitude": "12.430821",
            "locType": "place_of_worship",
            "closest_to": "mysore"
        },
        "kunti betta": {
            "blogLinks": [
                "http://samharshbangalore.blogspot.com/2012/10/travelling-by-road-from-bangalore-to.html"
            ],
            "longitude": "76.6982646",
            "address": "Kunti Betta, Pandavapura taluk, Mandya district, Karnataka, India",
            "latitude": "12.5082433",
            "locType": "peak",
            "closest_to": "mysore"
        },