{
    "udupi": {
        "lat": "13.3419169",
        "class": "place",
        "importance": 0.55,
        "osm_type": "node",
        "lon": "74.7473232",
        "place_id": "634423",
        "display_name": "Udupi, Udupi taluku, Udupi district, Karnataka, 576101, India",
        "osm_id": "245620117",
        "boundingbox": [
            "13.1819169",
            "13.5019169",
            "74.5873232",
            "74.9073232"
        ],
        "type": "city",
        "licence": "Data \u00a9 OpenStreetMap contributors, ODbL 1.0. http://www.openstreetmap.org/copyright",
        "icon": "https://nominatim.openstreetmap.org/images/mapicons/poi_place_city.p.20.png"
    },
    "mentions": {
        "sharadamba": {
            "blogLinks": [
                "https://www.quora.com/What-are-the-best-places-to-visit-on-a-3-day-trip-in-and-around-Karnataka"
            ],
            "longitude": "77.5656194",
            "address": "Sharadamba Temple, 7th Main Road, Yediyur, Thyagaraja Nagar, Bengaluru, Bangalore Urban, Karnataka, 560001, India",
            "latitude": "12.9321898",
            "locType": "place_of_worship",
            "closest_to": "udupi"
        },
        "mangalore airport": {
            "blogLinks": [
                "http://www.nivalink.com/destination/udupi",
                "http://www.nivalink.com/destination/manipal"
            ],
            "longitude": "74.887492668144",
            "address": "Mangalore International Airport, Airport Entry Road, Gandhinagar, Kenjar, Mangaluru taluk, Dakshina Kannada, Karnataka, 575015, India",
            "latitude": "12.95518575",
            "locType": "aerodrome",
            "closest_to": "udupi"
        },
        "murudeshwar": {
            "blogLinks": [
                "https://www.quora.com/What-are-the-best-places-to-visit-in-Karnataka-India"
            ],
            "longitude": "74.4883354",
            "address": "Murudeshwara, Bhatkala taluk, Uttara Kannada, Karnataka, 581350, India",
            "latitude": "14.0959549",
            "locType": "town",
            "closest_to": "udupi"
        },
        "madras": {
            "blogLinks": [
                "http://www.holidayiq.com/destinations/mangalore/"
            ],
            "longitude": "77.6449595",
            "address": "Swami Vivekananda Road, Swamy Vivekananda Road (Old Madras Road), Sudgunte Palya, Baiyyappanahalli, Benniganahalli, Bangalore Urban, Karnataka, 560016, India",
            "latitude": "12.9859442",
            "locType": "station",
            "closest_to": "udupi"
        },
        "malaprabha": {
            "blogLinks": [
                "https://www.travelblog.org/Asia/India/Karnataka/Bangalore/Koramangala/blog-914055.html"
            ],
            "longitude": "75.1982668",
            "address": "Malaprabha, Ramadurga taluku, Belgaum district, Karnataka, India",
            "latitude": "15.8914192",
            "locType": "river",
            "closest_to": "udupi"
        },
        "mahadeshwara": {
            "blogLinks": [
                "https://www.quora.com/What-are-the-best-places-to-visit-on-a-3-day-trip-in-and-around-Karnataka"
            ],
            "longitude": "77.6123722",
            "address": "Mahadeshwara Nagara, BTM Layout, Bengaluru, Bangalore Urban, Karnataka, 560001, India",
            "latitude": "12.9076689",
            "locType": "neighbourhood",
            "closest_to": "udupi"
        },
        "kalyani": {
            "blogLinks": [
                "https://en.wikipedia.org/wiki/Bijapur",
                "http://www.mouthshut.com/product-reviews/Bijapur-reviews-925004324"
            ],
            "longitude": "77.6286090192686",
            "address": "Kalyani, Neeladri Road, Electronics City Phase 1, Bettadasana Pura, Bangalore Urban, Karnataka, 560100, India",
            "latitude": "12.8406466",
            "locType": "water",
            "closest_to": "udupi"
        },
        "manipal": {
            "blogLinks": [
                "http://www.nivalink.com/destination/udupi"
            ],
            "longitude": "74.7870308",
            "address": "Manipal, Udupi taluku, Udupi district, Karnataka, India",
            "latitude": "13.3519723",
            "locType": "town",
            "closest_to": "udupi"
        },
        "karanji lake": {
            "blogLinks": [
                "https://www.quora.com/What-are-the-best-places-to-visit-on-a-3-day-trip-in-and-around-Karnataka"
            ],
            "longitude": "77.5474867",
            "address": "Karanji, Aurad taluku, Bidar district, Karnataka, India",
            "latitude": "18.2681849",
            "locType": "village",
            "closest_to": "bijapur"
        },
        "kodasalli dam": {
            "blogLinks": [
                "https://www.quora.com/What-are-the-best-places-to-visit-in-Karnataka-India"
            ],
            "longitude": "74.5353892832085",
            "address": "Kodasalli Dam, Yallapura taluk, Uttara Kannada, Karnataka, India",
            "latitude": "14.91893295",
            "locType": "dam",
            "closest_to": "udupi"
        },
        "tamil nadu": {
            "blogLinks": [
                "https://www.quora.com/What-are-the-best-places-to-visit-on-a-3-day-trip-in-and-around-Karnataka",
                "https://www.travelblog.org/Asia/India/Karnataka/Bangalore/Koramangala/blog-914055.html"
            ],
            "longitude": "76.9514152",
            "address": "KARNATAKA BANK, Diwan Bhadur Road, Five Corner, RS Puram, Coimbatore, Coimbatore district, Tamil Nadu, 641001, India",
            "latitude": "11.0025894",
            "locType": "bank",
            "closest_to": "udupi"
        },
        "ks rao road": {
            "blogLinks": [
                "http://www.holidayiq.com/destinations/mangalore/"
            ],
            "longitude": "74.8418322",
            "address": "Karnad Sadashiva Rao Road, Dongerkeri, Attavar, Mangaluru, Mangaluru taluk, Dakshina Kannada, Karnataka, 575001, India",
            "latitude": "12.8703749",
            "locType": "primary",
            "closest_to": "udupi"
        },
        "kodachadri": {
            "blogLinks": [
                "https://www.quora.com/What-are-the-best-places-to-visit-on-a-3-day-trip-in-and-around-Karnataka"
            ],
            "longitude": "74.8705395",
            "address": "Kodachadri, \u0c95\u0cc1\u0c82\u0ca6\u0cbe\u0caa\u0cc1\u0cb0 \u0ca4\u0cbe\u0cb2\u0cc2\u0c95\u0cc1, Udupi district, Karnataka, India",
            "latitude": "13.8565758",
            "locType": "peak",
            "closest_to": "udupi"
        },
        "dubare": {
            "blogLinks": [
                "https://www.quora.com/What-are-the-best-places-to-visit-in-Karnataka-India"
            ],
            "longitude": "75.9066719",
            "address": "Dubare Elephant Camp, SH91, Dodda Bettageri, Somawarpet taluk, Kodagu, Karnataka, India",
            "latitude": "12.3716865",
            "locType": "attraction",
            "closest_to": "udupi"
        },
        "malpe beach": {
            "blogLinks": [
                "http://www.holidayiq.com/destinations/mangalore/"
            ],
            "longitude": "74.6977767",
            "address": "Malpe Beach, Malpe Road, Adi Udupi, Malpe, Udupi taluku, Udupi district, Karnataka, 576101, India",
            "latitude": "13.3610748",
            "locType": "marina",
            "closest_to": "udupi"
        },
        "tirupati": {
            "blogLinks": [
                "https://www.quora.com/What-are-the-best-places-to-visit-in-Karnataka-India",
                "http://www.holidayiq.com/destinations/mangalore/"
            ],
            "longitude": "76.2727455",
            "address": "Malekallu Tirupathi, Arasikere taluku, Hassan district, Karnataka, India",
            "latitude": "13.3289007",
            "locType": "village",
            "closest_to": "udupi"
        },
        "mangalore": {
            "blogLinks": [
                "https://www.tripoto.com/places-to-visit/india/udupi",
                "https://en.wikipedia.org/wiki/Bijapur",
                "http://www.karnatakatourism.org/",
                "http://www.nivalink.com/destination/udupi",
                "https://www.quora.com/What-are-the-best-places-to-visit-on-a-3-day-trip-in-and-around-Karnataka",
                "http://www.holidayiq.com/destinations/mangalore/",
                "http://journeymart.com/de/india/karnataka/sightseeing/default.aspx",
                "http://www.nivalink.com/destination/manipal",
                "https://www.quora.com/What-are-the-best-places-to-visit-in-Karnataka-India",
                "http://www.fameofcity.com/KARNATAKA/BIJAPUR/"
            ],
            "longitude": "74.8430082",
            "address": "Mangaluru, Mangaluru taluk, Dakshina Kannada, Karnataka, 575001, India",
            "latitude": "12.8698101",
            "locType": "city",
            "closest_to": "udupi"
        },
        "magadi": {
            "blogLinks": [
                "https://www.quora.com/What-are-the-best-places-to-visit-in-Karnataka-India"
            ],
            "longitude": "77.2242281",
            "address": "Magadi, Magadi taluku, Ramanagara district, Karnataka, 562120, India",
            "latitude": "12.9567353",
            "locType": "town",
            "closest_to": "udupi"
        },
        "gurupura": {
            "blogLinks": [
                "https://www.quora.com/What-are-the-best-places-to-visit-on-a-3-day-trip-in-and-around-Karnataka"
            ],
            "longitude": "75.7161587",
            "address": "Gurupura, Tarikere taluku, Chikkamagaluru district, Karnataka, India",
            "latitude": "13.6686411",
            "locType": "village",
            "closest_to": "udupi"
        },
        "halebid": {
            "blogLinks": [
                "http://www.myhappyjourney.com/Karnataka"
            ],
            "longitude": "75.9918793",
            "address": "Halebidu, Beluru taluk, Hassan district, Karnataka, 573121, India",
            "latitude": "13.2167959",
            "locType": "village",
            "closest_to": "udupi"
        },
        "kudagi": {
            "blogLinks": [
                "https://en.wikipedia.org/wiki/Bijapur"
            ],
            "longitude": "75.8299681",
            "address": "Kudagi, Basavana Bagevadi Taluku, Bijapur district, Karnataka, India",
            "latitude": "16.5273458",
            "locType": "village",
            "closest_to": "udupi"
        },
        "bandipur national park": {
            "blogLinks": [
                "https://www.quora.com/What-are-the-best-places-to-visit-on-a-3-day-trip-in-and-around-Karnataka",
                "https://www.quora.com/What-are-the-best-places-to-visit-in-Karnataka-India"
            ],
            "longitude": "76.4314968740264",
            "address": "Bandipur National Park, Kozhikode - Kollegal Highway, Gundlupet taluk, Chamarajanagar district, Karnataka, India",
            "latitude": "11.76682425",
            "locType": "national_park",
            "closest_to": "udupi"
        },
        "chennakeshava": {
            "blogLinks": [
                "https://www.quora.com/What-are-the-best-places-to-visit-on-a-3-day-trip-in-and-around-Karnataka"
            ],
            "longitude": "76.1294164",
            "address": "Chennakeshava Temple, NH73, Arakere, Arasikere taluku, Hassan district, Karnataka, 573112, India",
            "latitude": "13.3748908",
            "locType": "place_of_worship",
            "closest_to": "udupi"
        },
        "india karnataka": {
            "blogLinks": [
                "https://www.quora.com/What-are-the-best-places-to-visit-on-a-3-day-trip-in-and-around-Karnataka",
                "https://www.quora.com/What-are-the-best-places-to-visit-in-Karnataka-India"
            ],
            "longitude": "76.6639936",
            "address": "Karnataka, Shalivahana Road, Nazarbad, Mysuru, Mysuru taluk, Mysuru district, Karnataka, 570001, India",
            "latitude": "12.3084901",
            "locType": "atm",
            "closest_to": "udupi"
        },
        "maravante": {
            "blogLinks": [
                "https://www.quora.com/What-are-the-best-places-to-visit-in-Karnataka-India"
            ],
            "longitude": "74.6428565",
            "address": "Maravante, \u0c95\u0cc1\u0c82\u0ca6\u0cbe\u0caa\u0cc1\u0cb0 \u0ca4\u0cbe\u0cb2\u0cc2\u0c95\u0cc1, Udupi district, Karnataka, India",
            "latitude": "13.7248514",
            "locType": "village",
            "closest_to": "udupi"
        },
        "madabhavi": {
            "blogLinks": [
                "https://en.wikipedia.org/wiki/Bijapur"
            ],
            "longitude": "74.9566919",
            "address": "Madabhavi, Athani taluku, Belgaum district, Karnataka, India",
            "latitude": "16.803471",
            "locType": "village",
            "closest_to": "udupi"
        },
        "khan temple": {
            "blogLinks": [
                "http://travelmasti.com/domestic/karnataka/bijapur.htm"
            ],
            "longitude": "77.5857215958443",
            "address": "Abbas Khan College, Dharmaraya Temple Road, Ganigarpet, Chickpet, Bengaluru, Bangalore Urban, Karnataka, 560001, India",
            "latitude": "12.966133",
            "locType": "college",
            "closest_to": "udupi"
        },
        "karnatka": {
            "blogLinks": [
                "https://en.wikipedia.org/wiki/Bijapur"
            ],
            "longitude": "77.5679508",
            "address": "Karnatka Rajya Kaigarika Sahakari Bank, Bull Temple Road, Mavalli, Chamarajapete, Bengaluru, Bangalore Urban, Karnataka, 560001, India",
            "latitude": "12.9500847",
            "locType": "bank",
            "closest_to": "udupi"
        },
        "bhima": {
            "blogLinks": [
                "https://en.wikipedia.org/wiki/Bijapur"
            ],
            "longitude": "77.6137336",
            "address": "Bhima, Jyoti Nivas College Road, Sadgunte Palya, Koramangala, Bengaluru, Bangalore Urban, Karnataka, 560001, India",
            "latitude": "12.9324841",
            "locType": "jewelry",
            "closest_to": "udupi"
        },
        "bandaje falls": {
            "blogLinks": [
                "https://www.quora.com/What-are-the-best-places-to-visit-in-Karnataka-India"
            ],
            "longitude": "75.3809448",
            "address": "Bandaje to Bandaje falls, Bangadi, Beltangadi taluk, Dakshina Kannada, Karnataka, 574290, India",
            "latitude": "13.0801279",
            "locType": "track",
            "closest_to": "udupi"
        },
        "bengal": {
            "blogLinks": [
                "https://www.travelblog.org/Asia/India/Karnataka/Bangalore/Koramangala/blog-914055.html"
            ],
            "longitude": "77.7517038151245",
            "address": "Bengal Lamps, Konadasapura, Bangalore Urban, Karnataka, 560066, India",
            "latitude": "13.0492646",
            "locType": "industrial",
            "closest_to": "udupi"
        },
        "chamundi hill": {
            "blogLinks": [
                "https://www.quora.com/What-are-the-best-places-to-visit-on-a-3-day-trip-in-and-around-Karnataka"
            ],
            "longitude": "76.6703937",
            "address": "Chamundi Hill, Mysuru, Mysuru taluk, Mysuru district, Karnataka, 570001, India",
            "latitude": "12.2724017",
            "locType": "peak",
            "closest_to": "udupi"
        },
        "malpe": {
            "blogLinks": [
                "https://www.tripoto.com/places-to-visit/india/udupi",
                "https://www.tripoto.com/travel-guide/udupi",
                "http://www.nivalink.com/destination/udupi",
                "https://www.quora.com/What-are-the-best-places-to-visit-on-a-3-day-trip-in-and-around-Karnataka",
                "http://www.holidayiq.com/destinations/mangalore/",
                "https://www.quora.com/What-are-the-best-places-to-visit-in-Karnataka-India"
            ],
            "longitude": "74.7036914",
            "address": "Malpe, Udupi taluku, Udupi district, Karnataka, India",
            "latitude": "13.3507423",
            "locType": "village",
            "closest_to": "udupi"
        },
        "kuvempu": {
            "blogLinks": [
                "https://www.quora.com/What-are-the-best-places-to-visit-on-a-3-day-trip-in-and-around-Karnataka"
            ],
            "longitude": "77.5064032",
            "address": "Kuvempu, Kengeri Main Road, ITI Layout, Jnana Bharathi, Nagadevanahalli, Bangalore Urban, Karnataka, 560056, India",
            "latitude": "12.9560369",
            "locType": "artwork",
            "closest_to": "udupi"
        },
        "gokak": {
            "blogLinks": [
                "https://www.quora.com/What-are-the-best-places-to-visit-on-a-3-day-trip-in-and-around-Karnataka"
            ],
            "longitude": "74.8224338",
            "address": "Gokak, Gokak taluku, Belgaum district, Karnataka, 591307, India",
            "latitude": "16.1693033",
            "locType": "town",
            "closest_to": "udupi"
        },
        "samse": {
            "blogLinks": [
                "https://www.quora.com/What-are-the-best-places-to-visit-in-Karnataka-India"
            ],
            "longitude": "75.3332678",
            "address": "Samse, Mudigere taluk, Chikkamagaluru district, Karnataka, India",
            "latitude": "13.1894244",
            "locType": "village",
            "closest_to": "udupi"
        },
        "gadag": {
            "blogLinks": [
                "https://en.wikipedia.org/wiki/Bijapur",
                "http://www.fameofcity.com/KARNATAKA/BIJAPUR/",
                "http://www.tourism-of-india.com/bijapur/"
            ],
            "longitude": "75.6300786",
            "address": "Gadag, Gadag taluk, Gadag district, Karnataka, 582101, India",
            "latitude": "15.4263647",
            "locType": "town",
            "closest_to": "udupi"
        },
        "nagarhole national park": {
            "blogLinks": [
                "https://www.quora.com/What-are-the-best-places-to-visit-on-a-3-day-trip-in-and-around-Karnataka",
                "http://journeymart.com/de/india/karnataka/sightseeing/default.aspx"
            ],
            "longitude": "76.1537073415874",
            "address": "Nagarahole National Park, Virajpet taluk, Kodagu, Karnataka, India",
            "latitude": "12.0600362",
            "locType": "national_park",
            "closest_to": "udupi"
        },
        "hoysala": {
            "blogLinks": [
                "https://www.quora.com/What-are-the-best-places-to-visit-on-a-3-day-trip-in-and-around-Karnataka"
            ],
            "longitude": "77.6375990817051",
            "address": "Hoysala Nagar, Bengaluru, Bangalore Urban, Karnataka, 560001, India",
            "latitude": "12.97813815",
            "locType": "administrative",
            "closest_to": "udupi"
        },
        "mookambika": {
            "blogLinks": [
                "https://www.quora.com/What-are-the-best-places-to-visit-on-a-3-day-trip-in-and-around-Karnataka"
            ],
            "longitude": "74.8145296",
            "address": "Mukambika Devasthana, NH766C;SH26, Halkal, \u0c95\u0cc1\u0c82\u0ca6\u0cbe\u0caa\u0cc1\u0cb0 \u0ca4\u0cbe\u0cb2\u0cc2\u0c95\u0cc1, Udupi district, Karnataka, 576220, India",
            "latitude": "13.8638043",
            "locType": "place_of_worship",
            "closest_to": "udupi"
        },
        "gokarna": {
            "blogLinks": [
                "https://www.quora.com/What-are-the-best-places-to-visit-in-Karnataka-India"
            ],
            "longitude": "74.3184418",
            "address": "Gokarna, Kumata taluk, Uttara Kannada, Karnataka, 581326, India",
            "latitude": "14.5439629",
            "locType": "town",
            "closest_to": "udupi"
        },
        "panambur": {
            "blogLinks": [
                "https://www.tripoto.com/travel-guide/udupi"
            ],
            "longitude": "74.8031577",
            "address": "Panambur, Mangaluru taluk, Dakshina Kannada, Karnataka, India",
            "latitude": "12.9535736",
            "locType": "village",
            "closest_to": "udupi"
        },
        "kaladagi": {
            "blogLinks": [
                "https://en.wikipedia.org/wiki/Bijapur"
            ],
            "longitude": "75.4996999",
            "address": "Kaladagi, Bagalakote taluk, Bagalkote district, Karnataka, 587204, India",
            "latitude": "16.2071441",
            "locType": "village",
            "closest_to": "udupi"
        },
        "south canara": {
            "blogLinks": [
                "http://www.holidayiq.com/destinations/mangalore/"
            ],
            "longitude": "77.7188315",
            "address": "Chikkabellandur, Bangalore Urban, Karnataka, India",
            "latitude": "12.9228378",
            "locType": "village",
            "closest_to": "udupi"
        },
        "bidar": {
            "blogLinks": [
                "https://www.quora.com/What-are-the-best-places-to-visit-on-a-3-day-trip-in-and-around-Karnataka"
            ],
            "longitude": "77.333333",
            "address": "Bidar, Bidar district, Karnataka, India",
            "latitude": "18.083333",
            "locType": "county",
            "closest_to": "bijapur"
        },
        "somanathapura": {
            "blogLinks": [
                "https://www.quora.com/What-are-the-best-places-to-visit-in-Karnataka-India"
            ],
            "longitude": "77.9957587",
            "address": "Somanathapura, Bagepalli taluk, Chikkaballapura district, Karnataka, India",
            "latitude": "13.75905",
            "locType": "village",
            "closest_to": "udupi"
        },
        "heart lake": {
            "blogLinks": [
                "https://www.quora.com/What-are-the-best-places-to-visit-on-a-3-day-trip-in-and-around-Karnataka"
            ],
            "longitude": "77.6033149073313",
            "address": "Sacred Heart Cemetry, Shanti Nagar, Bengaluru, Bangalore Urban, Karnataka, 560001, India",
            "latitude": "12.9542916",
            "locType": "cemetery",
            "closest_to": "udupi"
        },
        "markandeya river": {
            "blogLinks": [
                "https://www.quora.com/What-are-the-best-places-to-visit-on-a-3-day-trip-in-and-around-Karnataka"
            ],
            "longitude": "74.5774895",
            "address": "Markandeya, Belagavi taluku, Belgaum district, Karnataka, India",
            "latitude": "15.9707453",
            "locType": "river",
            "closest_to": "udupi"
        },
        "daria daulat gardens": {
            "blogLinks": [
                "https://www.quora.com/What-are-the-best-places-to-visit-on-a-3-day-trip-in-and-around-Karnataka"
            ],
            "longitude": "76.6969039957315",
            "address": "Daria Daulat Bagh Museum, Bangalore-Mysore Road, Srirangapatna, Srirangapattana taluk, Mandya district, Karnataka, 571438, India",
            "latitude": "12.4200182",
            "locType": "museum",
            "closest_to": "udupi"
        },
        "doni": {
            "blogLinks": [
                "https://en.wikipedia.org/wiki/Bijapur"
            ],
            "longitude": "75.9361533",
            "address": "Doni, Basavana Bagevadi Taluku, Bijapur district, Karnataka, India",
            "latitude": "16.743598",
            "locType": "river",
            "closest_to": "udupi"
        },
        "goa": {
            "blogLinks": [
                "http://travelmasti.com/domestic/karnataka/bijapur.htm"
            ],
            "longitude": "77.6200027",
            "address": "Carnival De Goa, Bhaskaran Road, Gupta Layout, Halasuru, Bengaluru, Bangalore Urban, Karnataka, 560001, India",
            "latitude": "12.9750047",
            "locType": "restaurant",
            "closest_to": "udupi"
        },
        "bannerghatta national park": {
            "blogLinks": [
                "https://www.quora.com/What-are-the-best-places-to-visit-in-Karnataka-India"
            ],
            "longitude": "77.5722783830694",
            "address": "Bannerghatta National Park, Anekal Road, Begihalli, Bangalore Urban, Karnataka, 560076, India",
            "latitude": "12.77900335",
            "locType": "national_park",
            "closest_to": "udupi"
        },
        "sharavati": {
            "blogLinks": [
                "https://www.quora.com/What-are-the-best-places-to-visit-on-a-3-day-trip-in-and-around-Karnataka"
            ],
            "longitude": "74.7647294",
            "address": "Sharavati, Sagara taluk, Shimoga district, Karnataka, India",
            "latitude": "14.2360979",
            "locType": "river",
            "closest_to": "udupi"
        },
        "nataraja": {
            "blogLinks": [
                "https://www.quora.com/What-are-the-best-places-to-visit-on-a-3-day-trip-in-and-around-Karnataka",
                "https://www.travelblog.org/Asia/India/Karnataka/Bangalore/Koramangala/blog-914055.html"
            ],
            "longitude": "77.5730381173154",
            "address": "Nataraja, Sirur Park Road, Vyalikaval, Seshadripuram, Bengaluru, Bangalore Urban, Karnataka, 560001, India",
            "latitude": "12.9900332",
            "locType": "cinema",
            "closest_to": "udupi"
        },
        "kerala": {
            "blogLinks": [
                "https://www.tripoto.com/places-to-visit/india/udupi",
                "https://www.tripoto.com/travel-guide/udupi",
                "https://www.quora.com/What-are-the-best-places-to-visit-on-a-3-day-trip-in-and-around-Karnataka",
                "http://www.holidayiq.com/destinations/mangalore/",
                "http://journeymart.com/de/india/karnataka/sightseeing/default.aspx",
                "https://www.quora.com/What-are-the-best-places-to-visit-in-Karnataka-India"
            ],
            "longitude": "77.6382683",
            "address": "New Life Kerala Mess, Sai Baba Mandira Road, Mottappanapalaya, Indiranagar, Bengaluru, Bangalore Urban, Karnataka, 560001, India",
            "latitude": "12.9726449",
            "locType": "restaurant",
            "closest_to": "udupi"
        },
        "indi": {
            "blogLinks": [
                "https://en.wikipedia.org/wiki/Bijapur"
            ],
            "longitude": "75.7223521",
            "address": "Karnataka, India",
            "latitude": "14.5203896",
            "locType": "administrative",
            "closest_to": "udupi"
        },
        "nandi temple": {
            "blogLinks": [
                "https://en.wikipedia.org/wiki/Bijapur"
            ],
            "longitude": "77.6837645360405",
            "address": "Nandi temple, Nandi Hill Road, Kuduvati, Chikkaballapura taluk, Chikkaballapura district, Karnataka, India",
            "latitude": "13.3686043",
            "locType": "place_of_worship",
            "closest_to": "udupi"
        },
        "kalyan": {
            "blogLinks": [
                "https://www.quora.com/What-are-the-best-places-to-visit-on-a-3-day-trip-in-and-around-Karnataka"
            ],
            "longitude": "77.6403368",
            "address": "Kalyan Nagar, Chelekere, Bangalore Urban, Karnataka, India",
            "latitude": "13.0221416",
            "locType": "suburb",
            "closest_to": "udupi"
        },
        "mahakali temple": {
            "blogLinks": [
                "http://www.nivalink.com/destination/udupi",
                "http://www.nivalink.com/destination/manipal"
            ],
            "longitude": "74.7307174382814",
            "address": "Mahakali and Janardhana Temple, Mahakali Marga, Ambalapadi, Udupi, Udupi taluku, Udupi district, Karnataka, 576101, India",
            "latitude": "13.3371922",
            "locType": "place_of_worship",
            "closest_to": "udupi"
        },
        "hampi": {
            "blogLinks": [
                "http://www.myhappyjourney.com/Karnataka",
                "https://www.quora.com/What-are-the-best-places-to-visit-on-a-3-day-trip-in-and-around-Karnataka",
                "http://journeymart.com/de/india/karnataka/sightseeing/default.aspx",
                "https://www.quora.com/What-are-the-best-places-to-visit-in-Karnataka-India"
            ],
            "longitude": "76.4606199",
            "address": "Hampe, Hosapete taluk, Bellary district, Karnataka, 583239, India",
            "latitude": "15.3359769",
            "locType": "village",
            "closest_to": "udupi"
        },
        "grs fantasy park": {
            "blogLinks": [
                "https://www.quora.com/What-are-the-best-places-to-visit-on-a-3-day-trip-in-and-around-Karnataka"
            ],
            "longitude": "76.6338102194966",
            "address": "GRS Fantasy Park, Ring Road, Kumbara Koppalu, Metagalli Industrial Area, Mysuru, Mysuru taluk, Mysuru district, Karnataka, 570001, India",
            "latitude": "12.3540981",
            "locType": "theme_park",
            "closest_to": "udupi"
        },
        "gulbarga district": {
            "blogLinks": [
                "http://www.fameofcity.com/KARNATAKA/BIJAPUR/"
            ],
            "longitude": "77.083333",
            "address": "Kalaburgi, Kalaburagi district, Karnataka, India",
            "latitude": "17.166667",
            "locType": "county",
            "closest_to": "bijapur"
        },
        "lord shiva": {
            "blogLinks": [
                "https://www.quora.com/What-are-the-best-places-to-visit-on-a-3-day-trip-in-and-around-Karnataka"
            ],
            "longitude": "77.6024995",
            "address": "Lord Shiva Temple, Marenahalli Road (South End), MICO Layout, BTM Layout, Bengaluru, Bangalore Urban, Karnataka, 560001, India",
            "latitude": "12.916875",
            "locType": "place_of_worship",
            "closest_to": "udupi"
        },
        "kundapura": {
            "blogLinks": [
                "http://www.nivalink.com/destination/udupi",
                "http://www.nivalink.com/destination/manipal"
            ],
            "longitude": "74.6915722",
            "address": "Kundapura, \u0c95\u0cc1\u0c82\u0ca6\u0cbe\u0caa\u0cc1\u0cb0 \u0ca4\u0cbe\u0cb2\u0cc2\u0c95\u0cc1, Udupi district, Karnataka, 576200, India",
            "latitude": "13.6250993",
            "locType": "town",
            "closest_to": "udupi"
        },
        "kusha garden": {
            "blogLinks": [
                "https://www.quora.com/What-are-the-best-places-to-visit-on-a-3-day-trip-in-and-around-Karnataka"
            ],
            "longitude": "76.6283545564802",
            "address": "Lava Kusha Park, Lalitadri Road, Kuvempunagara, Mysuru, Mysuru taluk, Mysuru district, Karnataka, 570001, India",
            "latitude": "12.2905505",
            "locType": "park",
            "closest_to": "udupi"
        },
        "western india": {
            "blogLinks": [
                "http://www.tourism-of-india.com/bijapur/"
            ],
            "longitude": "75.1458521440593",
            "address": "South Western Railways Offices, Kamaripet, Hubballi - \u0cb9\u0cc1\u0cac\u0ccd\u0cac\u0cb3\u0ccd\u0cb3\u0cbf, Hubballi taluku, Dharwad district, Karnataka, 580020, India",
            "latitude": "15.35527435",
            "locType": "commercial",
            "closest_to": "udupi"
        },
        "silicon valley": {
            "blogLinks": [
                "http://www.myhappyjourney.com/Karnataka"
            ],
            "longitude": "77.6053133563105",
            "address": "RK Estates : Silicon Valley Layout, Vidyanagar, Bengaluru, Bangalore Urban, Karnataka, 560001, India",
            "latitude": "13.1650062",
            "locType": "residential",
            "closest_to": "udupi"
        },
        "botanical garden": {
            "blogLinks": [
                "https://www.quora.com/What-are-the-best-places-to-visit-on-a-3-day-trip-in-and-around-Karnataka"
            ],
            "longitude": "77.5744817798899",
            "address": "Botanical Garden, Cart road, Judicial Layout, Jakkur, Bangalore Urban, Karnataka, 560065, India",
            "latitude": "13.08099125",
            "locType": "protected_area",
            "closest_to": "udupi"
        },
        "iceland": {
            "blogLinks": [
                "https://www.tripoto.com/places-to-visit/india/udupi"
            ],
            "longitude": "76.3885296",
            "address": "Iceland, Sardar Patel Road, Hosapete, Hosapete taluk, Bellary district, Karnataka, 583200, India",
            "latitude": "15.2760556",
            "locType": "restaurant",
            "closest_to": "udupi"
        },
        "annapoorneshwari temple": {
            "blogLinks": [
                "http://www.nivalink.com/destination/udupi",
                "https://www.quora.com/What-are-the-best-places-to-visit-in-Karnataka-India"
            ],
            "longitude": "74.9006001",
            "address": "Sri Ambika Annapoorneshwari Temple, SH101, Sunkadakatte, Mangaluru taluk, Dakshina Kannada, Karnataka, India",
            "latitude": "12.97910715",
            "locType": "place_of_worship",
            "closest_to": "udupi"
        },
        "kuppali": {
            "blogLinks": [
                "https://www.quora.com/What-are-the-best-places-to-visit-on-a-3-day-trip-in-and-around-Karnataka"
            ],
            "longitude": "75.3158067",
            "address": "Kuppali Road, Kuppalli, Tirthahalli taluk, Shimoga district, Karnataka, India",
            "latitude": "13.5998255",
            "locType": "tertiary",
            "closest_to": "udupi"
        },
        "tagore": {
            "blogLinks": [
                "https://www.quora.com/What-are-the-best-places-to-visit-on-a-3-day-trip-in-and-around-Karnataka"
            ],
            "longitude": "77.595715",
            "address": "Rabindranath Tagore Nagar, Bengaluru, Bangalore Urban, Karnataka, 560001, India",
            "latitude": "13.0227204",
            "locType": "suburb",
            "closest_to": "udupi"
        },
        "delhi": {
            "blogLinks": [
                "https://en.wikipedia.org/wiki/Bijapur",
                "http://www.tourism-of-india.com/bijapur/"
            ],
            "longitude": "77.6666062",
            "address": "Outer Ring Road, Green Glen Layout, Iblur, Bengaluru, Bangalore Urban, Karnataka, 560001, India",
            "latitude": "12.9212473",
            "locType": "trunk",
            "closest_to": "udupi"
        },
        "silent valley": {
            "blogLinks": [
                "https://www.quora.com/What-are-the-best-places-to-visit-on-a-3-day-trip-in-and-around-Karnataka"
            ],
            "longitude": "76.5819054",
            "address": "Silent Shores Resort, Krishnaraja Sagara Road, Kurgalli, Bastipura, Srirangapattana taluk, Mandya district, Karnataka, 570027, India",
            "latitude": "12.3459371",
            "locType": "hotel",
            "closest_to": "udupi"
        },
        "solapur": {
            "blogLinks": [
                "https://en.wikipedia.org/wiki/Bijapur",
                "http://www.fameofcity.com/KARNATAKA/BIJAPUR/"
            ],
            "longitude": "76.6763291",
            "address": "Gulbarga - Solapur Highway, Chikka Gobbura, Afzalpura taluku, Kalaburagi district, Karnataka, 585265, India",
            "latitude": "17.269752",
            "locType": "trunk",
            "closest_to": "bijapur"
        },
        "uttara kannada": {
            "blogLinks": [
                "https://www.quora.com/What-are-the-best-places-to-visit-on-a-3-day-trip-in-and-around-Karnataka"
            ],
            "longitude": "74.4729163045979",
            "address": "Uttara Kannada, Karnataka, India",
            "latitude": "14.6726379",
            "locType": "administrative",
            "closest_to": "udupi"
        },
        "new city": {
            "blogLinks": [
                "https://en.wikipedia.org/wiki/Bijapur"
            ],
            "longitude": "77.6736268",
            "address": "New City Super Market, Kaggadasspura Main Road, Putanna Garden, C V Raman Nagar, A Narayanapura, Bangalore Urban, Karnataka, 560093, India",
            "latitude": "12.9851864",
            "locType": "supermarket",
            "closest_to": "udupi"
        },
        "karkala": {
            "blogLinks": [
                "http://www.nivalink.com/destination/udupi",
                "https://www.quora.com/What-are-the-best-places-to-visit-on-a-3-day-trip-in-and-around-Karnataka",
                "https://www.quora.com/What-are-the-best-places-to-visit-in-Karnataka-India"
            ],
            "longitude": "74.9959586",
            "address": "Karkala, Karkala taluk, Udupi district, Karnataka, 574104, India",
            "latitude": "13.2112826",
            "locType": "town",
            "closest_to": "udupi"
        },
        "kalaburgi": {
            "blogLinks": [
                "https://en.wikipedia.org/wiki/Bijapur"
            ],
            "longitude": "77.083333",
            "address": "Kalaburgi, Kalaburagi district, Karnataka, India",
            "latitude": "17.166667",
            "locType": "county",
            "closest_to": "bijapur"
        },
        "almatti dam": {
            "blogLinks": [
                "https://www.travelblog.org/Asia/India/Karnataka/Bangalore/Koramangala/blog-914055.html",
                "http://www.holidayiq.com/Bijapur-Sightseeing-646.html"
            ],
            "longitude": "75.9517801",
            "address": "Almatti Left Bank Canal, Basavana Bagevadi Taluku, Bijapur district, Karnataka, India",
            "latitude": "16.3648934",
            "locType": "canal",
            "closest_to": "udupi"
        },
        "north-west of karnataka": {
            "blogLinks": [
                "http://www.indiamike.com/india/karnataka-f38/places-to-visit-in-karnataka-t164263/"
            ],
            "longitude": "77.7660547",
            "address": "N, Chaithanya Samarpan, Kadugodi, Kannamangala, Bangalore Urban, Karnataka, 560066, India",
            "latitude": "13.0217151",
            "locType": "service",
            "closest_to": "udupi"
        },
        "banavasi": {
            "blogLinks": [
                "https://www.quora.com/What-are-the-best-places-to-visit-on-a-3-day-trip-in-and-around-Karnataka",
                "http://www.indiamike.com/india/karnataka-f38/places-to-visit-in-karnataka-t164263/"
            ],
            "longitude": "75.0129845",
            "address": "Banavasi, Shirasi taluk, Uttara Kannada, Karnataka, India",
            "latitude": "14.5389738",
            "locType": "town",
            "closest_to": "udupi"
        },
        "kozhikode": {
            "blogLinks": [
                "https://www.tripoto.com/places-to-visit/india/udupi",
                "https://www.quora.com/What-are-the-best-places-to-visit-in-Karnataka-India"
            ],
            "longitude": "76.6598864",
            "address": "Kozhikode - Kollegal Highway, Ittigegudu, Mysuru, Mysuru taluk, Mysuru district, Karnataka, 570001, India",
            "latitude": "12.2926117",
            "locType": "primary",
            "closest_to": "udupi"
        },
        "veera narayana temple": {
            "blogLinks": [
                "https://www.quora.com/What-are-the-best-places-to-visit-on-a-3-day-trip-in-and-around-Karnataka"
            ],
            "longitude": "75.9953525",
            "address": "Veera Narayana Temple, Chikmagalur Javagal Road, Narasipura, Chikkamagaluru taluku, Chikkamagaluru district, Karnataka, India",
            "latitude": "13.2821212",
            "locType": "place_of_worship",
            "closest_to": "udupi"
        },
        "bombay": {
            "blogLinks": [
                "https://en.wikipedia.org/wiki/Bijapur"
            ],
            "longitude": "77.5500256",
            "address": "Bombay tea hotel, Hosahalli Main Road, Rajajinagar 6th Block, Goripalya, Bengaluru, Bangalore Urban, Karnataka, 560001, India",
            "latitude": "12.9632318",
            "locType": "cafe",
            "closest_to": "udupi"
        },
        "kenya": {
            "blogLinks": [
                "http://www.fameofcity.com/KARNATAKA/BIJAPUR/"
            ],
            "longitude": "75.5001151",
            "address": "Kenya, Sulya taluk, Dakshina Kannada, Karnataka, India",
            "latitude": "12.6920464",
            "locType": "hamlet",
            "closest_to": "udupi"
        },
        "iruppu falls": {
            "blogLinks": [
                "https://www.quora.com/What-are-the-best-places-to-visit-on-a-3-day-trip-in-and-around-Karnataka"
            ],
            "longitude": "75.9839484",
            "address": "Iruppu Falls, SH89, Taila, Virajpet taluk, Kodagu, Karnataka, 571217, India",
            "latitude": "11.9667954",
            "locType": "attraction",
            "closest_to": "udupi"
        },
        "kalaseshwara temple": {
            "blogLinks": [
                "http://www.nivalink.com/destination/udupi",
                "http://www.nivalink.com/destination/manipal"
            ],
            "longitude": "75.363446975",
            "address": "Kalaseshwara Temple, SH66, Kalasa, Mudigere taluk, Chikkamagaluru district, Karnataka, 577124, India",
            "latitude": "13.23228505",
            "locType": "place_of_worship",
            "closest_to": "udupi"
        },
        "belgaum district": {
            "blogLinks": [
                "http://www.fameofcity.com/KARNATAKA/BIJAPUR/"
            ],
            "longitude": "74.8896592460527",
            "address": "Belgaum district, Karnataka, India",
            "latitude": "16.1631253",
            "locType": "administrative",
            "closest_to": "udupi"
        },
        "tunga": {
            "blogLinks": [
                "https://www.quora.com/What-are-the-best-places-to-visit-on-a-3-day-trip-in-and-around-Karnataka"
            ],
            "longitude": "75.3221835",
            "address": "Tunga, Tirthahalli taluk, Shimoga district, Karnataka, India",
            "latitude": "13.6632221",
            "locType": "river",
            "closest_to": "udupi"
        },
        "kali river": {
            "blogLinks": [
                "https://www.quora.com/What-are-the-best-places-to-visit-on-a-3-day-trip-in-and-around-Karnataka"
            ],
            "longitude": "74.5802901",
            "address": "Kali, Joida taluk, Uttara Kannada, Karnataka, India",
            "latitude": "15.0145378",
            "locType": "river",
            "closest_to": "udupi"
        },
        "mumbai": {
            "blogLinks": [
                "https://www.tripoto.com/travel-guide/udupi",
                "https://en.wikipedia.org/wiki/Bijapur",
                "http://travelmasti.com/domestic/karnataka/bijapur.htm",
                "http://www.fameofcity.com/KARNATAKA/BIJAPUR/",
                "http://www.tourism-of-india.com/bijapur/"
            ],
            "longitude": "77.5718472",
            "address": "Mumbai Spice, 18/2, 10th Cross, Malleswaram, Vyalikaval, Malleswaram, Bengaluru, Bangalore Urban, Karnataka, 560003, India",
            "latitude": "13.0002869",
            "locType": "restaurant",
            "closest_to": "udupi"
        },
        "london": {
            "blogLinks": [
                "https://en.wikipedia.org/wiki/Bijapur"
            ],
            "longitude": "75.7223521",
            "address": "Karnataka, India",
            "latitude": "14.5203896",
            "locType": "administrative",
            "closest_to": "udupi"
        },
        "vedanta": {
            "blogLinks": [
                "http://www.holidayiq.com/destinations/mangalore/"
            ],
            "longitude": "77.5810054",
            "address": "Vedanta Mandir Road, Yediyur, Basavanagudi, Bengaluru, Bangalore Urban, Karnataka, 560001, India",
            "latitude": "12.9376453",
            "locType": "residential",
            "closest_to": "udupi"
        },
        "srirangapatna": {
            "blogLinks": [
                "https://www.quora.com/What-are-the-best-places-to-visit-in-Karnataka-India",
                "http://www.indiamike.com/india/karnataka-f38/places-to-visit-in-karnataka-t164263/"
            ],
            "longitude": "76.6850743",
            "address": "Srirangapatna, Srirangapattana taluk, Mandya district, Karnataka, 571438, India",
            "latitude": "12.4225604",
            "locType": "town",
            "closest_to": "udupi"
        },
        "pattadakal": {
            "blogLinks": [
                "http://www.myhappyjourney.com/Karnataka",
                "http://journeymart.com/de/india/karnataka/sightseeing/default.aspx",
                "https://www.travelblog.org/Asia/India/Karnataka/Bangalore/Koramangala/blog-914055.html",
                "https://en.wikipedia.org/wiki/Bijapur",
                "http://travelmasti.com/domestic/karnataka/bijapur.htm"
            ],
            "longitude": "75.815884048161",
            "address": "Pattadakal Temples, SH14, \u0cac\u0cbe\u0c9a\u0cbf\u0ca8\u0c97\u0cc1\u0ca1\u0ccd\u0ca1, Badami taluku, Bagalkote district, Karnataka, 587211, India",
            "latitude": "15.9506349",
            "locType": "attraction",
            "closest_to": "udupi"
        },
        "maharashtra": {
            "blogLinks": [
                "https://www.travelblog.org/Asia/India/Karnataka/Bangalore/Koramangala/blog-914055.html",
                "https://en.wikipedia.org/wiki/Bijapur",
                "http://www.fameofcity.com/KARNATAKA/BIJAPUR/",
                "http://www.tourism-of-india.com/bijapur/"
            ],
            "longitude": "77.5856013",
            "address": "Bank of Maharashtra, 24th Main, K R Layout, Puttenahalli, Bengaluru, Bangalore Urban, Karnataka, 560001, India",
            "latitude": "12.9049455",
            "locType": "bank",
            "closest_to": "udupi"
        },
        "udupi krishna temple": {
            "blogLinks": [
                "http://www.nivalink.com/destination/udupi"
            ],
            "longitude": "74.7520421",
            "address": "Sri Krishna Temple Udupi, Rathabidi, Indiranagara, Udupi, Udupi taluku, Udupi district, Karnataka, 576101, India",
            "latitude": "13.341185",
            "locType": "place_of_worship",
            "closest_to": "udupi"
        },
        "mahabaleshwara": {
            "blogLinks": [
                "https://www.quora.com/What-are-the-best-places-to-visit-on-a-3-day-trip-in-and-around-Karnataka"
            ],
            "longitude": "77.5899749843004",
            "address": "Mahabaleshwara Temple, Mission Road (Kalinga Rao Road ), Sampangirama Nagar, Shanti Nagar, Bengaluru, Bangalore Urban, Karnataka, 560001, India",
            "latitude": "12.96264945",
            "locType": "place_of_worship",
            "closest_to": "udupi"
        },
        "tannirbhavi": {
            "blogLinks": [
                "http://www.holidayiq.com/destinations/mangalore/"
            ],
            "longitude": "74.8132559697314",
            "address": "Tannirbhavi Beach, Matadakani Road, Bokkapatna, Kudroli, Mangaluru, Mangaluru taluk, Dakshina Kannada, Karnataka, 575001, India",
            "latitude": "12.8953559",
            "locType": "beach",
            "closest_to": "udupi"
        },
        "gulbarga": {
            "blogLinks": [
                "http://www.tourism-of-india.com/bijapur/",
                "https://www.quora.com/What-are-the-best-places-to-visit-on-a-3-day-trip-in-and-around-Karnataka",
                "https://en.wikipedia.org/wiki/Bijapur",
                "http://www.holidayiq.com/Bijapur-Sightseeing-646.html"
            ],
            "longitude": "77.083333",
            "address": "Kalaburgi, Kalaburagi district, Karnataka, India",
            "latitude": "17.166667",
            "locType": "county",
            "closest_to": "bijapur"
        },
        "dharwad": {
            "blogLinks": [
                "https://en.wikipedia.org/wiki/Bijapur",
                "http://www.fameofcity.com/KARNATAKA/BIJAPUR/"
            ],
            "longitude": "75.0066516",
            "address": "Dharwad, Dharawada taluku, Dharwad district, Karnataka, 580001, India",
            "latitude": "15.4540505",
            "locType": "city",
            "closest_to": "udupi"
        },
        "mullayanagiri range": {
            "blogLinks": [
                "https://www.quora.com/What-are-the-best-places-to-visit-on-a-3-day-trip-in-and-around-Karnataka"
            ],
            "longitude": "75.7214034",
            "address": "Mullayyanagiri, Chikkamagaluru, Chikkamagaluru taluku, Chikkamagaluru district, Karnataka, 577101, India",
            "latitude": "13.3909217",
            "locType": "peak",
            "closest_to": "udupi"
        },
        "bellary": {
            "blogLinks": [
                "https://en.wikipedia.org/wiki/Bijapur",
                "http://www.fameofcity.com/KARNATAKA/BIJAPUR/"
            ],
            "longitude": "76.8323648",
            "address": "Bellary, Bellary district, Karnataka, India",
            "latitude": "15.2485413",
            "locType": "county",
            "closest_to": "udupi"
        },
        "kanakapura": {
            "blogLinks": [
                "https://www.quora.com/What-are-the-best-places-to-visit-in-Karnataka-India"
            ],
            "longitude": "77.4199095",
            "address": "Kanakapura, Kanakapura taluk, Ramanagara district, Karnataka, 562117, India",
            "latitude": "12.5450268",
            "locType": "town",
            "closest_to": "udupi"
        },
        "gol gumbaz": {
            "blogLinks": [
                "https://en.wikipedia.org/wiki/Bijapur",
                "http://www.tourism-of-india.com/bijapur/"
            ],
            "longitude": "75.7360929",
            "address": "Gol Gumbaz, Station Road, Ibrahimpura, Vijayapura, Vijayapura taluk, Bijapur district, Karnataka, 586101, India",
            "latitude": "16.8300223",
            "locType": "attraction",
            "closest_to": "bijapur"
        },
        "ananthapadmanabha": {
            "blogLinks": [
                "https://www.quora.com/What-are-the-best-places-to-visit-on-a-3-day-trip-in-and-around-Karnataka"
            ],
            "longitude": "74.8937899082456",
            "address": "Kudupu Ananthapadmanabha Temple, Solapur-Mangalore Highway, Shakthinagar, Kulashekara, Kudupu, Mangaluru taluk, Dakshina Kannada, Karnataka, 575007, India",
            "latitude": "12.9039019",
            "locType": "place_of_worship",
            "closest_to": "udupi"
        },
        "brahmagiri range": {
            "blogLinks": [
                "https://www.quora.com/What-are-the-best-places-to-visit-on-a-3-day-trip-in-and-around-Karnataka",
                "https://www.tripoto.com/travel-guide/udupi"
            ],
            "longitude": "76.8122474",
            "address": "Brahmagiri Betta, Molakalmuru taluku, Chitradurga district, Karnataka, India",
            "latitude": "14.8001586",
            "locType": "peak",
            "closest_to": "udupi"
        },
        "mandovi": {
            "blogLinks": [
                "https://www.quora.com/What-are-the-best-places-to-visit-on-a-3-day-trip-in-and-around-Karnataka"
            ],
            "longitude": "77.6190505",
            "address": "Mandovi Motors, Wheeler Road Flyover, MSO Colony, Cox Town, Bengaluru, Bangalore Urban, Karnataka, 560001, India",
            "latitude": "12.9965335",
            "locType": "car",
            "closest_to": "udupi"
        },
        "mysuru": {
            "blogLinks": [
                "https://en.wikipedia.org/wiki/Bijapur"
            ],
            "longitude": "76.6553609",
            "address": "Mysuru, Mysuru taluk, Mysuru district, Karnataka, 570001, India",
            "latitude": "12.3051828",
            "locType": "city",
            "closest_to": "udupi"
        },
        "west coast": {
            "blogLinks": [
                "https://en.wikipedia.org/wiki/Bijapur"
            ],
            "longitude": "75.1129163",
            "address": "The Coast, R N Shetty Road, Chetana Colony, Padmaraj Nagar, Hubballi - \u0cb9\u0cc1\u0cac\u0ccd\u0cac\u0cb3\u0ccd\u0cb3\u0cbf, Hubballi taluku, Dharwad district, Karnataka, 580020, India",
            "latitude": "15.3485904",
            "locType": "restaurant",
            "closest_to": "udupi"
        },
        "kankanady": {
            "blogLinks": [
                "http://www.holidayiq.com/destinations/mangalore/"
            ],
            "longitude": "74.8600033",
            "address": "Kankanady, Mangaluru, Mangaluru taluk, Dakshina Kannada, Karnataka, 575001, India",
            "latitude": "12.8646481",
            "locType": "suburb",
            "closest_to": "udupi"
        },
        "golden temple": {
            "blogLinks": [
                "https://www.quora.com/What-are-the-best-places-to-visit-on-a-3-day-trip-in-and-around-Karnataka"
            ],
            "longitude": "75.9674656",
            "address": "Padmasambhava Buddhist Vihara (Golden Temple), MDR21, Koppa, Piriyapattana taluk, Mysuru district, Karnataka, India",
            "latitude": "12.430821",
            "locType": "place_of_worship",
            "closest_to": "udupi"
        },
        "kasargod": {
            "blogLinks": [
                "http://www.holidayiq.com/destinations/mangalore/"
            ],
            "longitude": "74.8585848",
            "address": "Mangaluru-Kasargod Highway, Bolar, Thokkottu, Mangaluru taluk, Dakshina Kannada, Karnataka, 574159, India",
            "latitude": "12.8107348",
            "locType": "trunk",
            "closest_to": "udupi"
        },
        "ocean": {
            "blogLinks": [
                "https://www.quora.com/What-are-the-best-places-to-visit-on-a-3-day-trip-in-and-around-Karnataka",
                "http://www.holidayiq.com/destinations/mangalore/"
            ],
            "longitude": "77.7178261979437",
            "address": "Gayatri Ocean Blue Apartments, Thubarahalli, Siddapura, Bangalore Urban, Karnataka, 560066, India",
            "latitude": "12.95490595",
            "locType": "residential",
            "closest_to": "udupi"
        },
        "bellary road": {
            "blogLinks": [
                "https://www.quora.com/What-are-the-best-places-to-visit-in-Karnataka-India"
            ],
            "longitude": "77.5915237",
            "address": "Bellary Road, Kanaka Nagar, Hebbal, Bengaluru, Bangalore Urban, Karnataka, 560001, India",
            "latitude": "13.0465345",
            "locType": "trunk",
            "closest_to": "udupi"
        },
        "karnatak state": {
            "blogLinks": [
                "https://en.wikipedia.org/wiki/Bijapur"
            ],
            "longitude": "77.5866552",
            "address": "Karnatak State Tourism Development Corporation - KSTDC, Proposed Hudson Cricle - Minerva Circle Flyover, Ganigarpet, Kalasipalya, Bengaluru, Bangalore Urban, Karnataka, 560001, India",
            "latitude": "12.9661723",
            "locType": "government",
            "closest_to": "udupi"
        },
        "kalasa": {
            "blogLinks": [
                "https://www.quora.com/What-are-the-best-places-to-visit-in-Karnataka-India"
            ],
            "longitude": "75.3582366",
            "address": "Kalasa, Mudigere taluk, Chikkamagaluru district, Karnataka, 577124, India",
            "latitude": "13.2322235",
            "locType": "town",
            "closest_to": "udupi"
        },
        "india": {
            "blogLinks": [
                "https://www.travelblog.org/Asia/India/Karnataka/Bangalore/Koramangala/blog-914055.html",
                "https://en.wikipedia.org/wiki/Bijapur",
                "http://travelmasti.com/domestic/karnataka/bijapur.htm",
                "http://www.myhappyjourney.com/Karnataka",
                "http://www.nivalink.com/destination/udupi",
                "https://www.quora.com/What-are-the-best-places-to-visit-on-a-3-day-trip-in-and-around-Karnataka",
                "http://www.tourism-of-india.com/bijapur/",
                "http://www.holidayiq.com/destinations/mangalore/",
                "https://www.quora.com/What-are-the-best-places-to-visit-in-Karnataka-India",
                "http://www.fameofcity.com/KARNATAKA/BIJAPUR/"
            ],
            "longitude": "75.7223521",
            "address": "Karnataka, India",
            "latitude": "14.5203896",
            "locType": "administrative",
            "closest_to": "udupi"
        },
        "mangalore railway station": {
            "blogLinks": [
                "http://www.nivalink.com/destination/udupi",
                "http://www.nivalink.com/destination/manipal"
            ],
            "longitude": "74.8680725",
            "address": "Hotels in Mangalore Near Railway Station  (Reiseb\u00fcro ), SH67, Gandhinagar, Kenjar, Mangaluru taluk, Dakshina Kannada, Karnataka, 575015, India",
            "latitude": "12.9519663",
            "locType": "travel_agent",
            "closest_to": "udupi"
        },
        "bijapur": {
            "blogLinks": [
                "https://www.travelblog.org/Asia/India/Karnataka/Bangalore/Koramangala/blog-914055.html",
                "https://en.wikipedia.org/wiki/Bijapur",
                "http://travelmasti.com/domestic/karnataka/bijapur.htm",
                "http://www.holidayiq.com/Bijapur-Sightseeing-646.html",
                "http://www.mouthshut.com/product-reviews/Bijapur-reviews-925004324",
                "http://www.myhappyjourney.com/Karnataka",
                "http://www.nivalink.com/destination/udupi",
                "https://www.quora.com/What-are-the-best-places-to-visit-on-a-3-day-trip-in-and-around-Karnataka",
                "http://www.tourism-of-india.com/bijapur/",
                "http://journeymart.com/de/india/karnataka/sightseeing/default.aspx",
                "https://www.quora.com/What-are-the-best-places-to-visit-in-Karnataka-India",
                "http://www.fameofcity.com/KARNATAKA/BIJAPUR/"
            ],
            "longitude": "75.7175387",
            "address": "Vijayapura, Vijayapura taluk, Bijapur district, Karnataka, 586101, India",
            "latitude": "16.8269911",
            "locType": "city",
            "closest_to": "udupi"
        },
        "urdu": {
            "blogLinks": [
                "http://www.holidayiq.com/destinations/mangalore/"
            ],
            "longitude": "75.636575371858",
            "address": "Urdu Ground, Ranebennur, Ranebennuru taluk, Haveri district, Karnataka, 581115, India",
            "latitude": "14.6180369",
            "locType": "recreation_ground",
            "closest_to": "udupi"
        },
        "sakleshpur": {
            "blogLinks": [
                "https://www.quora.com/What-are-the-best-places-to-visit-on-a-3-day-trip-in-and-around-Karnataka"
            ],
            "longitude": "75.7862318",
            "address": "Sakaleshpura, Sakaleshapura taluk, Hassan district, Karnataka, 573134, India",
            "latitude": "12.9434349",
            "locType": "town",
            "closest_to": "udupi"
        },
        "saibaba": {
            "blogLinks": [
                "http://www.nivalink.com/destination/udupi"
            ],
            "longitude": "77.6018824",
            "address": "Saibaba temple, 5th Main Road, Gurappana Palya, BTM Layout, Bengaluru, Bangalore Urban, Karnataka, 560001, India",
            "latitude": "12.9180449",
            "locType": "place_of_worship",
            "closest_to": "udupi"
        },
        "sringeri": {
            "blogLinks": [
                "https://www.quora.com/What-are-the-best-places-to-visit-in-Karnataka-India"
            ],
            "longitude": "75.2553718",
            "address": "Sringeri, Sringeri taluku, Chikkamagaluru district, Karnataka, 577592, India",
            "latitude": "13.4261724",
            "locType": "town",
            "closest_to": "udupi"
        },
        "panambur - panambur beach": {
            "blogLinks": [
                "https://www.quora.com/What-are-the-best-places-to-visit-on-a-3-day-trip-in-and-around-Karnataka"
            ],
            "longitude": "74.8034667207214",
            "address": "Panambur Beach, Panambur Beach Road, Gandhinagar, Panambur, Mangaluru taluk, Dakshina Kannada, Karnataka, 575013, India",
            "latitude": "12.93907195",
            "locType": "beach",
            "closest_to": "udupi"
        },
        "mahakali": {
            "blogLinks": [
                "http://www.nivalink.com/destination/udupi",
                "http://www.nivalink.com/destination/manipal"
            ],
            "longitude": "74.7253262",
            "address": "Mahakali Marga, Ambalapadi, Udupi, Udupi taluku, Udupi district, Karnataka, 576101, India",
            "latitude": "13.3420788",
            "locType": "residential",
            "closest_to": "udupi"
        },
        "hindupur": {
            "blogLinks": [
                "https://www.quora.com/What-are-the-best-places-to-visit-in-Karnataka-India"
            ],
            "longitude": "77.5237128",
            "address": "Hindupur ByPass Road, Bachchahalli, Doddaballapura taluk, Bangalore Rural, Karnataka, India",
            "latitude": "13.3580171",
            "locType": "primary",
            "closest_to": "udupi"
        },
        "mysore": {
            "blogLinks": [
                "https://www.quora.com/What-are-the-best-places-to-visit-on-a-3-day-trip-in-and-around-Karnataka",
                "https://www.quora.com/What-are-the-best-places-to-visit-in-Karnataka-India"
            ],
            "longitude": "76.6553609",
            "address": "Mysuru, Mysuru taluk, Mysuru district, Karnataka, 570001, India",
            "latitude": "12.3051828",
            "locType": "city",
            "closest_to": "udupi"
        },
        "bijapur district of karnataka": {
            "blogLinks": [
                "https://en.wikipedia.org/wiki/Bijapur"
            ],
            "longitude": "75.897147327785",
            "address": "Bijapur district, Karnataka, India",
            "latitude": "16.81105965",
            "locType": "administrative",
            "closest_to": "bijapur"
        },
        "amboli": {
            "blogLinks": [
                "https://www.quora.com/What-are-the-best-places-to-visit-on-a-3-day-trip-in-and-around-Karnataka"
            ],
            "longitude": "74.4340839",
            "address": "Amboli, Khanapura taluku, Belgaum district, Karnataka, India",
            "latitude": "15.6456171",
            "locType": "village",
            "closest_to": "udupi"
        },
        "central railway": {
            "blogLinks": [
                "http://www.fameofcity.com/KARNATAKA/BIJAPUR/"
            ],
            "longitude": "77.5720401",
            "address": "Central, Railway Platform Road, Vyalikaval, Seshadripuram, Bengaluru, Bangalore Urban, Karnataka, 560001, India",
            "latitude": "12.9900607",
            "locType": "bus_stop",
            "closest_to": "udupi"
        },
        "kodava": {
            "blogLinks": [
                "https://www.quora.com/What-are-the-best-places-to-visit-on-a-3-day-trip-in-and-around-Karnataka"
            ],
            "longitude": "77.5947466457941",
            "address": "Kodava Samaja, M V Jayaram Road, Jayamahal Extension, Vasantnagar, Bengaluru, Bangalore Urban, Karnataka, 560001, India",
            "latitude": "12.9946227",
            "locType": "community_centre",
            "closest_to": "udupi"
        },
        "tumkur": {
            "blogLinks": [
                "http://www.mouthshut.com/product-reviews/Bijapur-reviews-925004324"
            ],
            "longitude": "77.0002445",
            "address": "Tumakuru, Tumkur district, Karnataka, India",
            "latitude": "13.4999406",
            "locType": "county",
            "closest_to": "udupi"
        },
        "maharastra": {
            "blogLinks": [
                "http://www.fameofcity.com/KARNATAKA/BIJAPUR/"
            ],
            "longitude": "77.606263",
            "address": "Maharastra Bank, 7th Main Road, BTM Layout 2nd Stage, BTM Layout, Bengaluru, Bangalore Urban, Karnataka, 560001, India",
            "latitude": "12.9132591",
            "locType": "atm",
            "closest_to": "udupi"
        },
        "udupi hotel": {
            "blogLinks": [
                "https://www.travelblog.org/Asia/India/Karnataka/Bangalore/Koramangala/blog-914055.html"
            ],
            "longitude": "74.8346487",
            "address": "Udupi Hotel, Nataraj Raod, Sirsi, Shirasi taluk, Uttara Kannada, Karnataka, 581400, India",
            "latitude": "14.6157772",
            "locType": "hotel",
            "closest_to": "udupi"
        },
        "ooty lake": {
            "blogLinks": [
                "https://www.quora.com/What-are-the-best-places-to-visit-on-a-3-day-trip-in-and-around-Karnataka"
            ],
            "longitude": "76.6586807",
            "address": "Ooty Road, Vidyaranyapuram, Mysuru, Mysuru taluk, Mysuru district, Karnataka, 570001, India",
            "latitude": "12.2774807",
            "locType": "primary",
            "closest_to": "udupi"
        },
        "cubbon park": {
            "blogLinks": [
                "https://www.quora.com/What-are-the-best-places-to-visit-in-Karnataka-India"
            ],
            "longitude": "77.5977565",
            "address": "Cubbon Park, Cubbon Road, Tasker Town, Shivajinagar, Bengaluru, Bangalore Urban, Karnataka, 560001, India",
            "latitude": "12.9808487",
            "locType": "station",
            "closest_to": "udupi"
        },
        "coorg": {
            "blogLinks": [
                "https://www.quora.com/What-are-the-best-places-to-visit-on-a-3-day-trip-in-and-around-Karnataka"
            ],
            "longitude": "75.740031",
            "address": "Madikeri, Madikeri taluku, Kodagu, Karnataka, India",
            "latitude": "12.4204003",
            "locType": "town",
            "closest_to": "udupi"
        },
        "anantapur district": {
            "blogLinks": [
                "https://www.quora.com/What-are-the-best-places-to-visit-in-Karnataka-India"
            ],
            "longitude": "77.7596024",
            "address": "RTO Karnataka, Srinagar - Kanyakumari Highway, Paragodu, Bagepalli taluk, Chikkaballapura district, Karnataka, 561207, India",
            "latitude": "13.7972948",
            "locType": "yes",
            "closest_to": "udupi"
        },
        "horanadu": {
            "blogLinks": [
                "http://www.nivalink.com/destination/udupi"
            ],
            "longitude": "75.3445161",
            "address": "Horanadu, Mudigere taluk, Chikkamagaluru district, Karnataka, 577181, India",
            "latitude": "13.2761199",
            "locType": "town",
            "closest_to": "udupi"
        },
        "island": {
            "blogLinks": [
                "https://www.tripoto.com/travel-guide/udupi"
            ],
            "longitude": "74.8834637",
            "address": "Isa, Shirasi taluk, Uttara Kannada, Karnataka, India",
            "latitude": "14.6799543",
            "locType": "village",
            "closest_to": "udupi"
        },
        "kanakapura taluk": {
            "blogLinks": [
                "https://www.quora.com/What-are-the-best-places-to-visit-in-Karnataka-India"
            ],
            "longitude": "77.4224204245398",
            "address": "Kanakapura taluk, Ramanagara district, Karnataka, India",
            "latitude": "12.5199223",
            "locType": "administrative",
            "closest_to": "udupi"
        },
        "kodagu": {
            "blogLinks": [
                "https://www.quora.com/What-are-the-best-places-to-visit-on-a-3-day-trip-in-and-around-Karnataka",
                "https://www.quora.com/What-are-the-best-places-to-visit-in-Karnataka-India"
            ],
            "longitude": "75.6677235950852",
            "address": "Kodagu, Karnataka, India",
            "latitude": "12.38117345",
            "locType": "administrative",
            "closest_to": "udupi"
        },
        "karnataka": {
            "blogLinks": [
                "https://www.tripoto.com/places-to-visit/india/udupi",
                "https://www.travelblog.org/Asia/India/Karnataka/Bangalore/Koramangala/blog-914055.html",
                "https://en.wikipedia.org/wiki/Bijapur",
                "http://travelmasti.com/domestic/karnataka/bijapur.htm",
                "http://www.karnatakatourism.org/",
                "http://www.holidayiq.com/Bijapur-Sightseeing-646.html",
                "https://www.tripoto.com/travel-guide/udupi",
                "http://www.indiamike.com/india/karnataka-f38/places-to-visit-in-karnataka-t164263/",
                "http://www.mouthshut.com/product-reviews/Bijapur-reviews-925004324",
                "http://www.myhappyjourney.com/Karnataka",
                "http://www.nivalink.com/destination/udupi",
                "https://www.quora.com/What-are-the-best-places-to-visit-on-a-3-day-trip-in-and-around-Karnataka",
                "http://www.holidayiq.com/destinations/mangalore/",
                "http://journeymart.com/de/india/karnataka/sightseeing/default.aspx",
                "http://www.nivalink.com/destination/manipal",
                "https://www.quora.com/What-are-the-best-places-to-visit-in-Karnataka-India",
                "http://www.fameofcity.com/KARNATAKA/BIJAPUR/"
            ],
            "longitude": "76.6639936",
            "address": "Karnataka, Shalivahana Road, Nazarbad, Mysuru, Mysuru taluk, Mysuru district, Karnataka, 570001, India",
            "latitude": "12.3084901",
            "locType": "atm",
            "closest_to": "udupi"
        },
        "bijapur district": {
            "blogLinks": [
                "https://www.quora.com/What-are-the-best-places-to-visit-on-a-3-day-trip-in-and-around-Karnataka",
                "https://en.wikipedia.org/wiki/Bijapur",
                "http://www.fameofcity.com/KARNATAKA/BIJAPUR/",
                "http://www.holidayiq.com/Bijapur-Sightseeing-646.html"
            ],
            "longitude": "75.897147327785",
            "address": "Bijapur district, Karnataka, India",
            "latitude": "16.81105965",
            "locType": "administrative",
            "closest_to": "bijapur"
        },
        "north karnataka": {
            "blogLinks": [
                "https://www.quora.com/What-are-the-best-places-to-visit-on-a-3-day-trip-in-and-around-Karnataka",
                "https://www.travelblog.org/Asia/India/Karnataka/Bangalore/Koramangala/blog-914055.html",
                "https://www.quora.com/What-are-the-best-places-to-visit-in-Karnataka-India"
            ],
            "longitude": "77.7660547",
            "address": "N, Chaithanya Samarpan, Kadugodi, Kannamangala, Bangalore Urban, Karnataka, 560066, India",
            "latitude": "13.0217151",
            "locType": "service",
            "closest_to": "udupi"
        },
        "bagalkot": {
            "blogLinks": [
                "https://en.wikipedia.org/wiki/Bijapur",
                "https://www.quora.com/What-are-the-best-places-to-visit-in-Karnataka-India",
                "http://www.fameofcity.com/KARNATAKA/BIJAPUR/",
                "http://www.holidayiq.com/Bijapur-Sightseeing-646.html"
            ],
            "longitude": "75.6967919",
            "address": "Bagalakote, Bagalakote taluk, Bagalkote district, Karnataka, India",
            "latitude": "16.1853166",
            "locType": "city",
            "closest_to": "udupi"
        },
        "dakshin kannada": {
            "blogLinks": [
                "http://www.holidayiq.com/destinations/mangalore/"
            ],
            "longitude": "75.0309089",
            "address": "Dakshin Court, NH73, Kaikunje, Bantwal Cross Road, Bantwal taluk, Dakshina Kannada, Karnataka, India",
            "latitude": "12.8827367",
            "locType": "restaurant",
            "closest_to": "udupi"
        },
        "manchanabele": {
            "blogLinks": [
                "https://www.quora.com/What-are-the-best-places-to-visit-in-Karnataka-India"
            ],
            "longitude": "77.3344212",
            "address": "Manchanabele, Magadi taluku, Ramanagara district, Karnataka, India",
            "latitude": "12.8668921",
            "locType": "village",
            "closest_to": "udupi"
        },
        "parvati": {
            "blogLinks": [
                "https://www.quora.com/What-are-the-best-places-to-visit-on-a-3-day-trip-in-and-around-Karnataka"
            ],
            "longitude": "75.7898501",
            "address": "Parvati, Badami taluku, Bagalkote district, Karnataka, India",
            "latitude": "16.0395701",
            "locType": "village",
            "closest_to": "udupi"
        },
        "bangalore bangalore": {
            "blogLinks": [
                "https://www.quora.com/What-are-the-best-places-to-visit-in-Karnataka-India"
            ],
            "longitude": "77.5912997",
            "address": "Bengaluru, Bangalore Urban, Karnataka, 560001, India",
            "latitude": "12.9791198",
            "locType": "city",
            "closest_to": "udupi"
        },
        "manhattan": {
            "blogLinks": [
                "http://www.myhappyjourney.com/Karnataka"
            ],
            "longitude": "77.7186057320043",
            "address": "Manhattan Associates India Development Center, 2nd Road, Export Promotion Industrial Park, Whitefied, Brookefields, Sitaramapalya, Bangalore Urban, Karnataka, 560066, India",
            "latitude": "12.9728661",
            "locType": "company",
            "closest_to": "udupi"
        },
        "hubli": {
            "blogLinks": [
                "https://en.wikipedia.org/wiki/Bijapur",
                "http://www.fameofcity.com/KARNATAKA/BIJAPUR/",
                "http://www.tourism-of-india.com/bijapur/"
            ],
            "longitude": "75.1379848",
            "address": "Hubballi - \u0cb9\u0cc1\u0cac\u0ccd\u0cac\u0cb3\u0ccd\u0cb3\u0cbf, Hubballi taluku, Dharwad district, Karnataka, 580020, India",
            "latitude": "15.3518378",
            "locType": "city",
            "closest_to": "udupi"
        },
        "dakshina kannada": {
            "blogLinks": [
                "http://www.nivalink.com/destination/udupi",
                "https://www.quora.com/What-are-the-best-places-to-visit-on-a-3-day-trip-in-and-around-Karnataka",
                "https://www.quora.com/What-are-the-best-places-to-visit-in-Karnataka-India",
                "http://www.holidayiq.com/destinations/mangalore/"
            ],
            "longitude": "75.1008028650794",
            "address": "Dakshina Kannada, Karnataka, India",
            "latitude": "12.8114089",
            "locType": "administrative",
            "closest_to": "udupi"
        },
        "hassan": {
            "blogLinks": [
                "https://www.quora.com/What-are-the-best-places-to-visit-in-Karnataka-India"
            ],
            "longitude": "76.0992703",
            "address": "Hassan, Hasana taluk, Hassan district, Karnataka, 573201, India",
            "latitude": "13.0070817",
            "locType": "town",
            "closest_to": "udupi"
        },
        "bangkok": {
            "blogLinks": [
                "https://www.quora.com/What-are-the-best-places-to-visit-on-a-3-day-trip-in-and-around-Karnataka"
            ],
            "longitude": "77.6382633",
            "address": "One night in Bangkok, 12th Main Road, HAL 2nd Stage, Indiranagar, Bengaluru, Bangalore Urban, Karnataka, 560001, India",
            "latitude": "12.9701967",
            "locType": "bar",
            "closest_to": "udupi"
        },
        "hyderabad": {
            "blogLinks": [
                "https://en.wikipedia.org/wiki/Bijapur",
                "http://www.fameofcity.com/KARNATAKA/BIJAPUR/",
                "http://www.tourism-of-india.com/bijapur/"
            ],
            "longitude": "77.5344002",
            "address": "Hyderabad Road, Old City, Bidar, Bidar taluku, Bidar district, Karnataka, 585400, India",
            "latitude": "17.9003114",
            "locType": "primary",
            "closest_to": "bijapur"
        },
        "sangama": {
            "blogLinks": [
                "https://www.quora.com/What-are-the-best-places-to-visit-in-Karnataka-India"
            ],
            "longitude": "77.4320447",
            "address": "Sangam, SH92, Mahalli, Kanakapura taluk, Ramanagara district, Karnataka, India",
            "latitude": "12.2880428",
            "locType": "attraction",
            "closest_to": "udupi"
        },
        "sainik": {
            "blogLinks": [
                "http://www.myhappyjourney.com/Karnataka"
            ],
            "longitude": "75.6946917",
            "address": "Sainik School, Toravi Road, Vijayapura, Vijayapura taluk, Bijapur district, Karnataka, 586101, India",
            "latitude": "16.8332977",
            "locType": "school",
            "closest_to": "bijapur"
        },
        "gokul garden": {
            "blogLinks": [
                "https://www.quora.com/What-are-the-best-places-to-visit-on-a-3-day-trip-in-and-around-Karnataka"
            ],
            "longitude": "75.1141861403246",
            "address": "Gokul Garden, Gokul Road / Airport Road, Renuka Nagar, Padmaraj Nagar, Gokul, Hubballi taluku, Dharwad district, Karnataka, 580030, India",
            "latitude": "15.35009745",
            "locType": "recreation_ground",
            "closest_to": "udupi"
        },
        "pabbas": {
            "blogLinks": [
                "http://www.holidayiq.com/destinations/mangalore/"
            ],
            "longitude": "74.8383821",
            "address": "Pabbas Ice Cream Parlour, Mahatma Gandhi Road, Lalbagh, Ladyhill, Mangaluru, Mangaluru taluk, Dakshina Kannada, Karnataka, 575001, India",
            "latitude": "12.8863356",
            "locType": "restaurant",
            "closest_to": "udupi"
        },
        "manjunatha temple": {
            "blogLinks": [
                "https://www.quora.com/What-are-the-best-places-to-visit-on-a-3-day-trip-in-and-around-Karnataka"
            ],
            "longitude": "77.5640116772773",
            "address": "Devagiri Manjunatha Swamy Temple, 30th Cross, Jayanagar 8th Block, Banashankari 2nd Stage, Bengaluru, Bangalore Urban, Karnataka, 560001, India",
            "latitude": "12.9211928",
            "locType": "place_of_worship",
            "closest_to": "udupi"
        },
        "bahubali": {
            "blogLinks": [
                "http://www.nivalink.com/destination/udupi",
                "https://www.quora.com/What-are-the-best-places-to-visit-on-a-3-day-trip-in-and-around-Karnataka",
                "http://www.nivalink.com/destination/manipal"
            ],
            "longitude": "76.4846128",
            "address": "Bahubali Statue, SH8, Shravanabelagola, Channarayapattana taluk, Hassan district, Karnataka, 573135, India",
            "latitude": "12.8540505",
            "locType": "place_of_worship",
            "closest_to": "udupi"
        },
        "tikota": {
            "blogLinks": [
                "https://en.wikipedia.org/wiki/Bijapur"
            ],
            "longitude": "75.5226828",
            "address": "Tikota, Vijayapura taluk, Bijapur district, Karnataka, 586180, India",
            "latitude": "16.8431559",
            "locType": "town",
            "closest_to": "udupi"
        },
        "sirsi": {
            "blogLinks": [
                "https://www.quora.com/What-are-the-best-places-to-visit-on-a-3-day-trip-in-and-around-Karnataka"
            ],
            "longitude": "74.8388611",
            "address": "Sirsi, Shirasi taluk, Uttara Kannada, Karnataka, 581400, India",
            "latitude": "14.6192362",
            "locType": "town",
            "closest_to": "udupi"
        },
        "mangaladevi": {
            "blogLinks": [
                "http://www.holidayiq.com/destinations/mangalore/"
            ],
            "longitude": "74.8452646984836",
            "address": "Shri Mangaladevi Temple, Mangala Devi Temple Road, Mulihitlu, Bolar, Mangaluru, Mangaluru taluk, Dakshina Kannada, Karnataka, 575001, India",
            "latitude": "12.84923455",
            "locType": "place_of_worship",
            "closest_to": "udupi"
        },
        "kannur": {
            "blogLinks": [
                "https://www.tripoto.com/places-to-visit/india/udupi",
                "http://www.nivalink.com/destination/udupi",
                "http://www.nivalink.com/destination/manipal"
            ],
            "longitude": "74.8858161",
            "address": "Netravati bridge - Kannur Bypass Road (Proposed), Padil, Bajal, Mangaluru taluk, Dakshina Kannada, Karnataka, 575007, India",
            "latitude": "12.8487602",
            "locType": "construction",
            "closest_to": "udupi"
        },
        "mecca gate": {
            "blogLinks": [
                "http://www.holidayiq.com/Bijapur-Sightseeing-646.html"
            ],
            "longitude": "77.5509669",
            "address": "masjid e mecca, 7th cross padarayana pura, Hosahalli Main Road, Rajajinagar 6th Block, Goripalya, Bengaluru, Bangalore Urban, Karnataka, 560001, India",
            "latitude": "12.9618838",
            "locType": "place_of_worship",
            "closest_to": "udupi"
        },
        "madhukeshwara": {
            "blogLinks": [
                "https://www.quora.com/What-are-the-best-places-to-visit-on-a-3-day-trip-in-and-around-Karnataka"
            ],
            "longitude": "75.1480027",
            "address": "Madhukeshwara Temple, Kattinakere Road, Kattinakere Bus Stand, Soraba taluk, Shimoga district, Karnataka, India",
            "latitude": "14.3058996",
            "locType": "place_of_worship",
            "closest_to": "udupi"
        },
        "krishna river": {
            "blogLinks": [
                "http://www.holidayiq.com/Bijapur-Sightseeing-646.html"
            ],
            "longitude": "77.0529845",
            "address": "Krishna, Shahapura taluku, Yadagiri district, Karnataka, India",
            "latitude": "16.5209569",
            "locType": "river",
            "closest_to": "bijapur"
        },
        "marikamba temple": {
            "blogLinks": [
                "https://www.quora.com/What-are-the-best-places-to-visit-on-a-3-day-trip-in-and-around-Karnataka"
            ],
            "longitude": "74.8103631279317",
            "address": "Marikamba Temple, NH766C;SH26, Halkal, \u0c95\u0cc1\u0c82\u0ca6\u0cbe\u0caa\u0cc1\u0cb0 \u0ca4\u0cbe\u0cb2\u0cc2\u0c95\u0cc1, Udupi district, Karnataka, 576220, India",
            "latitude": "13.8626958",
            "locType": "place_of_worship",
            "closest_to": "udupi"
        },
        "jog falls": {
            "blogLinks": [
                "http://www.myhappyjourney.com/Karnataka"
            ],
            "longitude": "74.8128715",
            "address": "Jog Falls, Joga - Kargal, Sagara taluk, Shimoga district, Karnataka, India",
            "latitude": "14.2276106",
            "locType": "locality",
            "closest_to": "udupi"
        },
        "himavad gopalaswamy betta": {
            "blogLinks": [
                "https://www.quora.com/What-are-the-best-places-to-visit-on-a-3-day-trip-in-and-around-Karnataka"
            ],
            "longitude": "76.5804063",
            "address": "Gopalaswami Temple, Gopal Swami Betta road, Devarahalli, Gundlupet taluk, Chamarajanagar district, Karnataka, India",
            "latitude": "11.7206016",
            "locType": "place_of_worship",
            "closest_to": "udupi"
        },
        "kadamba": {
            "blogLinks": [
                "https://www.quora.com/What-are-the-best-places-to-visit-on-a-3-day-trip-in-and-around-Karnataka"
            ],
            "longitude": "77.7436954",
            "address": "Kadamba Avenue, R. Narayanapura, Brookefields, Dodsworth Enclave, Bangalore Urban, Karnataka, 560066, India",
            "latitude": "12.9703178",
            "locType": "residential",
            "closest_to": "udupi"
        },
        "kudalasangama": {
            "blogLinks": [
                "http://www.holidayiq.com/Bijapur-Sightseeing-646.html"
            ],
            "longitude": "76.0604244",
            "address": "Kudala Sangama, Hunagunda taluku, Bagalkote district, Karnataka, India",
            "latitude": "16.2033992",
            "locType": "village",
            "closest_to": "udupi"
        },
        "sri krishna temple": {
            "blogLinks": [
                "https://www.tripoto.com/places-to-visit/india/udupi",
                "https://www.quora.com/What-are-the-best-places-to-visit-on-a-3-day-trip-in-and-around-Karnataka",
                "https://www.tripoto.com/travel-guide/udupi"
            ],
            "longitude": "77.6437236",
            "address": "Sri Krishna Temple Road, Old Binnamangala, Hoysala Nagar, Bengaluru, Bangalore Urban, Karnataka, 560001, India",
            "latitude": "12.9791699",
            "locType": "unclassified",
            "closest_to": "udupi"
        },
        "suratkal": {
            "blogLinks": [
                "http://www.holidayiq.com/destinations/mangalore/"
            ],
            "longitude": "74.8046595",
            "address": "Suratkal, Mangaluru taluk, Dakshina Kannada, Karnataka, 575014, India",
            "latitude": "12.9830998",
            "locType": "town",
            "closest_to": "udupi"
        },
        "national park": {
            "blogLinks": [
                "https://www.quora.com/What-are-the-best-places-to-visit-in-Karnataka-India"
            ],
            "longitude": "77.5722783830694",
            "address": "Bannerghatta National Park, Anekal Road, Begihalli, Bangalore Urban, Karnataka, 560076, India",
            "latitude": "12.77900335",
            "locType": "national_park",
            "closest_to": "udupi"
        },
        "south": {
            "blogLinks": [
                "http://www.myhappyjourney.com/Karnataka",
                "https://www.quora.com/What-are-the-best-places-to-visit-on-a-3-day-trip-in-and-around-Karnataka"
            ],
            "longitude": "77.8040874",
            "address": "s, Vijayapura, Devanahalli taluk, Bangalore Rural, Karnataka, 562135, India",
            "latitude": "13.2942848",
            "locType": "residential",
            "closest_to": "udupi"
        },
        "kabini": {
            "blogLinks": [
                "https://www.quora.com/What-are-the-best-places-to-visit-in-Karnataka-India"
            ],
            "longitude": "76.4152088",
            "address": "Kabini, Heggadadevanakote taluk, Mysuru district, Karnataka, India",
            "latitude": "12.0140065",
            "locType": "river",
            "closest_to": "udupi"
        },
        "kali": {
            "blogLinks": [
                "https://www.quora.com/What-are-the-best-places-to-visit-on-a-3-day-trip-in-and-around-Karnataka"
            ],
            "longitude": "74.5802901",
            "address": "Kali, Joida taluk, Uttara Kannada, Karnataka, India",
            "latitude": "15.0145378",
            "locType": "river",
            "closest_to": "udupi"
        },
        "bagalkot district": {
            "blogLinks": [
                "http://www.fameofcity.com/KARNATAKA/BIJAPUR/"
            ],
            "longitude": "75.6967919",
            "address": "Bagalakote, Bagalakote taluk, Bagalkote district, Karnataka, India",
            "latitude": "16.1853166",
            "locType": "city",
            "closest_to": "udupi"
        },
        "gulmohar": {
            "blogLinks": [
                "https://www.quora.com/What-are-the-best-places-to-visit-in-Karnataka-India"
            ],
            "longitude": "77.745811757371",
            "address": "MIMS Gulmohar Villas, Kadugodi, Prashanth Extension, Bangalore Urban, Karnataka, 56066, India",
            "latitude": "12.9841671",
            "locType": "residential",
            "closest_to": "udupi"
        },
        "bangalore karnataka": {
            "blogLinks": [
                "https://www.quora.com/What-are-the-best-places-to-visit-on-a-3-day-trip-in-and-around-Karnataka"
            ],
            "longitude": "77.5912997",
            "address": "Bengaluru, Bangalore Urban, Karnataka, 560001, India",
            "latitude": "12.9791198",
            "locType": "city",
            "closest_to": "udupi"
        },
        "shahapur": {
            "blogLinks": [
                "https://en.wikipedia.org/wiki/Bijapur"
            ],
            "longitude": "77.19816",
            "address": "Government Higher Primary School Katagi Shahapur, SH15, Hattikuni, Yadagiri taluku, Yadagiri district, Karnataka, India",
            "latitude": "16.85278",
            "locType": "school",
            "closest_to": "bijapur"
        },
        "ujire": {
            "blogLinks": [
                "https://www.quora.com/What-are-the-best-places-to-visit-in-Karnataka-India"
            ],
            "longitude": "75.3301061",
            "address": "Ujire, Beltangadi taluk, Dakshina Kannada, Karnataka, India",
            "latitude": "12.9954619",
            "locType": "village",
            "closest_to": "udupi"
        },
        "agra": {
            "blogLinks": [
                "http://travelmasti.com/domestic/karnataka/bijapur.htm"
            ],
            "longitude": "77.6468085",
            "address": "Agara, Geddalahalli, Bangalore Urban, Karnataka, India",
            "latitude": "13.0386734",
            "locType": "suburb",
            "closest_to": "udupi"
        },
        "pilikula": {
            "blogLinks": [
                "http://www.holidayiq.com/destinations/mangalore/"
            ],
            "longitude": "74.8992161116679",
            "address": "Pilikula Regional Science Centre, Solapur-Mangalore Highway, Shakthinagar, Kulashekara, Kudupu, Mangaluru taluk, Dakshina Kannada, Karnataka, 575007, India",
            "latitude": "12.9253797",
            "locType": "museum",
            "closest_to": "udupi"
        },
        "mirjan fort": {
            "blogLinks": [
                "https://www.quora.com/What-are-the-best-places-to-visit-on-a-3-day-trip-in-and-around-Karnataka"
            ],
            "longitude": "74.4174838158512",
            "address": "Mirjana Fort, Edapally- Panvel Highway, Kimani, Kumata taluk, Uttara Kannada, Karnataka, 581344, India",
            "latitude": "14.48905715",
            "locType": "attraction",
            "closest_to": "udupi"
        },
        "vijayapura": {
            "blogLinks": [
                "https://en.wikipedia.org/wiki/Bijapur"
            ],
            "longitude": "75.916667",
            "address": "Vijayapura, Bijapur district, Karnataka, India",
            "latitude": "16.666667",
            "locType": "county",
            "closest_to": "udupi"
        },
        "mandya": {
            "blogLinks": [
                "https://www.quora.com/What-are-the-best-places-to-visit-in-Karnataka-India"
            ],
            "longitude": "76.8937392",
            "address": "Mandya, Mandya taluk, Mandya district, Karnataka, 571401, India",
            "latitude": "12.5217836",
            "locType": "town",
            "closest_to": "udupi"
        },
        "durga temple": {
            "blogLinks": [
                "https://www.quora.com/What-are-the-best-places-to-visit-on-a-3-day-trip-in-and-around-Karnataka"
            ],
            "longitude": "77.6125928",
            "address": "Durga Temple, 29th Main, Mahadeshwara Nagara, BTM Layout, Bengaluru, Bangalore Urban, Karnataka, 560001, India",
            "latitude": "12.9057731",
            "locType": "place_of_worship",
            "closest_to": "udupi"
        },
        "peenya": {
            "blogLinks": [
                "https://www.travelblog.org/Asia/India/Karnataka/Bangalore/Koramangala/blog-914055.html"
            ],
            "longitude": "77.5273253",
            "address": "Peenya, Bengaluru, Bangalore Urban, Karnataka, 560001, India",
            "latitude": "13.0329419",
            "locType": "suburb",
            "closest_to": "udupi"
        },
        "sangameshwara": {
            "blogLinks": [
                "https://www.quora.com/What-are-the-best-places-to-visit-on-a-3-day-trip-in-and-around-Karnataka"
            ],
            "longitude": "74.87651",
            "address": "Sangameshwara, Kalaghatagi taluku, Dharwad district, Karnataka, India",
            "latitude": "15.184341",
            "locType": "village",
            "closest_to": "udupi"
        },
        "kaveri": {
            "blogLinks": [
                "https://www.quora.com/What-are-the-best-places-to-visit-on-a-3-day-trip-in-and-around-Karnataka",
                "https://www.quora.com/What-are-the-best-places-to-visit-in-Karnataka-India"
            ],
            "longitude": "77.0635531",
            "address": "Kaveri, Kollegala taluk, Chamarajanagar district, Karnataka, India",
            "latitude": "12.1687878",
            "locType": "river",
            "closest_to": "udupi"
        },
        "sagar": {
            "blogLinks": [
                "https://en.wikipedia.org/wiki/Bijapur"
            ],
            "longitude": "75.0262551",
            "address": "Sagara, Sagara taluk, Shimoga district, Karnataka, 577400, India",
            "latitude": "14.1666594",
            "locType": "town",
            "closest_to": "udupi"
        },
        "uttara kannada district": {
            "blogLinks": [
                "https://www.quora.com/What-are-the-best-places-to-visit-in-Karnataka-India"
            ],
            "longitude": "74.583333",
            "address": "Uttara Kannada, Karnataka, India",
            "latitude": "14.883333",
            "locType": "county",
            "closest_to": "udupi"
        },
        "mandalpatti": {
            "blogLinks": [
                "https://www.quora.com/What-are-the-best-places-to-visit-on-a-3-day-trip-in-and-around-Karnataka"
            ],
            "longitude": "75.7307012",
            "address": "Mandalpatti road junction, Galibidu Road, Kalakeri Nidugane, Madikeri taluku, Kodagu, Karnataka, India",
            "latitude": "12.4486242",
            "locType": "attraction",
            "closest_to": "udupi"
        },
        "north": {
            "blogLinks": [
                "https://www.quora.com/What-are-the-best-places-to-visit-in-Karnataka-India"
            ],
            "longitude": "77.7660547",
            "address": "N, Chaithanya Samarpan, Kadugodi, Kannamangala, Bangalore Urban, Karnataka, 560066, India",
            "latitude": "13.0217151",
            "locType": "service",
            "closest_to": "udupi"
        },
        "belagavi": {
            "blogLinks": [
                "https://en.wikipedia.org/wiki/Bijapur"
            ],
            "longitude": "74.75",
            "address": "Belgaum, Belgaum district, Karnataka, India",
            "latitude": "16.333333",
            "locType": "county",
            "closest_to": "udupi"
        },
        "kudremukh national park": {
            "blogLinks": [
                "https://www.quora.com/What-are-the-best-places-to-visit-on-a-3-day-trip-in-and-around-Karnataka"
            ],
            "longitude": "75.1828713712862",
            "address": "Kudremukh National Park, SH66, Sringeri taluku, Chikkamagaluru district, Karnataka, India",
            "latitude": "13.25397485",
            "locType": "national_park",
            "closest_to": "udupi"
        },
        "north kerala": {
            "blogLinks": [
                "http://www.nivalink.com/destination/udupi",
                "http://www.nivalink.com/destination/manipal"
            ],
            "longitude": "77.6382683",
            "address": "New Life Kerala Mess, Sai Baba Mandira Road, Mottappanapalaya, Indiranagar, Bengaluru, Bangalore Urban, Karnataka, 560001, India",
            "latitude": "12.9726449",
            "locType": "restaurant",
            "closest_to": "udupi"
        },
        "maddur": {
            "blogLinks": [
                "https://www.quora.com/What-are-the-best-places-to-visit-on-a-3-day-trip-in-and-around-Karnataka"
            ],
            "longitude": "77.0456404",
            "address": "Maddur, Madduru taluk, Mandya district, Karnataka, 571428, India",
            "latitude": "12.5851916",
            "locType": "town",
            "closest_to": "udupi"
        },
        "belthangady": {
            "blogLinks": [
                "https://www.quora.com/What-are-the-best-places-to-visit-in-Karnataka-India"
            ],
            "longitude": "75.2789924801603",
            "address": "Government Model Primary School Belthangady, NH73, Guruvayankere, Beltangadi taluk, Dakshina Kannada, Karnataka, India",
            "latitude": "12.9899316",
            "locType": "school",
            "closest_to": "udupi"
        },
        "saibaba temple": {
            "blogLinks": [
                "http://www.nivalink.com/destination/udupi"
            ],
            "longitude": "77.589321",
            "address": "Saibaba Temple, 18th Main Road, Jayanagar 4T Block, Marenahalli, Bengaluru, Bangalore Urban, Karnataka, 560001, India",
            "latitude": "12.9192322",
            "locType": "place_of_worship",
            "closest_to": "udupi"
        },
        "kolkata": {
            "blogLinks": [
                "https://en.wikipedia.org/wiki/Bijapur"
            ],
            "longitude": "77.5478044",
            "address": "Kolkata Biryani And Rolls, 1st Main Basaveshwaranagar, Rajajinagar 3rd Block, Dasarahalli, Bengaluru, Bangalore Urban, Karnataka, 560010, India",
            "latitude": "12.9845159",
            "locType": "restaurant",
            "closest_to": "udupi"
        },
        "panaji": {
            "blogLinks": [
                "https://www.quora.com/What-are-the-best-places-to-visit-in-Karnataka-India"
            ],
            "longitude": "74.4876784",
            "address": "Belgaum - Panaji Highway, Londa, Khanapura taluku, Belgaum district, Karnataka, India",
            "latitude": "15.4422981",
            "locType": "trunk",
            "closest_to": "udupi"
        },
        "rose garden": {
            "blogLinks": [
                "https://www.quora.com/What-are-the-best-places-to-visit-on-a-3-day-trip-in-and-around-Karnataka"
            ],
            "longitude": "77.590382853852",
            "address": "Rose Garden, Dr B R Ambedkar Veedhi, Shantala Nagar, Gandhinagar, Bengaluru, Bangalore Urban, Karnataka, 560001, India",
            "latitude": "12.97371325",
            "locType": "garden",
            "closest_to": "udupi"
        },