{
    "dharmasthala": {
        "lat": "12.9519571",
        "class": "place",
        "importance": 0.475,
        "osm_type": "node",
        "lon": "75.3813122",
        "place_id": "638987",
        "display_name": "Dharmasthala, Beltangadi taluk, Dakshina Kannada, Karnataka, 574216, India",
        "osm_id": "245614706",
        "boundingbox": [
            "12.9319571",
            "12.9719571",
            "75.3613122",
            "75.4013122"
        ],
        "type": "village",
        "licence": "Data \u00a9 OpenStreetMap contributors, ODbL 1.0. http://www.openstreetmap.org/copyright",
        "icon": "https://nominatim.openstreetmap.org/images/mapicons/poi_place_village.p.20.png"
    },
    "chikmagalur": {
        "lat": "13.5",
        "class": "place",
        "importance": 0.65,
        "osm_type": "node",
        "lon": "75.5",
        "place_id": "1426840",
        "display_name": "Chikmagalur, Chikkamagaluru district, Karnataka, India",
        "osm_id": "316417001",
        "boundingbox": [
            "12.86",
            "14.14",
            "74.86",
            "76.14"
        ],
        "type": "county",
        "licence": "Data \u00a9 OpenStreetMap contributors, ODbL 1.0. http://www.openstreetmap.org/copyright",
        "icon": "https://nominatim.openstreetmap.org/images/mapicons/poi_boundary_administrative.p.20.png"
    },
    "mentions": {
        "kadri": {
            "blogLinks": [
                "https://www.thrillophilia.com/places-to-visit-near-mangalore"
            ],
            "longitude": "74.8501424",
            "address": "Kadri, Mangaluru, Mangaluru taluk, Dakshina Kannada, Karnataka, 575001, India",
            "latitude": "12.8897288",
            "locType": "suburb",
            "closest_to": "dharmasthala"
        },
        "kannur": {
            "blogLinks": [
                "http://www.nivalink.com/destination/dharmasthala"
            ],
            "longitude": "74.8858161",
            "address": "Netravati bridge - Kannur Bypass Road (Proposed), Padil, Bajal, Mangaluru taluk, Dakshina Kannada, Karnataka, 575007, India",
            "latitude": "12.8487602",
            "locType": "construction",
            "closest_to": "dharmasthala"
        },
        "netravati": {
            "blogLinks": [
                "https://en.wikipedia.org/wiki/Sringeri"
            ],
            "longitude": "75.1562182",
            "address": "Netravati, Bantwal taluk, Dakshina Kannada, Karnataka, India",
            "latitude": "12.8537655",
            "locType": "river",
            "closest_to": "dharmasthala"
        },
        "sakleshpur chikmagalur": {
            "blogLinks": [
                "https://www.mekanagadde.com/tourist-places-nearby-to-visit/",
                "https://www.mekanagadde.com/places-to-visit/dharmasthala/"
            ],
            "longitude": "75.7862318",
            "address": "Sakaleshpura, Sakaleshapura taluk, Hassan district, Karnataka, 573134, India",
            "latitude": "12.9434349",
            "locType": "town",
            "closest_to": "dharmasthala"
        },
        "jamalabad fort": {
            "blogLinks": [
                "https://www.thrillophilia.com/places-to-visit-near-mangalore"
            ],
            "longitude": "75.2958407",
            "address": "Jamalabad Fort, NH73, Halepete, Beltangadi taluk, Dakshina Kannada, Karnataka, 574214, India",
            "latitude": "13.0273698",
            "locType": "attraction",
            "closest_to": "dharmasthala"
        },
        "kalasa": {
            "blogLinks": [
                "http://www.team-bhp.com/forum/travelogues/94368-horanadu-sringeri-kollur-gokarna-udupi-karkala-moo-dbidri-mangalore-dharmasthala-kukke.html",
                "https://www.thrillophilia.com/places-to-visit-near-mangalore"
            ],
            "longitude": "75.3582366",
            "address": "Kalasa, Mudigere taluk, Chikkamagaluru district, Karnataka, 577124, India",
            "latitude": "13.2322235",
            "locType": "town",
            "closest_to": "dharmasthala"
        },
        "mangalore railway station": {
            "blogLinks": [
                "https://www.thrillophilia.com/places-to-visit-near-mangalore"
            ],
            "longitude": "74.8680725",
            "address": "Hotels in Mangalore Near Railway Station  (Reiseb\u00fcro ), SH67, Gandhinagar, Kenjar, Mangaluru taluk, Dakshina Kannada, Karnataka, 575015, India",
            "latitude": "12.9519663",
            "locType": "travel_agent",
            "closest_to": "dharmasthala"
        },
        "dharmasthala of karnataka": {
            "blogLinks": [
                "http://www.nivalink.com/destination/dharmasthala"
            ],
            "longitude": "75.3813122",
            "address": "Dharmasthala, Beltangadi taluk, Dakshina Kannada, Karnataka, 574216, India",
            "latitude": "12.9519571",
            "locType": "village",
            "closest_to": "dharmasthala"
        },
        "netravati river": {
            "blogLinks": [
                "https://www.mekanagadde.com/places-to-visit/dharmasthala/"
            ],
            "longitude": "75.1562182",
            "address": "Netravati, Bantwal taluk, Dakshina Kannada, Karnataka, India",
            "latitude": "12.8537655",
            "locType": "river",
            "closest_to": "dharmasthala"
        },
        "udupi - karkala": {
            "blogLinks": [
                "http://www.team-bhp.com/forum/travelogues/94368-horanadu-sringeri-kollur-gokarna-udupi-karkala-moo-dbidri-mangalore-dharmasthala-kukke.html"
            ],
            "longitude": "75.0794827",
            "address": "Thirthahalli - Udupi Highway, Someshwara, Karkala taluk, Udupi district, Karnataka, 576129, India",
            "latitude": "13.4952651",
            "locType": "trunk",
            "closest_to": "chikmagalur"
        },
        "mangalore city": {
            "blogLinks": [
                "https://www.thrillophilia.com/places-to-visit-near-mangalore"
            ],
            "longitude": "74.8430082",
            "address": "Mangaluru, Mangaluru taluk, Dakshina Kannada, Karnataka, 575001, India",
            "latitude": "12.8698101",
            "locType": "city",
            "closest_to": "dharmasthala"
        },
        "aldur": {
            "blogLinks": [
                "http://wikitravel.org/en/Chikmagalur"
            ],
            "longitude": "75.650144",
            "address": "Aldur, Chikkamagaluru taluku, Chikkamagaluru district, Karnataka, India",
            "latitude": "13.2437104",
            "locType": "village",
            "closest_to": "dharmasthala"
        },
        "mangalore airport": {
            "blogLinks": [
                "https://www.thrillophilia.com/places-to-visit-near-mangalore"
            ],
            "longitude": "74.887492668144",
            "address": "Mangalore International Airport, Airport Entry Road, Gandhinagar, Kenjar, Mangaluru taluk, Dakshina Kannada, Karnataka, 575015, India",
            "latitude": "12.95518575",
            "locType": "aerodrome",
            "closest_to": "dharmasthala"
        },
        "river phalguni": {
            "blogLinks": [
                "https://www.thrillophilia.com/places-to-visit-near-mangalore"
            ],
            "longitude": "75.0304308",
            "address": "Gurupura - Phalguni, Bantwal taluk, Dakshina Kannada, Karnataka, India",
            "latitude": "13.005679",
            "locType": "river",
            "closest_to": "dharmasthala"
        },
        "belvai": {
            "blogLinks": [
                "https://www.thrillophilia.com/places-to-visit-near-mangalore"
            ],
            "longitude": "74.9961914",
            "address": "Belvai, Mangaluru taluk, Dakshina Kannada, Karnataka, India",
            "latitude": "13.1281264",
            "locType": "village",
            "closest_to": "dharmasthala"
        },
        "annapoorneshwari temple": {
            "blogLinks": [
                "http://www.mapsofindia.com/karnataka/travel-to-sringeri.html"
            ],
            "longitude": "74.9006001",
            "address": "Sri Ambika Annapoorneshwari Temple, SH101, Sunkadakatte, Mangaluru taluk, Dakshina Kannada, Karnataka, India",
            "latitude": "12.97910715",
            "locType": "place_of_worship",
            "closest_to": "dharmasthala"
        },
        "gurupura river": {
            "blogLinks": [
                "https://www.thrillophilia.com/places-to-visit-near-mangalore"
            ],
            "longitude": "75.0304308",
            "address": "Gurupura - Phalguni, Bantwal taluk, Dakshina Kannada, Karnataka, India",
            "latitude": "13.005679",
            "locType": "river",
            "closest_to": "dharmasthala"
        },
        "kudremukh national park": {
            "blogLinks": [
                "https://www.thrillophilia.com/places-to-visit-near-mangalore"
            ],
            "longitude": "75.1828713712862",
            "address": "Kudremukh National Park, SH66, Sringeri taluku, Chikkamagaluru district, Karnataka, India",
            "latitude": "13.25397485",
            "locType": "national_park",
            "closest_to": "dharmasthala"
        },
        "kaimara": {
            "blogLinks": [
                "http://wikitravel.org/en/Chikmagalur"
            ],
            "longitude": "75.7448654",
            "address": "Kaimara, Chikkamagaluru taluku, Chikkamagaluru district, Karnataka, India",
            "latitude": "13.3713857",
            "locType": "village",
            "closest_to": "dharmasthala"
        },
        "venur": {
            "blogLinks": [
                "https://www.thrillophilia.com/places-to-visit-near-mangalore"
            ],
            "longitude": "75.1443252",
            "address": "Venoor, Beltangadi taluk, Dakshina Kannada, Karnataka, 574242, India",
            "latitude": "13.0122097",
            "locType": "village",
            "closest_to": "dharmasthala"
        },
        "chikkamagaluru": {
            "blogLinks": [
                "http://wikitravel.org/en/Chikmagalur",
                "https://www.mekanagadde.com/tourist-places-nearby-to-visit/"
            ],
            "longitude": "75.7738743",
            "address": "Chikkamagaluru, Chikkamagaluru taluku, Chikkamagaluru district, Karnataka, 577101, India",
            "latitude": "13.318014",
            "locType": "city",
            "closest_to": "dharmasthala"
        },
        "jayapura": {
            "blogLinks": [
                "http://www.team-bhp.com/forum/travelogues/94368-horanadu-sringeri-kollur-gokarna-udupi-karkala-moo-dbidri-mangalore-dharmasthala-kukke.html"
            ],
            "longitude": "75.3727343",
            "address": "Jayapura, Koppa taluk, Chikkamagaluru district, Karnataka, India",
            "latitude": "13.4029589",
            "locType": "town",
            "closest_to": "dharmasthala"
        },
        "shri rama temple": {
            "blogLinks": [
                "https://www.thrillophilia.com/places-to-visit-near-mangalore"
            ],
            "longitude": "75.7726195",
            "address": "Shri Rama Temple, Ratnagiri Road, Basavannahalli, Chikkamagaluru, Chikkamagaluru taluku, Chikkamagaluru district, Karnataka, 577101, India",
            "latitude": "13.3268549",
            "locType": "place_of_worship",
            "closest_to": "dharmasthala"
        },
        "mangalore": {
            "blogLinks": [
                "http://www.team-bhp.com/forum/travelogues/94368-horanadu-sringeri-kollur-gokarna-udupi-karkala-moo-dbidri-mangalore-dharmasthala-kukke.html",
                "http://www.mapsofindia.com/karnataka/travel-to-sringeri.html",
                "http://wikitravel.org/en/Chikmagalur",
                "https://www.mekanagadde.com/tourist-places-nearby-to-visit/",
                "http://www.distancesfrom.com/in/directions-from-Bangalore-to-Dharmasthala-via-Chikmagalur/DirectionHistory/6669733.aspx",
                "https://www.thrillophilia.com/places-to-visit-near-mangalore",
                "http://www.nivalink.com/destination/dharmasthala",
                "https://www.tripadvisor.in/",
                "http://www.karnatakatourism.org/"
            ],
            "longitude": "74.8430082",
            "address": "Mangaluru, Mangaluru taluk, Dakshina Kannada, Karnataka, 575001, India",
            "latitude": "12.8698101",
            "locType": "city",
            "closest_to": "dharmasthala"
        },
        "dakshina kannada": {
            "blogLinks": [
                "https://www.thrillophilia.com/places-to-visit-near-mangalore"
            ],
            "longitude": "75.1008028650794",
            "address": "Dakshina Kannada, Karnataka, India",
            "latitude": "12.8114089",
            "locType": "administrative",
            "closest_to": "dharmasthala"
        },
        "dharmasthala": {
            "blogLinks": [
                "http://www.team-bhp.com/forum/travelogues/94368-horanadu-sringeri-kollur-gokarna-udupi-karkala-moo-dbidri-mangalore-dharmasthala-kukke.html",
                "http://www.distancesfrom.com/in/directions-from-Bangalore-to-Dharmasthala-via-Chikmagalur/DirectionHistory/6669733.aspx",
                "https://www.mekanagadde.com/places-to-visit/dharmasthala/",
                "https://www.thrillophilia.com/places-to-visit-near-mangalore",
                "http://www.nivalink.com/destination/dharmasthala"
            ],
            "longitude": "75.3813122",
            "address": "Dharmasthala, Beltangadi taluk, Dakshina Kannada, Karnataka, 574216, India",
            "latitude": "12.9519571",
            "locType": "village",
            "closest_to": "dharmasthala"
        },
        "mangaladevi": {
            "blogLinks": [
                "https://www.thrillophilia.com/places-to-visit-near-mangalore"
            ],
            "longitude": "74.8452646984836",
            "address": "Shri Mangaladevi Temple, Mangala Devi Temple Road, Mulihitlu, Bolar, Mangaluru, Mangaluru taluk, Dakshina Kannada, Karnataka, 575001, India",
            "latitude": "12.84923455",
            "locType": "place_of_worship",
            "closest_to": "dharmasthala"
        },
        "bababudangiri": {
            "blogLinks": [
                "http://wikitravel.org/en/Chikmagalur"
            ],
            "longitude": "75.7486618",
            "address": "Bababudangiri Road, Inam Dattatreya Pitha, Chikkamagaluru taluku, Chikkamagaluru district, Karnataka, India",
            "latitude": "13.4297401",
            "locType": "tertiary",
            "closest_to": "chikmagalur"
        },
        "tunga river": {
            "blogLinks": [
                "http://www.mapsofindia.com/karnataka/travel-to-sringeri.html"
            ],
            "longitude": "75.3221835",
            "address": "Tunga, Tirthahalli taluk, Shimoga district, Karnataka, India",
            "latitude": "13.6632221",
            "locType": "river",
            "closest_to": "chikmagalur"
        },
        "lakya dam": {
            "blogLinks": [
                "https://www.thrillophilia.com/places-to-visit-near-mangalore"
            ],
            "longitude": "75.2271128",
            "address": "Lakya Dam, Mudigere taluk, Chikkamagaluru district, Karnataka, India",
            "latitude": "13.2189611",
            "locType": "dam",
            "closest_to": "dharmasthala"
        },
        "chikmagalur": {
            "blogLinks": [
                "http://www.distancesfrom.com/distance-from-dharmasthala-to-chikmagalur/DistanceHistory/152023.aspx",
                "http://www.mapsofindia.com/karnataka/travel-to-sringeri.html",
                "http://wikitravel.org/en/Chikmagalur",
                "https://www.mekanagadde.com/tourist-places-nearby-to-visit/",
                "http://www.distancesfrom.com/in/directions-from-Bangalore-to-Dharmasthala-via-Chikmagalur/DirectionHistory/6669733.aspx",
                "https://www.thrillophilia.com/places-to-visit-near-mangalore",
                "http://www.nivalink.com/destination/dharmasthala",
                "https://www.mekanagadde.com/places-to-visit/dharmasthala/"
            ],
            "longitude": "75.5",
            "address": "Chikmagalur, Chikkamagaluru district, Karnataka, India",
            "latitude": "13.5",
            "locType": "county",
            "closest_to": "dharmasthala"
        },
        "dakshin kannada": {
            "blogLinks": [
                "https://www.thrillophilia.com/places-to-visit-near-mangalore"
            ],
            "longitude": "75.0309089",
            "address": "Dakshin Court, NH73, Kaikunje, Bantwal Cross Road, Bantwal taluk, Dakshina Kannada, Karnataka, India",
            "latitude": "12.8827367",
            "locType": "restaurant",
            "closest_to": "dharmasthala"
        },
        "kalaseshwara temple": {
            "blogLinks": [
                "http://www.nivalink.com/destination/dharmasthala"
            ],
            "longitude": "75.363446975",
            "address": "Kalaseshwara Temple, SH66, Kalasa, Mudigere taluk, Chikkamagaluru district, Karnataka, 577124, India",
            "latitude": "13.23228505",
            "locType": "place_of_worship",
            "closest_to": "dharmasthala"
        },
        "amrutapura": {
            "blogLinks": [
                "http://wikitravel.org/en/Chikmagalur"
            ],
            "longitude": "75.8535015",
            "address": "Amrutapura, Tarikere taluku, Chikkamagaluru district, Karnataka, India",
            "latitude": "13.7425193",
            "locType": "village",
            "closest_to": "chikmagalur"
        },
        "kudremukh": {
            "blogLinks": [
                "http://wikitravel.org/en/Chikmagalur",
                "https://www.thrillophilia.com/places-to-visit-near-mangalore"
            ],
            "longitude": "75.2523304",
            "address": "Kudremukha, Mudigere taluk, Chikkamagaluru district, Karnataka, India",
            "latitude": "13.2144007",
            "locType": "village",
            "closest_to": "dharmasthala"
        },
        "coastal karnataka": {
            "blogLinks": [
                "http://www.nivalink.com/destination/dharmasthala"
            ],
            "longitude": "74.8137275833157",
            "address": "Bharat Petroleum Mangalore Coastal Installation, Baikampady, Mangaluru taluk, Dakshina Kannada, Karnataka, 575014, India",
            "latitude": "12.96014675",
            "locType": "industrial",
            "closest_to": "dharmasthala"
        },
        "kumaradhara river": {
            "blogLinks": [
                "https://www.thrillophilia.com/places-to-visit-near-mangalore"
            ],
            "longitude": "75.4390597",
            "address": "Kumaradhara, Putturu taluk, Dakshina Kannada, Karnataka, India",
            "latitude": "12.7370168",
            "locType": "river",
            "closest_to": "dharmasthala"
        },
        "bhagavathi": {
            "blogLinks": [
                "https://www.thrillophilia.com/places-to-visit-near-mangalore"
            ],
            "longitude": "74.8372435",
            "address": "Bhagavathi Nagar, 2nd Main Rd, Dongerkeri, Kudroli, Mangaluru, Mangaluru taluk, Dakshina Kannada, Karnataka, 575001, India",
            "latitude": "12.8788638",
            "locType": "tertiary",
            "closest_to": "dharmasthala"
        },
        "hebri": {
            "blogLinks": [
                "https://en.wikipedia.org/wiki/Sringeri"
            ],
            "longitude": "74.9911872",
            "address": "Hebri, Karkala taluk, Udupi district, Karnataka, India",
            "latitude": "13.4586986",
            "locType": "village",
            "closest_to": "chikmagalur"
        },
        "kannada": {
            "blogLinks": [
                "https://www.mekanagadde.com/tourist-places-nearby-to-visit/",
                "https://www.thrillophilia.com/places-to-visit-near-mangalore"
            ],
            "longitude": "75.1008028650794",
            "address": "Dakshina Kannada, Karnataka, India",
            "latitude": "12.8114089",
            "locType": "administrative",
            "closest_to": "dharmasthala"
        },
        "horanadu": {
            "blogLinks": [
                "http://www.team-bhp.com/forum/travelogues/94368-horanadu-sringeri-kollur-gokarna-udupi-karkala-moo-dbidri-mangalore-dharmasthala-kukke.html",
                "http://www.mapsofindia.com/karnataka/travel-to-sringeri.html"
            ],
            "longitude": "75.3445161",
            "address": "Horanadu, Mudigere taluk, Chikkamagaluru district, Karnataka, 577181, India",
            "latitude": "13.2761199",
            "locType": "town",
            "closest_to": "dharmasthala"
        },
        "moodabidri": {
            "blogLinks": [
                "https://www.thrillophilia.com/places-to-visit-near-mangalore"
            ],
            "longitude": "74.9977469",
            "address": "Moodabidri, Mangaluru taluk, Dakshina Kannada, Karnataka, 574227, India",
            "latitude": "13.0699218",
            "locType": "town",
            "closest_to": "dharmasthala"
        },
        "chennakesava": {
            "blogLinks": [
                "https://www.mekanagadde.com/tourist-places-nearby-to-visit/"
            ],
            "longitude": "75.8603311",
            "address": "Chennakesava Temple, NH73, Navilahalli, Beluru taluk, Hassan district, Karnataka, India",
            "latitude": "13.1629239",
            "locType": "place_of_worship",
            "closest_to": "dharmasthala"
        },
        "kadur": {
            "blogLinks": [
                "http://wikitravel.org/en/Chikmagalur",
                "https://en.wikipedia.org/wiki/Sringeri"
            ],
            "longitude": "75.7820095",
            "address": "Mudigere-Kadur Road, Basavannahalli, Chikkamagaluru, Chikkamagaluru taluku, Chikkamagaluru district, Karnataka, 577101, India",
            "latitude": "13.3283654",
            "locType": "trunk",
            "closest_to": "dharmasthala"
        },
        "sakleshpur": {
            "blogLinks": [
                "https://www.mekanagadde.com/tourist-places-nearby-to-visit/"
            ],
            "longitude": "75.7862318",
            "address": "Sakaleshpura, Sakaleshapura taluk, Hassan district, Karnataka, 573134, India",
            "latitude": "12.9434349",
            "locType": "town",
            "closest_to": "dharmasthala"
        },
        "kemmannagundi": {
            "blogLinks": [
                "http://wikitravel.org/en/Chikmagalur"
            ],
            "longitude": "75.7520082",
            "address": "Kemmannagundi, Tarikere taluku, Chikkamagaluru district, Karnataka, India",
            "latitude": "13.5463048",
            "locType": "village",
            "closest_to": "chikmagalur"
        },
        "belur": {
            "blogLinks": [
                "http://www.team-bhp.com/forum/travelogues/94368-horanadu-sringeri-kollur-gokarna-udupi-karkala-moo-dbidri-mangalore-dharmasthala-kukke.html",
                "http://wikitravel.org/en/Chikmagalur"
            ],
            "longitude": "75.8634851",
            "address": "Belur, Beluru taluk, Hassan district, Karnataka, 573115, India",
            "latitude": "13.1645671",
            "locType": "town",
            "closest_to": "dharmasthala"
        },
        "dakshina kashi": {
            "blogLinks": [
                "https://www.mekanagadde.com/tourist-places-nearby-to-visit/"
            ],
            "longitude": "75.2439609",
            "address": "Sahasralingeshwara Temple, Car Street, Uppinangadi, Putturu taluk, Dakshina Kannada, Karnataka, India",
            "latitude": "12.838765",
            "locType": "place_of_worship",
            "closest_to": "dharmasthala"
        },
        "tannirbhavi": {
            "blogLinks": [
                "https://www.thrillophilia.com/places-to-visit-near-mangalore"
            ],
            "longitude": "74.8132559697314",
            "address": "Tannirbhavi Beach, Matadakani Road, Bokkapatna, Kudroli, Mangaluru, Mangaluru taluk, Dakshina Kannada, Karnataka, 575001, India",
            "latitude": "12.8953559",
            "locType": "beach",
            "closest_to": "dharmasthala"
        },
        "st. aloysius chapel": {
            "blogLinks": [
                "https://www.thrillophilia.com/places-to-visit-near-mangalore"
            ],
            "longitude": "74.8453615",
            "address": "St. Aloysius Chapel, St Aloysius Internal Road, Dongerkeri, Mallikatte, Mangaluru, Mangaluru taluk, Dakshina Kannada, Karnataka, 575001, India",
            "latitude": "12.8737995",
            "locType": "place_of_worship",
            "closest_to": "dharmasthala"
        },
        "kigga": {
            "blogLinks": [
                "http://www.mapsofindia.com/karnataka/travel-to-sringeri.html",
                "https://en.wikipedia.org/wiki/Sringeri"
            ],
            "longitude": "75.1903656777356",
            "address": "Kigga, Sringeri taluku, Chikkamagaluru district, Karnataka, 577139, India",
            "latitude": "13.41691525",
            "locType": "village",
            "closest_to": "dharmasthala"
        },
        "hebbe": {
            "blogLinks": [
                "http://wikitravel.org/en/Chikmagalur"
            ],
            "longitude": "75.7253701",
            "address": "Hebbe falls, Kemmannagundi Road, Attigundi, Chikkamagaluru taluku, Chikkamagaluru district, Karnataka, India",
            "latitude": "13.5414025",
            "locType": "attraction",
            "closest_to": "chikmagalur"
        },
        "dakshina kannada district": {
            "blogLinks": [
                "https://www.mekanagadde.com/tourist-places-nearby-to-visit/"
            ],
            "longitude": "74.9813132",
            "address": "Dakshina Kannada, Karnataka, India",
            "latitude": "12.9324457",
            "locType": "county",
            "closest_to": "dharmasthala"
        },
        "charmadi": {
            "blogLinks": [
                "http://www.team-bhp.com/forum/travelogues/94368-horanadu-sringeri-kollur-gokarna-udupi-karkala-moo-dbidri-mangalore-dharmasthala-kukke.html"
            ],
            "longitude": "75.3967377",
            "address": "Charmadi, Beltangadi taluk, Dakshina Kannada, Karnataka, 574290, India",
            "latitude": "13.0365436",
            "locType": "village",
            "closest_to": "dharmasthala"
        },
        "mangalore international airport": {
            "blogLinks": [
                "http://www.mapsofindia.com/karnataka/travel-to-sringeri.html",
                "https://en.wikipedia.org/wiki/Sringeri"
            ],
            "longitude": "74.887492668144",
            "address": "Mangalore International Airport, Airport Entry Road, Gandhinagar, Kenjar, Mangaluru taluk, Dakshina Kannada, Karnataka, 575015, India",
            "latitude": "12.95518575",
            "locType": "aerodrome",
            "closest_to": "dharmasthala"
        },
        "gowdahalli": {
            "blogLinks": [
                "http://wikitravel.org/en/Chikmagalur"
            ],
            "longitude": "75.5981999",
            "address": "Gowdahalli, Mudigere taluk, Chikkamagaluru district, Karnataka, India",
            "latitude": "13.0422415",
            "locType": "village",
            "closest_to": "dharmasthala"
        },
        "jamalabad": {
            "blogLinks": [
                "https://www.thrillophilia.com/places-to-visit-near-mangalore"
            ],
            "longitude": "75.2958407",
            "address": "Jamalabad Fort, NH73, Halepete, Beltangadi taluk, Dakshina Kannada, Karnataka, 574214, India",
            "latitude": "13.0273698",
            "locType": "attraction",
            "closest_to": "dharmasthala"
        },
        "manikyadhara": {
            "blogLinks": [
                "http://wikitravel.org/en/Chikmagalur"
            ],
            "longitude": "75.7701434",
            "address": "Manikyadhara, Bababudangiri Road, Inam Dattatreya Pitha, Chikkamagaluru taluku, Chikkamagaluru district, Karnataka, India",
            "latitude": "13.4220248",
            "locType": "attraction",
            "closest_to": "chikmagalur"
        },
        "karkala": {
            "blogLinks": [
                "https://www.thrillophilia.com/places-to-visit-near-mangalore",
                "https://en.wikipedia.org/wiki/Sringeri"
            ],
            "longitude": "74.9959586",
            "address": "Karkala, Karkala taluk, Udupi district, Karnataka, 574104, India",
            "latitude": "13.2112826",
            "locType": "town",
            "closest_to": "dharmasthala"
        },
        "tunga": {
            "blogLinks": [
                "https://en.wikipedia.org/wiki/Sringeri"
            ],
            "longitude": "75.3221835",
            "address": "Tunga, Tirthahalli taluk, Shimoga district, Karnataka, India",
            "latitude": "13.6632221",
            "locType": "river",
            "closest_to": "chikmagalur"
        },
        "sullia": {
            "blogLinks": [
                "https://www.mekanagadde.com/tourist-places-nearby-to-visit/"
            ],
            "longitude": "75.3907575",
            "address": "Sulya, Sulya taluk, Dakshina Kannada, Karnataka, 574239, India",
            "latitude": "12.5576644",
            "locType": "town",
            "closest_to": "dharmasthala"
        },
        "sringeri": {
            "blogLinks": [
                "http://www.team-bhp.com/forum/travelogues/94368-horanadu-sringeri-kollur-gokarna-udupi-karkala-moo-dbidri-mangalore-dharmasthala-kukke.html",
                "http://www.mapsofindia.com/karnataka/travel-to-sringeri.html",
                "https://en.wikipedia.org/wiki/Sringeri"
            ],
            "longitude": "75.2553718",
            "address": "Sringeri, Sringeri taluku, Chikkamagaluru district, Karnataka, 577592, India",
            "latitude": "13.4261724",
            "locType": "town",
            "closest_to": "dharmasthala"
        },
        "ananthapadmanabha temple": {
            "blogLinks": [
                "https://www.thrillophilia.com/places-to-visit-near-mangalore"
            ],
            "longitude": "74.8937899082456",
            "address": "Kudupu Ananthapadmanabha Temple, Solapur-Mangalore Highway, Shakthinagar, Kulashekara, Kudupu, Mangaluru taluk, Dakshina Kannada, Karnataka, 575007, India",
            "latitude": "12.9039019",
            "locType": "place_of_worship",
            "closest_to": "dharmasthala"
        }
    }
}