{
    "hospet": {
        "lat": "15.266079",
        "class": "place",
        "importance": 0.58103719218669,
        "osm_type": "node",
        "lon": "76.3870527",
        "place_id": "5056786",
        "display_name": "Hosapete, Hosapete taluk, Bellary district, Karnataka, 583200, India",
        "osm_id": "571418235",
        "boundingbox": [
            "15.226079",
            "15.306079",
            "76.3470527",
            "76.4270527"
        ],
        "type": "town",
        "licence": "Data \u00a9 OpenStreetMap contributors, ODbL 1.0. http://www.openstreetmap.org/copyright",
        "icon": "https://nominatim.openstreetmap.org/images/mapicons/poi_place_town.p.20.png"
    },
    "chikmagalur": {
        "lat": "13.5",
        "class": "place",
        "importance": 0.65,
        "osm_type": "node",
        "lon": "75.5",
        "place_id": "1426840",
        "display_name": "Chikmagalur, Chikkamagaluru district, Karnataka, India",
        "osm_id": "316417001",
        "boundingbox": [
            "12.86",
            "14.14",
            "74.86",
            "76.14"
        ],
        "type": "county",
        "licence": "Data \u00a9 OpenStreetMap contributors, ODbL 1.0. http://www.openstreetmap.org/copyright",
        "icon": "https://nominatim.openstreetmap.org/images/mapicons/poi_boundary_administrative.p.20.png"
    },
    "mentions": {
        "kamalapura": {
            "blogLinks": [
                "https://www.tripoto.com/weekend-getaways/from-chikkamagaluru"
            ],
            "longitude": "75.7316366",
            "address": "Kamalapura, Harihara taluku, Davanagere district, Karnataka, India",
            "latitude": "14.4449672",
            "locType": "village",
            "closest_to": "hospet"
        },
        "matanga hill": {
            "blogLinks": [
                "https://www.thrillophilia.com/places-to-visit-in-hampi"
            ],
            "longitude": "76.4682314",
            "address": "Matanga Hill, Hosapete taluk, Bellary district, Karnataka, India",
            "latitude": "15.3315267",
            "locType": "peak",
            "closest_to": "hospet"
        },
        "maradi": {
            "blogLinks": [
                "http://travel.india.com/chikmagalur/"
            ],
            "longitude": "76.0757799",
            "address": "Maradi, Arakalagudu taluk, Hassan district, Karnataka, India",
            "latitude": "12.8130205",
            "locType": "village",
            "closest_to": "chikmagalur"
        },
        "kadalekalu ganesha": {
            "blogLinks": [
                "https://www.thrillophilia.com/places-to-visit-in-hampi"
            ],
            "longitude": "76.4611816490679",
            "address": "Kadalekalu Ganesha, Hampi Kamalapura Road, Hampe, Hosapete taluk, Bellary district, Karnataka, 583239, India",
            "latitude": "15.3328686",
            "locType": "place_of_worship",
            "closest_to": "hospet"
        },
        "maharaja": {
            "blogLinks": [
                "http://travel.india.com/chikmagalur/"
            ],
            "longitude": "76.6438602",
            "address": "Maharaja, College Road, Vani Vilas, Mysuru, Mysuru taluk, Mysuru district, Karnataka, 570001, India",
            "latitude": "12.3047676",
            "locType": "restaurant",
            "closest_to": "chikmagalur"
        },
        "india": {
            "blogLinks": [
                "https://www.thrillophilia.com/places-to-visit-in-hampi",
                "https://www.tripoto.com/weekend-getaways/from-chikkamagaluru",
                "http://www.mapsofindia.com/maps/karnataka/",
                "http://distancecalculator.globefeed.com/India_Distance_Calculator.asp?state=19",
                "https://www.indiatravelforum.in/threads/hampi-travel-guide.697/",
                "http://travel.india.com/articles/top-10-places-to-visit-in-india-this-monsoon/",
                "http://travel.india.com/chikmagalur/",
                "http://www.nivalink.com/destination/hospet",
                "https://www.tripoto.com/travel-guide/karnataka/places-to-visit",
                "http://www.nivalink.com/destination/chikmagalur",
                "http://www.mapsofindia.com/karnataka/places-to-visit-in-hampi.html",
                "http://www.travelhaathi.com/hampi-travel-guide/",
                "https://www.triphobo.com/blog/places-to-visit-chikmagalur"
            ],
            "longitude": "75.7223521",
            "address": "Karnataka, India",
            "latitude": "14.5203896",
            "locType": "administrative",
            "closest_to": "hospet"
        },
        "bijapur": {
            "blogLinks": [
                "https://www.thrillophilia.com/places-to-visit-in-hampi",
                "https://www.tripoto.com/travel-guide/karnataka/places-to-visit"
            ],
            "longitude": "75.7175387",
            "address": "Vijayapura, Vijayapura taluk, Bijapur district, Karnataka, 586101, India",
            "latitude": "16.8269911",
            "locType": "city",
            "closest_to": "hospet"
        },
        "pushkarani": {
            "blogLinks": [
                "https://www.tripoto.com/travel-guide/karnataka/places-to-visit"
            ],
            "longitude": "74.7063912580927",
            "address": "Pushkarani, NH66, Thekkatte, \u0c95\u0cc1\u0c82\u0ca6\u0cbe\u0caa\u0cc1\u0cb0 \u0ca4\u0cbe\u0cb2\u0cc2\u0c95\u0cc1, Udupi district, Karnataka, 576231, India",
            "latitude": "13.5218095",
            "locType": "water",
            "closest_to": "chikmagalur"
        },
        "ramanagara": {
            "blogLinks": [
                "http://www.nivalink.com/destination/hospet"
            ],
            "longitude": "74.4900863",
            "address": "Ramanagara, Khanapura taluku, Belgaum district, Karnataka, India",
            "latitude": "15.422047",
            "locType": "town",
            "closest_to": "hospet"
        },
        "sakleshpur": {
            "blogLinks": [
                "http://www.mygola.com/road-trip-from-bangalore-to-chikmagalur/q9090"
            ],
            "longitude": "75.7862318",
            "address": "Sakaleshpura, Sakaleshapura taluk, Hassan district, Karnataka, 573134, India",
            "latitude": "12.9434349",
            "locType": "town",
            "closest_to": "chikmagalur"
        },
        "dharmastala": {
            "blogLinks": [
                "https://www.tripoto.com/travel-guide/karnataka/places-to-visit"
            ],
            "longitude": "75.3813122",
            "address": "Dharmasthala, Beltangadi taluk, Dakshina Kannada, Karnataka, 574216, India",
            "latitude": "12.9519571",
            "locType": "village",
            "closest_to": "chikmagalur"
        },
        "bmc": {
            "blogLinks": [
                "https://www.tripoto.com/travel-guide/karnataka/places-to-visit"
            ],
            "longitude": "76.9436322232617",
            "address": "Basaveshwara Medical Center, Basaveshwara Nagar 1st Cross, Ballari, Bellary taluk, Bellary district, Karnataka, 583103, India",
            "latitude": "15.15578195",
            "locType": "yes",
            "closest_to": "hospet"
        },
        "anjanadri hill": {
            "blogLinks": [
                "https://www.thrillophilia.com/places-to-visit-in-hampi"
            ],
            "longitude": "76.4691482",
            "address": "Anjanadri Hill, Gangavati taluku, Koppal district, Karnataka, India",
            "latitude": "15.3550046",
            "locType": "peak",
            "closest_to": "hospet"
        },
        "anegundi": {
            "blogLinks": [
                "https://www.thrillophilia.com/places-to-visit-in-hampi"
            ],
            "longitude": "76.4924232",
            "address": "Anegundi, Gangavati taluku, Koppal district, Karnataka, India",
            "latitude": "15.3509583",
            "locType": "village",
            "closest_to": "hospet"
        },
        "veerabhadreshwara temple": {
            "blogLinks": [
                "https://www.triphobo.com/blog/places-to-visit-chikmagalur"
            ],
            "longitude": "75.4155774",
            "address": "Veerabhadreshwara Temple, Trek to Ballalaryandurga and Bandaje falls, Sunkasale, Mudigere taluk, Chikkamagaluru district, Karnataka, India",
            "latitude": "13.149129",
            "locType": "place_of_worship",
            "closest_to": "chikmagalur"
        },
        "half moon": {
            "blogLinks": [
                "https://www.tripoto.com/travel-guide/karnataka/places-to-visit"
            ],
            "longitude": "74.3317205",
            "address": "Half Moon Garden Caf\u00e9, Om beach road, Gokarna, Kumata taluk, Uttara Kannada, Karnataka, 581326, India",
            "latitude": "14.5181286",
            "locType": "restaurant",
            "closest_to": "chikmagalur"
        },
        "kudremukh": {
            "blogLinks": [
                "http://travel.india.com/chikmagalur/",
                "https://www.triphobo.com/blog/places-to-visit-chikmagalur"
            ],
            "longitude": "75.2523304",
            "address": "Kudremukha, Mudigere taluk, Chikkamagaluru district, Karnataka, India",
            "latitude": "13.2144007",
            "locType": "village",
            "closest_to": "chikmagalur"
        },
        "hospet junction": {
            "blogLinks": [
                "http://www.travelhaathi.com/hampi-travel-guide/"
            ],
            "longitude": "76.3869935",
            "address": "Hospet Junction, Station Road, Basavanada, Hosapete taluk, Bellary district, Karnataka, 583201, India",
            "latitude": "15.2865104",
            "locType": "station",
            "closest_to": "hospet"
        },
        "prince restaurant": {
            "blogLinks": [
                "https://www.tripoto.com/weekend-getaways/from-chikkamagaluru"
            ],
            "longitude": "76.4602348",
            "address": "Prince, Hampi Bazaar, Hampe, Hosapete taluk, Bellary district, Karnataka, 583239, India",
            "latitude": "15.3355701",
            "locType": "restaurant",
            "closest_to": "hospet"
        },
        "kudremukh national park": {
            "blogLinks": [
                "https://www.triphobo.com/blog/places-to-visit-chikmagalur"
            ],
            "longitude": "75.1828713712862",
            "address": "Kudremukh National Park, SH66, Sringeri taluku, Chikkamagaluru district, Karnataka, India",
            "latitude": "13.25397485",
            "locType": "national_park",
            "closest_to": "chikmagalur"
        },
        "south-west": {
            "blogLinks": [
                "https://www.thrillophilia.com/places-to-visit-in-hampi"
            ],
            "longitude": "75.7223521",
            "address": "Karnataka, India",
            "latitude": "14.5203896",
            "locType": "administrative",
            "closest_to": "hospet"
        },
        "mandya district of karnataka": {
            "blogLinks": [
                "https://www.tripoto.com/travel-guide/karnataka/places-to-visit"
            ],
            "longitude": "76.7302318329607",
            "address": "Mandya district, Karnataka, India",
            "latitude": "12.6336348",
            "locType": "administrative",
            "closest_to": "chikmagalur"
        },
        "tungabhadra": {
            "blogLinks": [
                "http://www.holidayiq.com/destinations/reviews/a-nice-place-to-see-the-art-74452.html",
                "http://www.nivalink.com/destination/hospet",
                "https://www.tripoto.com/travel-guide/karnataka/places-to-visit"
            ],
            "longitude": "76.4931607",
            "address": "Tungabhadra, Gangavati taluku, Koppal district, Karnataka, India",
            "latitude": "15.3446123",
            "locType": "river",
            "closest_to": "hospet"
        },
        "malpe beach": {
            "blogLinks": [
                "https://www.tripoto.com/travel-guide/karnataka/places-to-visit"
            ],
            "longitude": "74.6977767",
            "address": "Malpe Beach, Malpe Road, Adi Udupi, Malpe, Udupi taluku, Udupi district, Karnataka, 576101, India",
            "latitude": "13.3610748",
            "locType": "marina",
            "closest_to": "chikmagalur"
        },
        "tirupati": {
            "blogLinks": [
                "https://www.tripoto.com/travel-guide/karnataka/places-to-visit"
            ],
            "longitude": "76.2727455",
            "address": "Malekallu Tirupathi, Arasikere taluku, Hassan district, Karnataka, India",
            "latitude": "13.3289007",
            "locType": "village",
            "closest_to": "hospet"
        },
        "monkey temple": {
            "blogLinks": [
                "https://www.thrillophilia.com/places-to-visit-in-hampi"
            ],
            "longitude": "76.469358",
            "address": "Monkey temple, SH130, Basapura, Koppala taluku, Koppal district, Karnataka, India",
            "latitude": "15.354654",
            "locType": "place_of_worship",
            "closest_to": "hospet"
        },
        "kurubarahalli": {
            "blogLinks": [
                "https://www.tripoto.com/travel-guide/karnataka/places-to-visit"
            ],
            "longitude": "76.2083178",
            "address": "Kurubarahalli, Arasikere taluku, Hassan district, Karnataka, India",
            "latitude": "13.3909664",
            "locType": "village",
            "closest_to": "hospet"
        },
        "coorg": {
            "blogLinks": [
                "https://www.tripoto.com/weekend-getaways/from-chikkamagaluru",
                "https://www.tripoto.com/travel-guide/karnataka/places-to-visit"
            ],
            "longitude": "75.740031",
            "address": "Madikeri, Madikeri taluku, Kodagu, Karnataka, India",
            "latitude": "12.4204003",
            "locType": "town",
            "closest_to": "chikmagalur"
        },
        "dakshina kannada": {
            "blogLinks": [
                "https://www.tripoto.com/weekend-getaways/from-chikkamagaluru",
                "http://www.mapsofindia.com/maps/karnataka/"
            ],
            "longitude": "75.1008028650794",
            "address": "Dakshina Kannada, Karnataka, India",
            "latitude": "12.8114089",
            "locType": "administrative",
            "closest_to": "chikmagalur"
        },
        "nelamangala": {
            "blogLinks": [
                "http://www.mygola.com/road-trip-from-bangalore-to-chikmagalur/q9090"
            ],
            "longitude": "77.3963586",
            "address": "Nelamangala, Nelamangala taluk, Bangalore Rural, Karnataka, India",
            "latitude": "13.0953024",
            "locType": "town",
            "closest_to": "chikmagalur"
        },
        "manjarabad fort": {
            "blogLinks": [
                "http://www.mygola.com/road-trip-from-bangalore-to-chikmagalur/q9090"
            ],
            "longitude": "75.7580572896098",
            "address": "Manjarabad Fort, SH27, Hullahalli, Sakaleshapura taluk, Hassan district, Karnataka, 573134, India",
            "latitude": "12.9173302",
            "locType": "attraction",
            "closest_to": "chikmagalur"
        },
        "kodagu": {
            "blogLinks": [
                "https://www.tripoto.com/weekend-getaways/from-chikkamagaluru",
                "http://www.mapsofindia.com/maps/karnataka/",
                "https://www.tripoto.com/travel-guide/karnataka/places-to-visit"
            ],
            "longitude": "75.6677235950852",
            "address": "Kodagu, Karnataka, India",
            "latitude": "12.38117345",
            "locType": "administrative",
            "closest_to": "chikmagalur"
        },
        "halebidu": {
            "blogLinks": [
                "http://www.nivalink.com/destination/chikmagalur"
            ],
            "longitude": "76.4607075",
            "address": "Halebidu, Hunasuru taluk, Mysuru district, Karnataka, India",
            "latitude": "12.359893",
            "locType": "village",
            "closest_to": "chikmagalur"
        },
        "karnataka": {
            "blogLinks": [
                "https://www.thrillophilia.com/places-to-visit-in-hampi",
                "https://www.quora.com/What-are-the-best-places-to-visit-in-Chikmagalur",
                "http://www.buzzntravel.com/hospet_1",
                "http://www.mygola.com/road-trip-from-bangalore-to-chikmagalur/q9090",
                "https://www.tripoto.com/weekend-getaways/from-chikkamagaluru",
                "http://www.mapsofindia.com/maps/karnataka/",
                "http://distancecalculator.globefeed.com/India_Distance_Calculator.asp?state=19",
                "http://www.hellotravel.com/deals/55486.html",
                "http://travel.india.com/articles/top-10-places-to-visit-in-india-this-monsoon/",
                "https://www.indiatravelforum.in/threads/hampi-travel-guide.697/",
                "https://www.tripadvisor.in/Hotels-g297629-Chikamagalur_Karnataka-Hotels.html",
                "http://travel.india.com/chikmagalur/",
                "http://www.nivalink.com/destination/hospet",
                "https://www.tripoto.com/travel-guide/karnataka/places-to-visit",
                "http://www.nivalink.com/destination/chikmagalur",
                "http://www.mapsofindia.com/karnataka/places-to-visit-in-hampi.html",
                "http://www.karnatakatourism.org/",
                "http://www.travelhaathi.com/hampi-travel-guide/",
                "http://www.holidayiq.com/destinations/reviews/a-nice-place-to-see-the-art-74452.html",
                "https://www.triphobo.com/blog/places-to-visit-chikmagalur"
            ],
            "longitude": "76.6639936",
            "address": "Karnataka, Shalivahana Road, Nazarbad, Mysuru, Mysuru taluk, Mysuru district, Karnataka, 570001, India",
            "latitude": "12.3084901",
            "locType": "atm",
            "closest_to": "chikmagalur"
        },
        "om beach": {
            "blogLinks": [
                "https://www.tripoto.com/travel-guide/karnataka/places-to-visit"
            ],
            "longitude": "74.3254331800289",
            "address": "Om Beach, Om beach road, Gokarna, Kumata taluk, Uttara Kannada, Karnataka, 581326, India",
            "latitude": "14.5190376",
            "locType": "beach",
            "closest_to": "chikmagalur"
        },
        "hemakuta": {
            "blogLinks": [
                "https://www.thrillophilia.com/places-to-visit-in-hampi",
                "https://www.indiatravelforum.in/threads/hampi-travel-guide.697/"
            ],
            "longitude": "76.4602971",
            "address": "Hemakuta Hill, Hosapete taluk, Bellary district, Karnataka, India",
            "latitude": "15.332915",
            "locType": "peak",
            "closest_to": "hospet"
        },
        "mangalore": {
            "blogLinks": [
                "http://www.nivalink.com/destination/chikmagalur",
                "http://travel.india.com/chikmagalur/",
                "http://www.mygola.com/road-trip-from-bangalore-to-chikmagalur/q9090",
                "https://www.tripoto.com/travel-guide/karnataka/places-to-visit"
            ],
            "longitude": "74.8430082",
            "address": "Mangaluru, Mangaluru taluk, Dakshina Kannada, Karnataka, 575001, India",
            "latitude": "12.8698101",
            "locType": "city",
            "closest_to": "chikmagalur"
        },
        "south fort": {
            "blogLinks": [
                "http://www.mygola.com/road-trip-from-bangalore-to-chikmagalur/q9090"
            ],
            "longitude": "75.5823545103161",
            "address": "Karnataka Electric Board, 100 ft Ring Road, Basavana Gudi, Shivamogga, Shivamogga taluku, Shimoga district, Karnataka, 577200, India",
            "latitude": "13.94174775",
            "locType": "yes",
            "closest_to": "hospet"
        },
        "kappe chennigaraya": {
            "blogLinks": [
                "http://travel.india.com/chikmagalur/"
            ],
            "longitude": "75.8603867",
            "address": "Kappe Chennigaraya Temple, NH73, Navilahalli, Beluru taluk, Hassan district, Karnataka, India",
            "latitude": "13.1624691",
            "locType": "archaeological_site",
            "closest_to": "chikmagalur"
        },
        "chennakesava temple": {
            "blogLinks": [
                "https://www.tripoto.com/travel-guide/karnataka/places-to-visit"
            ],
            "longitude": "75.8603311",
            "address": "Chennakesava Temple, NH73, Navilahalli, Beluru taluk, Hassan district, Karnataka, India",
            "latitude": "13.1629239",
            "locType": "place_of_worship",
            "closest_to": "chikmagalur"
        },
        "channarayapattana": {
            "blogLinks": [
                "https://www.tripoto.com/travel-guide/karnataka/places-to-visit"
            ],
            "longitude": "76.3895641",
            "address": "Channarayapattana, Channarayapattana taluk, Hassan district, Karnataka, 573116, India",
            "latitude": "12.9068769",
            "locType": "town",
            "closest_to": "chikmagalur"
        },
        "paradise beach": {
            "blogLinks": [
                "https://www.tripoto.com/travel-guide/karnataka/places-to-visit"
            ],
            "longitude": "74.3375798576938",
            "address": "Paradise Beach, Om beach road, Gokarna, Kumata taluk, Uttara Kannada, Karnataka, 581326, India",
            "latitude": "14.5181133",
            "locType": "beach",
            "closest_to": "chikmagalur"
        },
        "kudle": {
            "blogLinks": [
                "https://www.tripoto.com/travel-guide/karnataka/places-to-visit"
            ],
            "longitude": "74.3178853",
            "address": "Kudle Ocean Front resort, Om beach road, Gokarna, Kumata taluk, Uttara Kannada, Karnataka, 581326, India",
            "latitude": "14.5290707",
            "locType": "hotel",
            "closest_to": "chikmagalur"
        },
        "hubli": {
            "blogLinks": [
                "http://travel.india.com/chikmagalur/",
                "https://www.indiatravelforum.in/threads/hampi-travel-guide.697/",
                "http://www.nivalink.com/destination/hospet",
                "http://www.travelhaathi.com/hampi-travel-guide/"
            ],
            "longitude": "75.1379848",
            "address": "Hubballi - \u0cb9\u0cc1\u0cac\u0ccd\u0cac\u0cb3\u0ccd\u0cb3\u0cbf, Hubballi taluku, Dharwad district, Karnataka, 580020, India",
            "latitude": "15.3518378",
            "locType": "city",
            "closest_to": "hospet"
        },
        "chennakesava": {
            "blogLinks": [
                "http://travel.india.com/chikmagalur/"
            ],
            "longitude": "75.8603311",
            "address": "Chennakesava Temple, NH73, Navilahalli, Beluru taluk, Hassan district, Karnataka, India",
            "latitude": "13.1629239",
            "locType": "place_of_worship",
            "closest_to": "chikmagalur"
        },
        "malpe": {
            "blogLinks": [
                "https://www.tripoto.com/travel-guide/karnataka/places-to-visit"
            ],
            "longitude": "74.7036914",
            "address": "Malpe, Udupi taluku, Udupi district, Karnataka, India",
            "latitude": "13.3507423",
            "locType": "village",
            "closest_to": "chikmagalur"
        },
        "kikkeri": {
            "blogLinks": [
                "https://www.triphobo.com/blog/places-to-visit-chikmagalur"
            ],
            "longitude": "76.4257051",
            "address": "Kikkeri, Krishnarajapete taluk, Mandya district, Karnataka, India",
            "latitude": "12.7632226",
            "locType": "village",
            "closest_to": "chikmagalur"
        },
        "kurnool": {
            "blogLinks": [
                "http://www.nivalink.com/destination/hospet"
            ],
            "longitude": "77.4217916",
            "address": "Karnataka Guest House, Jadcherla - Hagari Road, Kurnool, Andhra Pradesh, India",
            "latitude": "15.9394081",
            "locType": "hotel",
            "closest_to": "hospet"
        },
        "domestic airport": {
            "blogLinks": [
                "http://www.travelhaathi.com/hampi-travel-guide/"
            ],
            "longitude": "74.8901343659439",
            "address": "Mangalore Airport Old Terminal - Departure Domestic; Arrival and Departure International, SH67, Gandhinagar, Kenjar, Mangaluru taluk, Dakshina Kannada, Karnataka, 575015, India",
            "latitude": "12.96316115",
            "locType": "terminal",
            "closest_to": "chikmagalur"
        },
        "kalhatti falls": {
            "blogLinks": [
                "https://www.quora.com/What-are-the-best-places-to-visit-in-Chikmagalur"
            ],
            "longitude": "75.7889882",
            "address": "Kallathgiri falls, Tarikere taluku, Chikkamagaluru district, Karnataka, India",
            "latitude": "13.5499877",
            "locType": "waterfall",
            "closest_to": "hospet"
        },
        "gadag": {
            "blogLinks": [
                "https://www.indiatravelforum.in/threads/hampi-travel-guide.697/",
                "http://www.mapsofindia.com/maps/karnataka/"
            ],
            "longitude": "75.6300786",
            "address": "Gadag, Gadag taluk, Gadag district, Karnataka, 582101, India",
            "latitude": "15.4263647",
            "locType": "town",
            "closest_to": "hospet"
        },
        "belur": {
            "blogLinks": [
                "http://www.nivalink.com/destination/chikmagalur",
                "http://travel.india.com/chikmagalur/",
                "http://www.mygola.com/road-trip-from-bangalore-to-chikmagalur/q9090"
            ],
            "longitude": "75.8634851",
            "address": "Belur, Beluru taluk, Hassan district, Karnataka, 573115, India",
            "latitude": "13.1645671",
            "locType": "town",
            "closest_to": "chikmagalur"
        },
        "kamalapur": {
            "blogLinks": [
                "http://www.travelhaathi.com/hampi-travel-guide/"
            ],
            "longitude": "75.003629911571",
            "address": "Kamalapur Nursing Home, Station Road, Kalyana nagar, Gandhinagar, Dharwad, Dharawada taluku, Dharwad district, Karnataka, 580001, India",
            "latitude": "15.4456282",
            "locType": "yes",
            "closest_to": "hospet"
        },
        "tadiyandamol": {
            "blogLinks": [
                "https://www.tripoto.com/travel-guide/karnataka/places-to-visit"
            ],
            "longitude": "75.608815",
            "address": "Tadiandamol, Madikeri taluku, Kodagu, Karnataka, India",
            "latitude": "12.2175641",
            "locType": "peak",
            "closest_to": "chikmagalur"
        },
        "virupaksha temple": {
            "blogLinks": [
                "https://www.thrillophilia.com/places-to-visit-in-hampi",
                "http://www.mapsofindia.com/karnataka/places-to-visit-in-hampi.html",
                "https://www.indiatravelforum.in/threads/hampi-travel-guide.697/"
            ],
            "longitude": "76.4587777156223",
            "address": "Virupaksha Temple, Hampi Bazaar, Hampe, Hosapete taluk, Bellary district, Karnataka, 583239, India",
            "latitude": "15.3351754",
            "locType": "place_of_worship",
            "closest_to": "hospet"
        },
        "hemakuta hill": {
            "blogLinks": [
                "https://www.thrillophilia.com/places-to-visit-in-hampi",
                "http://www.travelhaathi.com/hampi-travel-guide/",
                "https://www.tripoto.com/weekend-getaways/from-chikkamagaluru",
                "https://www.tripoto.com/travel-guide/karnataka/places-to-visit"
            ],
            "longitude": "76.4602971",
            "address": "Hemakuta Hill, Hosapete taluk, Bellary district, Karnataka, India",
            "latitude": "15.332915",
            "locType": "peak",
            "closest_to": "hospet"
        },
        "west of hubli": {
            "blogLinks": [
                "http://www.travelhaathi.com/hampi-travel-guide/"
            ],
            "longitude": "75.1379848",
            "address": "Hubballi - \u0cb9\u0cc1\u0cac\u0ccd\u0cac\u0cb3\u0ccd\u0cb3\u0cbf, Hubballi taluku, Dharwad district, Karnataka, 580020, India",
            "latitude": "15.3518378",
            "locType": "city",
            "closest_to": "hospet"
        },
        "gokarna": {
            "blogLinks": [
                "https://www.tripoto.com/travel-guide/karnataka/places-to-visit"
            ],
            "longitude": "74.3184418",
            "address": "Gokarna, Kumata taluk, Uttara Kannada, Karnataka, 581326, India",
            "latitude": "14.5439629",
            "locType": "town",
            "closest_to": "chikmagalur"
        },
        "kushalanagara": {
            "blogLinks": [
                "https://www.tripoto.com/travel-guide/karnataka/places-to-visit"
            ],
            "longitude": "75.961437",
            "address": "Kushalanagara, Somawarpet taluk, Kodagu, Karnataka, 571234, India",
            "latitude": "12.4585525",
            "locType": "town",
            "closest_to": "chikmagalur"
        },
        "kannur": {
            "blogLinks": [
                "http://www.nivalink.com/destination/chikmagalur",
                "https://www.tripoto.com/weekend-getaways/from-chikkamagaluru"
            ],
            "longitude": "74.8858161",
            "address": "Netravati bridge - Kannur Bypass Road (Proposed), Padil, Bajal, Mangaluru taluk, Dakshina Kannada, Karnataka, 575007, India",
            "latitude": "12.8487602",
            "locType": "construction",
            "closest_to": "chikmagalur"
        },
        "nilgiri range": {
            "blogLinks": [
                "https://www.tripoto.com/weekend-getaways/from-chikkamagaluru"
            ],
            "longitude": "76.658639",
            "address": "Bangalore Nilgiri Road, Ittigegudu, Mysuru, Mysuru taluk, Mysuru district, Karnataka, 570001, India",
            "latitude": "12.304105",
            "locType": "primary",
            "closest_to": "chikmagalur"
        },
        "gokarna beach": {
            "blogLinks": [
                "https://www.tripoto.com/travel-guide/karnataka/places-to-visit"
            ],
            "longitude": "74.3109489488919",
            "address": "Gokarna Beach, Gokarna Road, Ganji Gadde, Kumata taluk, Uttara Kannada, Karnataka, 581326, India",
            "latitude": "14.5516537",
            "locType": "beach",
            "closest_to": "chikmagalur"
        },
        "hebbe": {
            "blogLinks": [
                "https://www.triphobo.com/blog/places-to-visit-chikmagalur"
            ],
            "longitude": "75.7253701",
            "address": "Hebbe falls, Kemmannagundi Road, Attigundi, Chikkamagaluru taluku, Chikkamagaluru district, Karnataka, India",
            "latitude": "13.5414025",
            "locType": "attraction",
            "closest_to": "hospet"
        },
        "kukke": {
            "blogLinks": [
                "https://www.tripoto.com/travel-guide/karnataka/places-to-visit"
            ],
            "longitude": "75.3076538",
            "address": "Kukke, Tirthahalli taluk, Shimoga district, Karnataka, India",
            "latitude": "13.7523964",
            "locType": "village",
            "closest_to": "hospet"
        },
        "kozhikode": {
            "blogLinks": [
                "https://www.tripoto.com/travel-guide/karnataka/places-to-visit"
            ],
            "longitude": "76.6598864",
            "address": "Kozhikode - Kollegal Highway, Ittigegudu, Mysuru, Mysuru taluk, Mysuru district, Karnataka, 570001, India",
            "latitude": "12.2926117",
            "locType": "primary",
            "closest_to": "chikmagalur"
        },
        "lakshminarayana temple": {
            "blogLinks": [
                "https://www.triphobo.com/blog/places-to-visit-chikmagalur"
            ],
            "longitude": "76.4786794480367",
            "address": "Sri Lakshminarayana Swami Temple, SH85, Kattaraghatta, Krishnarajapete taluk, Mandya district, Karnataka, India",
            "latitude": "12.64241745",
            "locType": "place_of_worship",
            "closest_to": "chikmagalur"
        },
        "kalhatti": {
            "blogLinks": [
                "http://travel.india.com/chikmagalur/",
                "https://www.triphobo.com/blog/places-to-visit-chikmagalur"
            ],
            "longitude": "75.7889882",
            "address": "Kallathgiri falls, Tarikere taluku, Chikkamagaluru district, Karnataka, India",
            "latitude": "13.5499877",
            "locType": "waterfall",
            "closest_to": "hospet"
        },
        "kumaradhara": {
            "blogLinks": [
                "https://www.tripoto.com/travel-guide/karnataka/places-to-visit"
            ],
            "longitude": "75.4390597",
            "address": "Kumaradhara, Putturu taluk, Dakshina Kannada, Karnataka, India",
            "latitude": "12.7370168",
            "locType": "river",
            "closest_to": "chikmagalur"
        },
        "chikmagalur district": {
            "blogLinks": [
                "https://www.tripoto.com/travel-guide/karnataka/places-to-visit"
            ],
            "longitude": "75.5",
            "address": "Chikmagalur, Chikkamagaluru district, Karnataka, India",
            "latitude": "13.5",
            "locType": "county",
            "closest_to": "chikmagalur"
        },
        "bhadra river": {
            "blogLinks": [
                "http://travel.india.com/chikmagalur/"
            ],
            "longitude": "75.527118",
            "address": "Bhadra, Chikkamagaluru taluku, Chikkamagaluru district, Karnataka, India",
            "latitude": "13.4888356",
            "locType": "river",
            "closest_to": "hospet"
        },
        "half moon beach": {
            "blogLinks": [
                "https://www.tripoto.com/travel-guide/karnataka/places-to-visit"
            ],
            "longitude": "74.3310971256284",
            "address": "Half Moon Beach, Om beach road, Gokarna, Kumata taluk, Uttara Kannada, Karnataka, 581326, India",
            "latitude": "14.5179028",
            "locType": "beach",
            "closest_to": "chikmagalur"
        },
        "chikkamagalur": {
            "blogLinks": [
                "http://www.nivalink.com/destination/chikmagalur"
            ],
            "longitude": "75.789501",
            "address": "Chikkamagalur, SH57, Hosamane Badavane, Hiremagaluru, Chikkamagaluru taluku, Chikkamagaluru district, Karnataka, 577101, India",
            "latitude": "13.3030706",
            "locType": "station",
            "closest_to": "chikmagalur"
        },
        "somnathpur": {
            "blogLinks": [
                "http://www.hellotravel.com/deals/55486.html"
            ],
            "longitude": "76.8833039",
            "address": "Somanathapura, Tirumakudalu Narasipura taluk, Mysuru district, Karnataka, India",
            "latitude": "12.2761528",
            "locType": "village",
            "closest_to": "chikmagalur"
        },
        "dubare elephant camp": {
            "blogLinks": [
                "https://www.tripoto.com/weekend-getaways/from-chikkamagaluru"
            ],
            "longitude": "75.9066719",
            "address": "Dubare Elephant Camp, SH91, Dodda Bettageri, Somawarpet taluk, Kodagu, Karnataka, India",
            "latitude": "12.3716865",
            "locType": "attraction",
            "closest_to": "chikmagalur"
        },
        "badami cave": {
            "blogLinks": [
                "https://www.tripoto.com/travel-guide/karnataka/places-to-visit"
            ],
            "longitude": "75.6842639478391",
            "address": "Badami Cave Temples, Bahanpur - Gadankeri Highway, Banashankari, Badami taluku, Bagalkote district, Karnataka, 587200, India",
            "latitude": "15.9184483",
            "locType": "attraction",
            "closest_to": "hospet"
        },
        "kakkabe": {
            "blogLinks": [
                "https://www.tripoto.com/travel-guide/karnataka/places-to-visit"
            ],
            "longitude": "75.6444603",
            "address": "Kakkabe, Madikeri taluku, Kodagu, Karnataka, India",
            "latitude": "12.2571817",
            "locType": "village",
            "closest_to": "chikmagalur"
        },
        "somwarpet": {
            "blogLinks": [
                "https://www.tripoto.com/travel-guide/karnataka/places-to-visit"
            ],
            "longitude": "75.8457638",
            "address": "Somwarpet, Somawarpet taluk, Kodagu, Karnataka, 571236, India",
            "latitude": "12.6004446",
            "locType": "town",
            "closest_to": "chikmagalur"
        },
        "karwar": {
            "blogLinks": [
                "https://www.tripoto.com/travel-guide/karnataka/places-to-visit"
            ],
            "longitude": "74.1319229",
            "address": "Karwar, Karavara taluk, Uttara Kannada, Karnataka, 581300, India",
            "latitude": "14.8120931",
            "locType": "town",
            "closest_to": "chikmagalur"
        },
        "chandragiri": {
            "blogLinks": [
                "https://www.tripoto.com/travel-guide/karnataka/places-to-visit"
            ],
            "longitude": "76.4878052",
            "address": "Chandragiri, Channarayapattana taluk, Hassan district, Karnataka, India",
            "latitude": "12.8617132",
            "locType": "peak",
            "closest_to": "chikmagalur"
        },
        "gorur dam - gorur": {
            "blogLinks": [
                "http://www.mygola.com/road-trip-from-bangalore-to-chikmagalur/q9090"
            ],
            "longitude": "76.0644435",
            "address": "Gorur, Hasana taluk, Hassan district, Karnataka, 573120, India",
            "latitude": "12.8238999",
            "locType": "village",
            "closest_to": "chikmagalur"
        },
        "hampi": {
            "blogLinks": [
                "https://www.thrillophilia.com/places-to-visit-in-hampi",
                "https://www.ixigo.com/places-to-visit-see-in-chikmagalur-lp-1137712",
                "http://www.buzzntravel.com/hospet_1",
                "https://www.tripoto.com/weekend-getaways/from-chikkamagaluru",
                "https://www.indiatravelforum.in/threads/hampi-travel-guide.697/",
                "https://www.tripadvisor.in/Hotels-g297629-Chikamagalur_Karnataka-Hotels.html",
                "http://travel.india.com/chikmagalur/",
                "http://www.nivalink.com/destination/hospet",
                "https://www.tripoto.com/travel-guide/karnataka/places-to-visit",
                "http://www.holidayiq.com/destinations/reviews/a-nice-place-to-see-the-art-74452.html",
                "http://www.mapsofindia.com/karnataka/places-to-visit-in-hampi.html",
                "http://www.travelhaathi.com/hampi-travel-guide/"
            ],
            "longitude": "76.4606199",
            "address": "Hampe, Hosapete taluk, Bellary district, Karnataka, 583239, India",
            "latitude": "15.3359769",
            "locType": "village",
            "closest_to": "hospet"
        },
        "kudremukha": {
            "blogLinks": [
                "https://www.triphobo.com/blog/places-to-visit-chikmagalur"
            ],
            "longitude": "75.2748196",
            "address": "Kudremukha, Mudigere taluk, Chikkamagaluru district, Karnataka, India",
            "latitude": "13.1255691",
            "locType": "peak",
            "closest_to": "chikmagalur"
        },
        "koppal": {
            "blogLinks": [
                "http://www.mapsofindia.com/maps/karnataka/"
            ],
            "longitude": "76.1547421",
            "address": "Koppala, Koppala taluku, Koppal district, Karnataka, 583231, India",
            "latitude": "15.3484144",
            "locType": "town",
            "closest_to": "hospet"
        },
        "madikeri": {
            "blogLinks": [
                "https://www.tripoto.com/travel-guide/karnataka/places-to-visit"
            ],
            "longitude": "75.740031",
            "address": "Madikeri, Madikeri taluku, Kodagu, Karnataka, India",
            "latitude": "12.4204003",
            "locType": "town",
            "closest_to": "chikmagalur"
        },
        "krishna river": {
            "blogLinks": [
                "https://www.tripoto.com/travel-guide/karnataka/places-to-visit"
            ],
            "longitude": "77.0529845",
            "address": "Krishna, Shahapura taluku, Yadagiri district, Karnataka, India",
            "latitude": "16.5209569",
            "locType": "river",
            "closest_to": "hospet"
        },
        "kundapura": {
            "blogLinks": [
                "http://www.nivalink.com/destination/chikmagalur"
            ],
            "longitude": "74.6915722",
            "address": "Kundapura, \u0c95\u0cc1\u0c82\u0ca6\u0cbe\u0caa\u0cc1\u0cb0 \u0ca4\u0cbe\u0cb2\u0cc2\u0c95\u0cc1, Udupi district, Karnataka, 576200, India",
            "latitude": "13.6250993",
            "locType": "town",
            "closest_to": "chikmagalur"
        },
        "sasivekalu ganesha": {
            "blogLinks": [
                "https://www.indiatravelforum.in/threads/hampi-travel-guide.697/"
            ],
            "longitude": "76.4604025",
            "address": "Sasivekalu Ganesha, Hampi Kamalapura Road, Hampe, Hosapete taluk, Bellary district, Karnataka, 583239, India",
            "latitude": "15.3322644",
            "locType": "place_of_worship",
            "closest_to": "hospet"
        },
        "river tungabhadra": {
            "blogLinks": [
                "https://www.tripoto.com/travel-guide/karnataka/places-to-visit"
            ],
            "longitude": "76.4931607",
            "address": "Tungabhadra, Gangavati taluku, Koppal district, Karnataka, India",
            "latitude": "15.3446123",
            "locType": "river",
            "closest_to": "hospet"
        },
        "hubli airport": {
            "blogLinks": [
                "http://www.travelhaathi.com/hampi-travel-guide/"
            ],
            "longitude": "75.0860974",
            "address": "Hubli Airport, \u0c97\u0ccb\u0c95\u0cc1\u0cb2 \u0cb0\u0ccb\u0ca1\u0ccd, Padmaraj Nagar, Gokul, Hubballi taluku, Dharwad district, Karnataka, 580030, India",
            "latitude": "15.3598315",
            "locType": "aerodrome",
            "closest_to": "hospet"
        },
        "mandya": {
            "blogLinks": [
                "https://www.tripoto.com/weekend-getaways/from-chikkamagaluru",
                "http://www.mapsofindia.com/maps/karnataka/"
            ],
            "longitude": "76.8937392",
            "address": "Mandya, Mandya taluk, Mandya district, Karnataka, 571401, India",
            "latitude": "12.5217836",
            "locType": "town",
            "closest_to": "chikmagalur"
        },
        "iceland": {
            "blogLinks": [
                "https://www.tripoto.com/travel-guide/karnataka/places-to-visit"
            ],
            "longitude": "76.3885296",
            "address": "Iceland, Sardar Patel Road, Hosapete, Hosapete taluk, Bellary district, Karnataka, 583200, India",
            "latitude": "15.2760556",
            "locType": "restaurant",
            "closest_to": "hospet"
        },
        "dattagiri hill range": {
            "blogLinks": [
                "https://www.triphobo.com/blog/places-to-visit-chikmagalur"
            ],
            "longitude": "75.7606996",
            "address": "Baba Budangiri, Chikkamagaluru, Chikkamagaluru taluku, Chikkamagaluru district, Karnataka, 577101, India",
            "latitude": "13.4210884",
            "locType": "peak",
            "closest_to": "hospet"
        },
        "shantigrama": {
            "blogLinks": [
                "http://www.mygola.com/road-trip-from-bangalore-to-chikmagalur/q9090"
            ],
            "longitude": "76.2166763",
            "address": "Shantigrama, Hasana taluk, Hassan district, Karnataka, India",
            "latitude": "12.983428",
            "locType": "village",
            "closest_to": "chikmagalur"
        },
        "hosaholalu": {
            "blogLinks": [
                "https://www.triphobo.com/blog/places-to-visit-chikmagalur"
            ],
            "longitude": "76.4802552",
            "address": "Hosaholalu, Krishnarajapete taluk, Mandya district, Karnataka, India",
            "latitude": "12.6417678",
            "locType": "village",
            "closest_to": "chikmagalur"
        },
        "gangotri": {
            "blogLinks": [
                "https://www.tripoto.com/travel-guide/karnataka/places-to-visit"
            ],
            "longitude": "76.6240232522753",
            "address": "Gangotri, Kalidasa Road, Jayalakshmipuram, Mysuru, Mysuru taluk, Mysuru district, Karnataka, 570001, India",
            "latitude": "12.32521025",
            "locType": "yes",
            "closest_to": "chikmagalur"
        },
        "vittala": {
            "blogLinks": [
                "https://www.indiatravelforum.in/threads/hampi-travel-guide.697/",
                "https://www.tripoto.com/weekend-getaways/from-chikkamagaluru"
            ],
            "longitude": "76.6237847175927",
            "address": "Vijaya Vittala PU College, Sahukar Chennaiah Road, Sarasvatipuram, Mysuru, Mysuru taluk, Mysuru district, Karnataka, 570001, India",
            "latitude": "12.30129655",
            "locType": "yes",
            "closest_to": "chikmagalur"
        },
        "golden temple": {
            "blogLinks": [
                "https://www.tripoto.com/travel-guide/karnataka/places-to-visit"
            ],
            "longitude": "75.9674656",
            "address": "Padmasambhava Buddhist Vihara (Golden Temple), MDR21, Koppa, Piriyapattana taluk, Mysuru district, Karnataka, India",
            "latitude": "12.430821",
            "locType": "place_of_worship",
            "closest_to": "chikmagalur"
        },
        "gandhi park": {
            "blogLinks": [
                "http://travel.india.com/chikmagalur/"
            ],
            "longitude": "75.9716938",
            "address": "Gandhi Nagara, Indi taluku, Bijapur district, Karnataka, India",
            "latitude": "16.9834411",
            "locType": "hamlet",
            "closest_to": "hospet"
        },
        "maggi": {
            "blogLinks": [
                "https://www.tripoto.com/travel-guide/karnataka/places-to-visit"
            ],
            "longitude": "74.9370197",
            "address": "Maggi Stall, Meenakshi Guest House Rd, Nitte, Karkala taluk, Udupi district, Karnataka, India",
            "latitude": "13.1829767",
            "locType": "fast_food",
            "closest_to": "chikmagalur"
        },
        "brahmagiri peak": {
            "blogLinks": [
                "https://www.tripoto.com/weekend-getaways/from-chikkamagaluru"
            ],
            "longitude": "75.490746",
            "address": "Brahmagiri, Madikeri taluku, Kodagu, Karnataka, India",
            "latitude": "12.3868578",
            "locType": "peak",
            "closest_to": "chikmagalur"
        },
        "kudle beach": {
            "blogLinks": [
                "https://www.tripoto.com/travel-guide/karnataka/places-to-visit"
            ],
            "longitude": "74.3156783937192",
            "address": "Kudle Beach, Om beach road, Gokarna, Kumata taluk, Uttara Kannada, Karnataka, 581326, India",
            "latitude": "14.5281015",
            "locType": "beach",
            "closest_to": "chikmagalur"
        },
        "parvati": {
            "blogLinks": [
                "http://www.nivalink.com/destination/chikmagalur"
            ],
            "longitude": "75.7898501",
            "address": "Parvati, Badami taluku, Bagalkote district, Karnataka, India",
            "latitude": "16.0395701",
            "locType": "village",
            "closest_to": "hospet"
        },
        "lal bagh": {
            "blogLinks": [
                "https://www.tripoto.com/weekend-getaways/from-chikkamagaluru"
            ],
            "longitude": "74.8386152",
            "address": "Lal Bagh Bus Stop, Mahatma Gandhi Road, Lalbagh, Ladyhill, Mangaluru, Mangaluru taluk, Dakshina Kannada, Karnataka, 575001, India",
            "latitude": "12.8859223",
            "locType": "bus_stop",
            "closest_to": "chikmagalur"
        },
        "sharavati river": {
            "blogLinks": [
                "https://www.tripoto.com/travel-guide/karnataka/places-to-visit"
            ],
            "longitude": "74.7647294",
            "address": "Sharavati, Sagara taluk, Shimoga district, Karnataka, India",
            "latitude": "14.2360979",
            "locType": "river",
            "closest_to": "hospet"
        },
        "tungabhadra river": {
            "blogLinks": [
                "https://www.thrillophilia.com/places-to-visit-in-hampi",
                "https://www.quora.com/What-are-the-best-places-to-visit-in-Chikmagalur",
                "https://www.tripoto.com/weekend-getaways/from-chikkamagaluru",
                "https://www.indiatravelforum.in/threads/hampi-travel-guide.697/",
                "http://travel.india.com/chikmagalur/",
                "http://www.nivalink.com/destination/hospet",
                "https://www.tripoto.com/travel-guide/karnataka/places-to-visit",
                "http://www.mapsofindia.com/karnataka/places-to-visit-in-hampi.html"
            ],
            "longitude": "76.4931607",
            "address": "Tungabhadra, Gangavati taluku, Koppal district, Karnataka, India",
            "latitude": "15.3446123",
            "locType": "river",
            "closest_to": "hospet"
        },
        "hazara rama temple": {
            "blogLinks": [
                "http://www.mapsofindia.com/karnataka/places-to-visit-in-hampi.html"
            ],
            "longitude": "76.4687794",
            "address": "Hazara Rama Temple, Hampi Kamalapura Road, Kamalapura, Hosapete taluk, Bellary district, Karnataka, 583221, India",
            "latitude": "15.3178218",
            "locType": "place_of_worship",
            "closest_to": "hospet"
        },
        "uttara kannada": {
            "blogLinks": [
                "https://www.tripoto.com/travel-guide/karnataka/places-to-visit"
            ],
            "longitude": "74.4729163045979",
            "address": "Uttara Kannada, Karnataka, India",
            "latitude": "14.6726379",
            "locType": "administrative",
            "closest_to": "hospet"
        },
        "tunga river": {
            "blogLinks": [
                "https://www.quora.com/What-are-the-best-places-to-visit-in-Chikmagalur"
            ],
            "longitude": "75.3221835",
            "address": "Tunga, Tirthahalli taluk, Shimoga district, Karnataka, India",
            "latitude": "13.6632221",
            "locType": "river",
            "closest_to": "hospet"
        },
        "nagamangala": {
            "blogLinks": [
                "https://www.triphobo.com/blog/places-to-visit-chikmagalur"
            ],
            "longitude": "76.7542189",
            "address": "Nagamangala, Nagamangala taluk, Mandya district, Karnataka, 571432, India",
            "latitude": "12.8196077",
            "locType": "town",
            "closest_to": "chikmagalur"
        },
        "bylakuppe": {
            "blogLinks": [
                "https://www.tripoto.com/travel-guide/karnataka/places-to-visit"
            ],
            "longitude": "75.9953435",
            "address": "Bylakuppe, Piriyapattana taluk, Mysuru district, Karnataka, India",
            "latitude": "12.4292508",
            "locType": "village",
            "closest_to": "chikmagalur"
        },
        "south east": {
            "blogLinks": [
                "https://www.tripoto.com/travel-guide/karnataka/places-to-visit"
            ],
            "longitude": "75.7223521",
            "address": "Karnataka, India",
            "latitude": "14.5203896",
            "locType": "administrative",
            "closest_to": "hospet"
        },
        "chikmagalur": {
            "blogLinks": [
                "http://www.nivalink.com/destination/chikmagalur",
                "https://www.ixigo.com/places-to-visit-see-in-chikmagalur-lp-1137712",
                "http://travel.india.com/chikmagalur/",
                "https://www.quora.com/What-are-the-best-places-to-visit-in-Chikmagalur",
                "https://www.triphobo.com/blog/places-to-visit-chikmagalur"
            ],
            "longitude": "75.5",
            "address": "Chikmagalur, Chikkamagaluru district, Karnataka, India",
            "latitude": "13.5",
            "locType": "county",
            "closest_to": "chikmagalur"
        },
        "kalaseshwara temple": {
            "blogLinks": [
                "http://www.nivalink.com/destination/chikmagalur"
            ],
            "longitude": "75.363446975",
            "address": "Kalaseshwara Temple, SH66, Kalasa, Mudigere taluk, Chikkamagaluru district, Karnataka, 577124, India",
            "latitude": "13.23228505",
            "locType": "place_of_worship",
            "closest_to": "chikmagalur"
        },
        "gokul road": {
            "blogLinks": [
                "http://www.travelhaathi.com/hampi-travel-guide/"
            ],
            "longitude": "75.0813826",
            "address": "Gokul, Hubballi taluku, Dharwad district, Karnataka, India",
            "latitude": "15.3496233",
            "locType": "village",
            "closest_to": "hospet"
        },
        "ooty": {
            "blogLinks": [
                "https://www.tripoto.com/weekend-getaways/from-chikkamagaluru"
            ],
            "longitude": "76.6586807",
            "address": "Ooty Road, Vidyaranyapuram, Mysuru, Mysuru taluk, Mysuru district, Karnataka, 570001, India",
            "latitude": "12.2774807",
            "locType": "primary",
            "closest_to": "chikmagalur"
        },
        "mallalli falls": {
            "blogLinks": [
                "https://www.tripoto.com/travel-guide/karnataka/places-to-visit"
            ],
            "longitude": "75.723663",
            "address": "Mallalli Falls, Somawarpet taluk, Kodagu, Karnataka, India",
            "latitude": "12.6813778",
            "locType": "waterfall",
            "closest_to": "chikmagalur"
        },
        "udayagiri": {
            "blogLinks": [
                "https://www.thrillophilia.com/places-to-visit-in-hampi"
            ],
            "longitude": "76.6751327",
            "address": "Udayagiri, Mysuru, Mysuru taluk, Mysuru district, Karnataka, 570001, India",
            "latitude": "12.3250331",
            "locType": "suburb",
            "closest_to": "chikmagalur"
        },
        "kali river": {
            "blogLinks": [
                "https://www.tripoto.com/travel-guide/karnataka/places-to-visit"
            ],
            "longitude": "74.5802901",
            "address": "Kali, Joida taluk, Uttara Kannada, Karnataka, India",
            "latitude": "15.0145378",
            "locType": "river",
            "closest_to": "hospet"
        },
        "hampi bazaar": {
            "blogLinks": [
                "http://www.mapsofindia.com/karnataka/places-to-visit-in-hampi.html",
                "http://www.nivalink.com/destination/hospet",
                "https://www.tripoto.com/weekend-getaways/from-chikkamagaluru",
                "https://www.tripoto.com/travel-guide/karnataka/places-to-visit"
            ],
            "longitude": "76.4621571",
            "address": "Hampi Bazaar, Hampe, Hosapete taluk, Bellary district, Karnataka, 583239, India",
            "latitude": "15.3347585",
            "locType": "unclassified",
            "closest_to": "hospet"
        },
        "district of chikmagalur": {
            "blogLinks": [
                "https://www.tripoto.com/travel-guide/karnataka/places-to-visit"
            ],
            "longitude": "75.7739538645039",
            "address": "District Treasury Office, SH57, Palu mane, Santaveri, Tarikere taluku, Chikkamagaluru district, Karnataka, 577137, India",
            "latitude": "13.3260288",
            "locType": "government",
            "closest_to": "chikmagalur"
        },
        "mandya district": {
            "blogLinks": [
                "https://www.tripoto.com/travel-guide/karnataka/places-to-visit"
            ],
            "longitude": "76.7302318329607",
            "address": "Mandya district, Karnataka, India",
            "latitude": "12.6336348",
            "locType": "administrative",
            "closest_to": "chikmagalur"
        },
        "kumara parvatha": {
            "blogLinks": [
                "https://www.tripoto.com/travel-guide/karnataka/places-to-visit"
            ],
            "longitude": "75.6865652",
            "address": "Kumara Parvatha, Somawarpet taluk, Kodagu, Karnataka, India",
            "latitude": "12.6623315",
            "locType": "peak",
            "closest_to": "chikmagalur"
        },
        "srirangapatna": {
            "blogLinks": [
                "http://www.hellotravel.com/deals/55486.html",
                "https://www.tripoto.com/travel-guide/karnataka/places-to-visit"
            ],
            "longitude": "76.6850743",
            "address": "Srirangapatna, Srirangapattana taluk, Mandya district, Karnataka, 571438, India",
            "latitude": "12.4225604",
            "locType": "town",
            "closest_to": "chikmagalur"
        },
        "anegondi": {
            "blogLinks": [
                "http://www.mapsofindia.com/karnataka/places-to-visit-in-hampi.html"
            ],
            "longitude": "76.4924232",
            "address": "Anegundi, Gangavati taluku, Koppal district, Karnataka, India",
            "latitude": "15.3509583",
            "locType": "village",
            "closest_to": "hospet"
        },
        "ooty lake": {
            "blogLinks": [
                "https://www.tripoto.com/weekend-getaways/from-chikkamagaluru"
            ],
            "longitude": "76.6586807",
            "address": "Ooty Road, Vidyaranyapuram, Mysuru, Mysuru taluk, Mysuru district, Karnataka, 570001, India",
            "latitude": "12.2774807",
            "locType": "primary",
            "closest_to": "chikmagalur"
        },
        "sasivekalu": {
            "blogLinks": [
                "https://www.thrillophilia.com/places-to-visit-in-hampi"
            ],
            "longitude": "76.4604025",
            "address": "Sasivekalu Ganesha, Hampi Kamalapura Road, Hampe, Hosapete taluk, Bellary district, Karnataka, 583239, India",
            "latitude": "15.3322644",
            "locType": "place_of_worship",
            "closest_to": "hospet"
        },
        "badami": {
            "blogLinks": [
                "http://www.karnatakatourism.org/",
                "http://distancecalculator.globefeed.com/India_Distance_Calculator.asp?state=19"
            ],
            "longitude": "75.6807865",
            "address": "Badami, Badami taluku, Bagalkote district, Karnataka, 587200, India",
            "latitude": "15.9203874",
            "locType": "town",
            "closest_to": "hospet"
        },
        "dharwad": {
            "blogLinks": [
                "http://www.travelhaathi.com/hampi-travel-guide/",
                "http://www.mapsofindia.com/maps/karnataka/"
            ],
            "longitude": "75.0066516",
            "address": "Dharwad, Dharawada taluku, Dharwad district, Karnataka, 580001, India",
            "latitude": "15.4540505",
            "locType": "city",
            "closest_to": "hospet"
        },
        "halebid": {
            "blogLinks": [
                "http://www.mygola.com/road-trip-from-bangalore-to-chikmagalur/q9090"
            ],
            "longitude": "75.9918793",
            "address": "Halebidu, Beluru taluk, Hassan district, Karnataka, 573121, India",
            "latitude": "13.2167959",
            "locType": "village",
            "closest_to": "chikmagalur"
        },
        "vijayanagara": {
            "blogLinks": [
                "http://www.nivalink.com/destination/hospet"
            ],
            "longitude": "74.7380455",
            "address": "Vijayanagara, Chikodi taluk, Belgaum district, Karnataka, India",
            "latitude": "16.3270486",
            "locType": "village",
            "closest_to": "hospet"
        },
        "kodachadri": {
            "blogLinks": [
                "https://www.tripoto.com/travel-guide/karnataka/places-to-visit"
            ],
            "longitude": "74.8705395",
            "address": "Kodachadri, \u0c95\u0cc1\u0c82\u0ca6\u0cbe\u0caa\u0cc1\u0cb0 \u0ca4\u0cbe\u0cb2\u0cc2\u0c95\u0cc1, Udupi district, Karnataka, India",
            "latitude": "13.8565758",
            "locType": "peak",
            "closest_to": "chikmagalur"
        },
        "bellary": {
            "blogLinks": [
                "http://www.mapsofindia.com/karnataka/places-to-visit-in-hampi.html",
                "https://www.indiatravelforum.in/threads/hampi-travel-guide.697/",
                "http://www.travelhaathi.com/hampi-travel-guide/",
                "http://www.mapsofindia.com/maps/karnataka/"
            ],
            "longitude": "76.8323648",
            "address": "Bellary, Bellary district, Karnataka, India",
            "latitude": "15.2485413",
            "locType": "county",
            "closest_to": "hospet"
        },
        "ganeshgudi": {
            "blogLinks": [
                "http://www.nivalink.com/destination/hospet"
            ],
            "longitude": "74.5335693",
            "address": "Ganeshagudi, Joida taluk, Uttara Kannada, Karnataka, India",
            "latitude": "15.2815822",
            "locType": "village",
            "closest_to": "hospet"
        },
        "basaralu": {
            "blogLinks": [
                "https://www.triphobo.com/blog/places-to-visit-chikmagalur"
            ],
            "longitude": "76.81836",
            "address": "Basaralu, Mandya taluk, Mandya district, Karnataka, India",
            "latitude": "12.7090838",
            "locType": "village",
            "closest_to": "chikmagalur"
        },
        "mangalore international airport": {
            "blogLinks": [
                "https://www.tripoto.com/weekend-getaways/from-chikkamagaluru"
            ],
            "longitude": "74.887492668144",
            "address": "Mangalore International Airport, Airport Entry Road, Gandhinagar, Kenjar, Mangaluru taluk, Dakshina Kannada, Karnataka, 575015, India",
            "latitude": "12.95518575",
            "locType": "aerodrome",
            "closest_to": "chikmagalur"
        },
        "chennakeshava temple": {
            "blogLinks": [
                "https://www.tripoto.com/travel-guide/karnataka/places-to-visit"
            ],
            "longitude": "76.1294164",
            "address": "Chennakeshava Temple, NH73, Arakere, Arasikere taluku, Hassan district, Karnataka, 573112, India",
            "latitude": "13.3748908",
            "locType": "place_of_worship",
            "closest_to": "hospet"
        },
        "hubli junction": {
            "blogLinks": [
                "https://www.indiatravelforum.in/threads/hampi-travel-guide.697/"
            ],
            "longitude": "75.1489563",
            "address": "Hubballi Junction, Gadag Road, Arihant Nagar, Kamaripet, Hubballi - \u0cb9\u0cc1\u0cac\u0ccd\u0cac\u0cb3\u0ccd\u0cb3\u0cbf, Hubballi taluku, Dharwad district, Karnataka, 580020, India",
            "latitude": "15.3505517",
            "locType": "station",
            "closest_to": "hospet"
        },
        "keladi": {
            "blogLinks": [
                "https://www.tripoto.com/travel-guide/karnataka/places-to-visit"
            ],
            "longitude": "75.0165753",
            "address": "Keladi, Sagara taluk, Shimoga district, Karnataka, India",
            "latitude": "14.2214761",
            "locType": "village",
            "closest_to": "hospet"
        },
        "manikyadhara": {
            "blogLinks": [
                "http://travel.india.com/chikmagalur/"
            ],
            "longitude": "75.7701434",
            "address": "Manikyadhara, Bababudangiri Road, Inam Dattatreya Pitha, Chikkamagaluru taluku, Chikkamagaluru district, Karnataka, India",
            "latitude": "13.4220248",
            "locType": "attraction",
            "closest_to": "hospet"
        },
        "maddur": {
            "blogLinks": [
                "https://www.triphobo.com/blog/places-to-visit-chikmagalur"
            ],
            "longitude": "77.0456404",
            "address": "Maddur, Madduru taluk, Mandya district, Karnataka, 571428, India",
            "latitude": "12.5851916",
            "locType": "town",
            "closest_to": "chikmagalur"
        },
        "vittalapura": {
            "blogLinks": [
                "https://www.thrillophilia.com/places-to-visit-in-hampi",
                "https://www.indiatravelforum.in/threads/hampi-travel-guide.697/"
            ],
            "longitude": "76.4095029",
            "address": "Vittalapura, Gangavati taluku, Koppal district, Karnataka, India",
            "latitude": "15.4917365",
            "locType": "village",
            "closest_to": "hospet"
        },
        "tungabhadra dam": {
            "blogLinks": [
                "https://www.tripoto.com/travel-guide/karnataka/places-to-visit"
            ],
            "longitude": "76.3339514796436",
            "address": "Tungabhadra Dam, Hosapete taluk, Bellary district, Karnataka, India",
            "latitude": "15.2639032",
            "locType": "dam",
            "closest_to": "hospet"
        },
        "hassan": {
            "blogLinks": [
                "http://travel.india.com/chikmagalur/"
            ],
            "longitude": "76.0992703",
            "address": "Hassan, Hasana taluk, Hassan district, Karnataka, 573201, India",
            "latitude": "13.0070817",
            "locType": "town",
            "closest_to": "chikmagalur"
        },
        "gudur": {
            "blogLinks": [
                "http://travel.india.com/chikmagalur/"
            ],
            "longitude": "77.241526",
            "address": "Gudur, Yadagiri taluku, Yadagiri district, Karnataka, India",
            "latitude": "16.4851262",
            "locType": "village",
            "closest_to": "hospet"
        },
        "udupi": {
            "blogLinks": [
                "https://www.tripoto.com/travel-guide/karnataka/places-to-visit"
            ],
            "longitude": "74.7473232",
            "address": "Udupi, Udupi taluku, Udupi district, Karnataka, 576101, India",
            "latitude": "13.3419169",
            "locType": "city",
            "closest_to": "chikmagalur"
        },
        "shringeri": {
            "blogLinks": [
                "http://travel.india.com/chikmagalur/",
                "https://www.quora.com/What-are-the-best-places-to-visit-in-Chikmagalur"
            ],
            "longitude": "75.0621168",
            "address": "Shringeri, Hanagal taluk, Haveri district, Karnataka, India",
            "latitude": "14.7221214",
            "locType": "village",
            "closest_to": "hospet"
        },
        "rock garden": {
            "blogLinks": [
                "https://www.quora.com/What-are-the-best-places-to-visit-in-Chikmagalur"
            ],
            "longitude": "75.6142269",
            "address": "Waterfalls by the Rock site, Madikeri taluku, Kodagu, Karnataka, India",
            "latitude": "12.2248591",
            "locType": "waterfall",
            "closest_to": "chikmagalur"
        }
    }
}