{
    "chitradurga": {
        "lat": "14.2266443",
        "class": "place",
        "importance": 0.5,
        "osm_type": "node",
        "lon": "76.4005122",
        "place_id": "4897275",
        "display_name": "Chitradurga, Chitradurga taluku, Chitradurga district, Karnataka, 577500, India",
        "osm_id": "571409087",
        "boundingbox": [
            "14.1866443",
            "14.2666443",
            "76.3605122",
            "76.4405122"
        ],
        "type": "town",
        "licence": "Data \u00a9 OpenStreetMap contributors, ODbL 1.0. http://www.openstreetmap.org/copyright",
        "icon": "https://nominatim.openstreetmap.org/images/mapicons/poi_place_town.p.20.png"
    },
    "mentions": {
        "shravanabelagola": {
            "blogLinks": [
                "http://goindia.about.com/od/karnataka/tp/karnataka.htm",
                "https://www.thrillophilia.com/places-to-visit-near-mangalore"
            ],
            "longitude": "76.4869997",
            "address": "Shravanabelagola, Channarayapattana taluk, Hassan district, Karnataka, 573135, India",
            "latitude": "12.8581305",
            "locType": "town",
            "closest_to": "mangalore"
        },
        "mangalore airport": {
            "blogLinks": [
                "https://www.thrillophilia.com/places-to-visit-near-mangalore"
            ],
            "longitude": "74.887492668144",
            "address": "Mangalore International Airport, Airport Entry Road, Gandhinagar, Kenjar, Mangaluru taluk, Dakshina Kannada, Karnataka, 575015, India",
            "latitude": "12.95518575",
            "locType": "aerodrome",
            "closest_to": "mangalore"
        },
        "dharwad": {
            "blogLinks": [
                "http://www.team-bhp.com/forum/route-travel-queries/95295-places-visit-pune-bangalore-route.html"
            ],
            "longitude": "75.0066516",
            "address": "Dharwad, Dharawada taluku, Dharwad district, Karnataka, 580001, India",
            "latitude": "15.4540505",
            "locType": "city",
            "closest_to": "chitradurga"
        },
        "kalasa": {
            "blogLinks": [
                "https://www.thrillophilia.com/places-to-visit-near-mangalore",
                "http://wikitravel.org/en/Chikmagalur"
            ],
            "longitude": "75.3582366",
            "address": "Kalasa, Mudigere taluk, Chikkamagaluru district, Karnataka, 577124, India",
            "latitude": "13.2322235",
            "locType": "town",
            "closest_to": "mangalore"
        },
        "india": {
            "blogLinks": [
                "http://www.nivalink.com/destination/chitradurga",
                "http://praveenpn.com/blog/2011/01/05/bangalore-to-goa-by-car/",
                "https://www.thrillophilia.com/places-to-visit-near-mangalore",
                "http://wikitravel.org/en/Chikmagalur",
                "http://www.inditales.com/chitradurga-chandravalli-jogimatti/",
                "http://distancecalculator.globefeed.com/India_Distance_Calculator.asp?state=19",
                "http://goindia.about.com/od/karnataka/tp/karnataka.htm",
                "http://nychthemeron.blogspot.com/2014/01/day-3-day-trip-to-chitradurga-fort.html",
                "https://en.wikipedia.org/wiki/Chitradurga",
                "https://en.wikipedia.org/wiki/Chitradurga_district"
            ],
            "longitude": "75.7223521",
            "address": "Karnataka, India",
            "latitude": "14.5203896",
            "locType": "administrative",
            "closest_to": "mangalore"
        },
        "madakari nayaka": {
            "blogLinks": [
                "https://en.wikipedia.org/wiki/Chitradurga_district"
            ],
            "longitude": "76.4026941",
            "address": "Madakari Nayaka School, SH48, Lakshmisagara, Chitradurga, Chitradurga taluku, Chitradurga district, Karnataka, 577500, India",
            "latitude": "14.2243599",
            "locType": "school",
            "closest_to": "chitradurga"
        },
        "mangalore railway station": {
            "blogLinks": [
                "https://www.thrillophilia.com/places-to-visit-near-mangalore"
            ],
            "longitude": "74.8680725",
            "address": "Hotels in Mangalore Near Railway Station  (Reiseb\u00fcro ), SH67, Gandhinagar, Kenjar, Mangaluru taluk, Dakshina Kannada, Karnataka, 575015, India",
            "latitude": "12.9519663",
            "locType": "travel_agent",
            "closest_to": "mangalore"
        },
        "bengaluru": {
            "blogLinks": [
                "https://en.wikipedia.org/wiki/Chitradurga"
            ],
            "longitude": "77.5912997",
            "address": "Bengaluru, Bangalore Urban, Karnataka, 560001, India",
            "latitude": "12.9791198",
            "locType": "city",
            "closest_to": "chitradurga"
        },
        "yagachi": {
            "blogLinks": [
                "http://wikitravel.org/en/Chikmagalur"
            ],
            "longitude": "75.950911",
            "address": "Yagachi, Beluru taluk, Hassan district, Karnataka, India",
            "latitude": "13.0658494",
            "locType": "river",
            "closest_to": "mangalore"
        },
        "moodu": {
            "blogLinks": [
                "https://www.thrillophilia.com/places-to-visit-near-mangalore"
            ],
            "longitude": "74.6880462",
            "address": "Government Higher Primary School, Beejadi Moodu, NH66, Thekkatte, \u0c95\u0cc1\u0c82\u0ca6\u0cbe\u0caa\u0cc1\u0cb0 \u0ca4\u0cbe\u0cb2\u0cc2\u0c95\u0cc1, Udupi district, Karnataka, 576231, India",
            "latitude": "13.5753824",
            "locType": "school",
            "closest_to": "mangalore"
        },
        "mangalore city": {
            "blogLinks": [
                "https://www.thrillophilia.com/places-to-visit-near-mangalore"
            ],
            "longitude": "74.8430082",
            "address": "Mangaluru, Mangaluru taluk, Dakshina Kannada, Karnataka, 575001, India",
            "latitude": "12.8698101",
            "locType": "city",
            "closest_to": "mangalore"
        },
        "maradi": {
            "blogLinks": [
                "http://wikitravel.org/en/Chikmagalur"
            ],
            "longitude": "76.0757799",
            "address": "Maradi, Arakalagudu taluk, Hassan district, Karnataka, India",
            "latitude": "12.8130205",
            "locType": "village",
            "closest_to": "mangalore"
        },
        "tumkur": {
            "blogLinks": [
                "http://nychthemeron.blogspot.com/2014/01/day-3-day-trip-to-chitradurga-fort.html",
                "http://wikitravel.org/en/Chikmagalur"
            ],
            "longitude": "77.0002445",
            "address": "Tumakuru, Tumkur district, Karnataka, India",
            "latitude": "13.4999406",
            "locType": "county",
            "closest_to": "chitradurga"
        },
        "chitradurga district": {
            "blogLinks": [
                "https://en.wikipedia.org/wiki/Chitradurga_district",
                "http://www.holidayiq.com/Chitradurga-Sightseeing-650.html",
                "http://www.nivalink.com/destination/chitradurga"
            ],
            "longitude": "76.5299366059272",
            "address": "Chitradurga district, Karnataka, India",
            "latitude": "14.3051049",
            "locType": "administrative",
            "closest_to": "chitradurga"
        },
        "kudremukh": {
            "blogLinks": [
                "https://www.thrillophilia.com/places-to-visit-near-mangalore",
                "http://wikitravel.org/en/Chikmagalur"
            ],
            "longitude": "75.2523304",
            "address": "Kudremukha, Mudigere taluk, Chikkamagaluru district, Karnataka, India",
            "latitude": "13.2144007",
            "locType": "village",
            "closest_to": "mangalore"
        },
        "bankapura": {
            "blogLinks": [
                "http://praveenpn.com/blog/2011/01/05/bangalore-to-goa-by-car/"
            ],
            "longitude": "75.2639298",
            "address": "Bankapura, Shiggaon taluk, Haveri district, Karnataka, 581202, India",
            "latitude": "14.9217443",
            "locType": "town",
            "closest_to": "chitradurga"
        },
        "gurupura river": {
            "blogLinks": [
                "https://www.thrillophilia.com/places-to-visit-near-mangalore"
            ],
            "longitude": "75.0304308",
            "address": "Gurupura - Phalguni, Bantwal taluk, Dakshina Kannada, Karnataka, India",
            "latitude": "13.005679",
            "locType": "river",
            "closest_to": "mangalore"
        },
        "maharastra": {
            "blogLinks": [
                "http://praveenpn.com/blog/2011/01/05/bangalore-to-goa-by-car/"
            ],
            "longitude": "77.606263",
            "address": "Maharastra Bank, 7th Main Road, BTM Layout 2nd Stage, BTM Layout, Bengaluru, Bangalore Urban, Karnataka, 560001, India",
            "latitude": "12.9132591",
            "locType": "atm",
            "closest_to": "chitradurga"
        },
        "bangalore east": {
            "blogLinks": [
                "http://praveenpn.com/blog/2011/01/05/bangalore-to-goa-by-car/"
            ],
            "longitude": "77.5912997",
            "address": "Bengaluru, Bangalore Urban, Karnataka, 560001, India",
            "latitude": "12.9791198",
            "locType": "city",
            "closest_to": "chitradurga"
        },
        "kaimara": {
            "blogLinks": [
                "http://wikitravel.org/en/Chikmagalur"
            ],
            "longitude": "75.7448654",
            "address": "Kaimara, Chikkamagaluru taluku, Chikkamagaluru district, Karnataka, India",
            "latitude": "13.3713857",
            "locType": "village",
            "closest_to": "mangalore"
        },
        "lakkavalli": {
            "blogLinks": [
                "http://wikitravel.org/en/Chikmagalur"
            ],
            "longitude": "75.1078097",
            "address": "Lakkavalli, Soraba taluk, Shimoga district, Karnataka, India",
            "latitude": "14.5841018",
            "locType": "village",
            "closest_to": "mangalore"
        },
        "chikkamagaluru": {
            "blogLinks": [
                "http://wikitravel.org/en/Chikmagalur"
            ],
            "longitude": "75.7738743",
            "address": "Chikkamagaluru, Chikkamagaluru taluku, Chikkamagaluru district, Karnataka, 577101, India",
            "latitude": "13.318014",
            "locType": "city",
            "closest_to": "mangalore"
        },
        "malpe beach": {
            "blogLinks": [
                "https://www.thrillophilia.com/places-to-visit-near-mangalore"
            ],
            "longitude": "74.6977767",
            "address": "Malpe Beach, Malpe Road, Adi Udupi, Malpe, Udupi taluku, Udupi district, Karnataka, 576101, India",
            "latitude": "13.3610748",
            "locType": "marina",
            "closest_to": "mangalore"
        },
        "gomateshwara": {
            "blogLinks": [
                "https://www.thrillophilia.com/places-to-visit-near-mangalore"
            ],
            "longitude": "76.4846128",
            "address": "Bahubali Statue, SH8, Shravanabelagola, Channarayapattana taluk, Hassan district, Karnataka, 573135, India",
            "latitude": "12.8540505",
            "locType": "place_of_worship",
            "closest_to": "mangalore"
        },
        "vijayanagar": {
            "blogLinks": [
                "http://goindia.about.com/od/karnataka/tp/karnataka.htm"
            ],
            "longitude": "77.5375757",
            "address": "Vijayanagar, Chord Road, Marenahalli, Vijaya Nagar, Binny Layout, Bangalore Urban, Karnataka, 560040, India",
            "latitude": "12.9713392",
            "locType": "station",
            "closest_to": "chitradurga"
        },
        "yeshwantpur": {
            "blogLinks": [
                "https://www.tripoto.com/trip/bangalore-to-goa-road-trip-places-of-interest-132888"
            ],
            "longitude": "77.5566302",
            "address": "Yeshwantpur, Deewanarapalya, Bangalore Urban, Karnataka, India",
            "latitude": "13.0236062",
            "locType": "suburb",
            "closest_to": "chitradurga"
        },
        "mangalore": {
            "blogLinks": [
                "http://praveenpn.com/blog/2011/01/05/bangalore-to-goa-by-car/",
                "https://www.thrillophilia.com/places-to-visit-near-mangalore",
                "http://goindia.about.com/od/karnataka/tp/karnataka.htm",
                "http://www.team-bhp.com/forum/route-travel-queries/95295-places-visit-pune-bangalore-route.html",
                "http://wikitravel.org/en/Chikmagalur"
            ],
            "longitude": "74.8430082",
            "address": "Mangaluru, Mangaluru taluk, Dakshina Kannada, Karnataka, 575001, India",
            "latitude": "12.8698101",
            "locType": "city",
            "closest_to": "mangalore"
        },
        "davanagere district": {
            "blogLinks": [
                "https://en.wikipedia.org/wiki/Chitradurga_district"
            ],
            "longitude": "75.8904782659728",
            "address": "Davanagere district, Karnataka, India",
            "latitude": "14.37090835",
            "locType": "administrative",
            "closest_to": "mangalore"
        },
        "dakshina kannada": {
            "blogLinks": [
                "https://www.thrillophilia.com/places-to-visit-near-mangalore"
            ],
            "longitude": "75.1008028650794",
            "address": "Dakshina Kannada, Karnataka, India",
            "latitude": "12.8114089",
            "locType": "administrative",
            "closest_to": "mangalore"
        },
        "hosadurga taluk": {
            "blogLinks": [
                "http://www.holidayiq.com/Chitradurga-Sightseeing-650.html"
            ],
            "longitude": "77.2095258",
            "address": "Hosadurga, Pavagada taluk, Tumkur district, Karnataka, India",
            "latitude": "14.2608929",
            "locType": "village",
            "closest_to": "chitradurga"
        },
        "mangaladevi": {
            "blogLinks": [
                "https://www.thrillophilia.com/places-to-visit-near-mangalore"
            ],
            "longitude": "74.8452646984836",
            "address": "Shri Mangaladevi Temple, Mangala Devi Temple Road, Mulihitlu, Bolar, Mangaluru, Mangaluru taluk, Dakshina Kannada, Karnataka, 575001, India",
            "latitude": "12.84923455",
            "locType": "place_of_worship",
            "closest_to": "mangalore"
        },
        "dandeli": {
            "blogLinks": [
                "http://www.team-bhp.com/forum/route-travel-queries/95295-places-visit-pune-bangalore-route.html"
            ],
            "longitude": "74.6236037",
            "address": "Dandeli, Haliyala taluku, Uttara Kannada, Karnataka, 581325, India",
            "latitude": "15.2490284",
            "locType": "town",
            "closest_to": "chitradurga"
        },
        "karnataka": {
            "blogLinks": [
                "https://en.wikipedia.org/wiki/Chitradurga_district",
                "http://praveenpn.com/blog/2011/01/05/bangalore-to-goa-by-car/",
                "https://www.thrillophilia.com/places-to-visit-near-mangalore",
                "http://www.holidayiq.com/Chitradurga-Sightseeing-650.html",
                "https://www.tripoto.com/trip/bangalore-to-goa-road-trip-places-of-interest-132888",
                "http://www.karnatakatourism.org/",
                "http://wikitravel.org/en/Chikmagalur",
                "http://www.onefivenine.com/india/Travel/Place/Chitradurga",
                "http://www.inditales.com/chitradurga-chandravalli-jogimatti/",
                "http://distancecalculator.globefeed.com/India_Distance_Calculator.asp?state=19",
                "http://goindia.about.com/od/karnataka/tp/karnataka.htm",
                "http://nychthemeron.blogspot.com/2014/01/day-3-day-trip-to-chitradurga-fort.html",
                "http://www.team-bhp.com/forum/route-travel-queries/95295-places-visit-pune-bangalore-route.html",
                "https://en.wikipedia.org/wiki/Chitradurga",
                "http://www.nivalink.com/destination/chitradurga"
            ],
            "longitude": "76.6639936",
            "address": "Karnataka, Shalivahana Road, Nazarbad, Mysuru, Mysuru taluk, Mysuru district, Karnataka, 570001, India",
            "latitude": "12.3084901",
            "locType": "atm",
            "closest_to": "mangalore"
        },
        "kamat hotel": {
            "blogLinks": [
                "http://praveenpn.com/blog/2011/01/05/bangalore-to-goa-by-car/"
            ],
            "longitude": "75.0131542",
            "address": "Kamat Hotel, Subhas Road, Saidapur, Kamalapura, Dharwad, Dharawada taluku, Dharwad district, Karnataka, 580001, India",
            "latitude": "15.4595482",
            "locType": "restaurant",
            "closest_to": "chitradurga"
        },
        "lakya dam": {
            "blogLinks": [
                "https://www.thrillophilia.com/places-to-visit-near-mangalore"
            ],
            "longitude": "75.2271128",
            "address": "Lakya Dam, Mudigere taluk, Chikkamagaluru district, Karnataka, India",
            "latitude": "13.2189611",
            "locType": "dam",
            "closest_to": "mangalore"
        },
        "dakshin kannada": {
            "blogLinks": [
                "https://www.thrillophilia.com/places-to-visit-near-mangalore"
            ],
            "longitude": "75.0309089",
            "address": "Dakshin Court, NH73, Kaikunje, Bantwal Cross Road, Bantwal taluk, Dakshina Kannada, Karnataka, India",
            "latitude": "12.8827367",
            "locType": "restaurant",
            "closest_to": "mangalore"
        },
        "belvai": {
            "blogLinks": [
                "https://www.thrillophilia.com/places-to-visit-near-mangalore"
            ],
            "longitude": "74.9961914",
            "address": "Belvai, Mangaluru taluk, Dakshina Kannada, Karnataka, India",
            "latitude": "13.1281264",
            "locType": "village",
            "closest_to": "mangalore"
        },
        "mysore maharaja": {
            "blogLinks": [
                "https://en.wikipedia.org/wiki/Chitradurga_district"
            ],
            "longitude": "76.6596385",
            "address": "Maharaja Hotel Mysore, Bangalore Nilgiri Road, Mandi Mohalla, Mysuru, Mysuru taluk, Mysuru district, Karnataka, 570001, India",
            "latitude": "12.3112197",
            "locType": "hotel",
            "closest_to": "mangalore"
        },
        "kumaradhara river": {
            "blogLinks": [
                "https://www.thrillophilia.com/places-to-visit-near-mangalore"
            ],
            "longitude": "75.4390597",
            "address": "Kumaradhara, Putturu taluk, Dakshina Kannada, Karnataka, India",
            "latitude": "12.7370168",
            "locType": "river",
            "closest_to": "mangalore"
        },
        "hubli": {
            "blogLinks": [
                "http://praveenpn.com/blog/2011/01/05/bangalore-to-goa-by-car/",
                "http://www.team-bhp.com/forum/route-travel-queries/95295-places-visit-pune-bangalore-route.html",
                "http://www.nivalink.com/destination/chitradurga"
            ],
            "longitude": "75.1379848",
            "address": "Hubballi - \u0cb9\u0cc1\u0cac\u0ccd\u0cac\u0cb3\u0ccd\u0cb3\u0cbf, Hubballi taluku, Dharwad district, Karnataka, 580020, India",
            "latitude": "15.3518378",
            "locType": "city",
            "closest_to": "chitradurga"
        },
        "kannada": {
            "blogLinks": [
                "https://www.thrillophilia.com/places-to-visit-near-mangalore",
                "https://en.wikipedia.org/wiki/Chitradurga_district"
            ],
            "longitude": "75.1008028650794",
            "address": "Dakshina Kannada, Karnataka, India",
            "latitude": "12.8114089",
            "locType": "administrative",
            "closest_to": "mangalore"
        },
        "moodabidri": {
            "blogLinks": [
                "https://www.thrillophilia.com/places-to-visit-near-mangalore"
            ],
            "longitude": "74.9977469",
            "address": "Moodabidri, Mangaluru taluk, Dakshina Kannada, Karnataka, 574227, India",
            "latitude": "13.0699218",
            "locType": "town",
            "closest_to": "mangalore"
        },
        "hemavati": {
            "blogLinks": [
                "http://wikitravel.org/en/Chikmagalur"
            ],
            "longitude": "76.0723187",
            "address": "Hemavati, Hasana taluk, Hassan district, Karnataka, India",
            "latitude": "12.8179996",
            "locType": "river",
            "closest_to": "mangalore"
        },
        "hassan": {
            "blogLinks": [
                "http://goindia.about.com/od/karnataka/tp/karnataka.htm"
            ],
            "longitude": "76.0992703",
            "address": "Hassan, Hasana taluk, Hassan district, Karnataka, 573201, India",
            "latitude": "13.0070817",
            "locType": "town",
            "closest_to": "mangalore"
        },
        "kadur": {
            "blogLinks": [
                "http://wikitravel.org/en/Chikmagalur"
            ],
            "longitude": "75.7820095",
            "address": "Mudigere-Kadur Road, Basavannahalli, Chikkamagaluru, Chikkamagaluru taluku, Chikkamagaluru district, Karnataka, 577101, India",
            "latitude": "13.3283654",
            "locType": "trunk",
            "closest_to": "mangalore"
        },
        "ananthapadmanabha temple": {
            "blogLinks": [
                "https://www.thrillophilia.com/places-to-visit-near-mangalore"
            ],
            "longitude": "74.8937899082456",
            "address": "Kudupu Ananthapadmanabha Temple, Solapur-Mangalore Highway, Shakthinagar, Kulashekara, Kudupu, Mangaluru taluk, Dakshina Kannada, Karnataka, 575007, India",
            "latitude": "12.9039019",
            "locType": "place_of_worship",
            "closest_to": "mangalore"
        },
        "gadag": {
            "blogLinks": [
                "http://www.team-bhp.com/forum/route-travel-queries/95295-places-visit-pune-bangalore-route.html"
            ],
            "longitude": "75.6300786",
            "address": "Gadag, Gadag taluk, Gadag district, Karnataka, 582101, India",
            "latitude": "15.4263647",
            "locType": "town",
            "closest_to": "chitradurga"
        },
        "belur": {
            "blogLinks": [
                "http://goindia.about.com/od/karnataka/tp/karnataka.htm",
                "http://wikitravel.org/en/Chikmagalur"
            ],
            "longitude": "75.8634851",
            "address": "Belur, Beluru taluk, Hassan district, Karnataka, 573115, India",
            "latitude": "13.1645671",
            "locType": "town",
            "closest_to": "mangalore"
        },
        "udayavani": {
            "blogLinks": [
                "https://en.wikipedia.org/wiki/Chitradurga_district"
            ],
            "longitude": "77.6148055",
            "address": "Udayavani, Cubbon Road, Tasker Town, Ashok Nagar, Bengaluru, Bangalore Urban, Karnataka, 560001, India",
            "latitude": "12.9751718",
            "locType": "newspaper",
            "closest_to": "chitradurga"
        },
        "manjunatha temple": {
            "blogLinks": [
                "https://www.thrillophilia.com/places-to-visit-near-mangalore"
            ],
            "longitude": "77.5640116772773",
            "address": "Devagiri Manjunatha Swamy Temple, 30th Cross, Jayanagar 8th Block, Banashankari 2nd Stage, Bengaluru, Bangalore Urban, Karnataka, 560001, India",
            "latitude": "12.9211928",
            "locType": "place_of_worship",
            "closest_to": "chitradurga"
        },
        "chitradurga fort": {
            "blogLinks": [
                "http://goindia.about.com/od/karnataka/tp/karnataka.htm",
                "http://www.team-bhp.com/forum/route-travel-queries/95295-places-visit-pune-bangalore-route.html",
                "https://en.wikipedia.org/wiki/Chitradurga_district"
            ],
            "longitude": "76.3948635401208",
            "address": "Chitradurga Fort, Kote Road, Devalagiri 1st Phase, Chitradurga, Chitradurga taluku, Chitradurga district, Karnataka, 577500, India",
            "latitude": "14.21296355",
            "locType": "attraction",
            "closest_to": "mangalore"
        },
        "bahubali": {
            "blogLinks": [
                "https://www.thrillophilia.com/places-to-visit-near-mangalore"
            ],
            "longitude": "76.4846128",
            "address": "Bahubali Statue, SH8, Shravanabelagola, Channarayapattana taluk, Hassan district, Karnataka, 573135, India",
            "latitude": "12.8540505",
            "locType": "place_of_worship",
            "closest_to": "mangalore"
        },
        "brahmagiri": {
            "blogLinks": [
                "https://en.wikipedia.org/wiki/Chitradurga_district"
            ],
            "longitude": "75.490746",
            "address": "Brahmagiri, Madikeri taluku, Kodagu, Karnataka, India",
            "latitude": "12.3868578",
            "locType": "peak",
            "closest_to": "mangalore"
        },
        "ranganathaswamy temple": {
            "blogLinks": [
                "http://www.holidayiq.com/Chitradurga-Sightseeing-650.html"
            ],
            "longitude": "76.1812411",
            "address": "Ranganathaswamy Temple, Steps to Ranganathaswami Temple, Halekote, Hole Narasipura taluk, Hassan district, Karnataka, 573211, India",
            "latitude": "12.854149",
            "locType": "place_of_worship",
            "closest_to": "mangalore"
        },
        "vedavati": {
            "blogLinks": [
                "https://en.wikipedia.org/wiki/Chitradurga",
                "http://wikitravel.org/en/Chikmagalur"
            ],
            "longitude": "76.1347937",
            "address": "Vedavati, Kaduru taluk, Chikkamagaluru district, Karnataka, India",
            "latitude": "13.6048777",
            "locType": "river",
            "closest_to": "mangalore"
        },
        "bangalore city": {
            "blogLinks": [
                "https://www.tripoto.com/trip/bangalore-to-goa-road-trip-places-of-interest-132888"
            ],
            "longitude": "77.5912997",
            "address": "Bengaluru, Bangalore Urban, Karnataka, 560001, India",
            "latitude": "12.9791198",
            "locType": "city",
            "closest_to": "chitradurga"
        },
        "kodagu": {
            "blogLinks": [
                "http://goindia.about.com/od/karnataka/tp/karnataka.htm"
            ],
            "longitude": "75.6677235950852",
            "address": "Kodagu, Karnataka, India",
            "latitude": "12.38117345",
            "locType": "administrative",
            "closest_to": "mangalore"
        },
        "jamalabad": {
            "blogLinks": [
                "https://www.thrillophilia.com/places-to-visit-near-mangalore"
            ],
            "longitude": "75.2958407",
            "address": "Jamalabad Fort, NH73, Halepete, Beltangadi taluk, Dakshina Kannada, Karnataka, 574214, India",
            "latitude": "13.0273698",
            "locType": "attraction",
            "closest_to": "mangalore"
        },
        "manikyadhara": {
            "blogLinks": [
                "http://wikitravel.org/en/Chikmagalur"
            ],
            "longitude": "75.7701434",
            "address": "Manikyadhara, Bababudangiri Road, Inam Dattatreya Pitha, Chikkamagaluru taluku, Chikkamagaluru district, Karnataka, India",
            "latitude": "13.4220248",
            "locType": "attraction",
            "closest_to": "mangalore"
        },
        "karkala": {
            "blogLinks": [
                "https://www.thrillophilia.com/places-to-visit-near-mangalore"
            ],
            "longitude": "74.9959586",
            "address": "Karkala, Karkala taluk, Udupi district, Karnataka, 574104, India",
            "latitude": "13.2112826",
            "locType": "town",
            "closest_to": "mangalore"
        },
        "holalkere": {
            "blogLinks": [
                "https://en.wikipedia.org/wiki/Chitradurga_district"
            ],
            "longitude": "76.1830578",
            "address": "Holalkere, Holalkere taluk, Chitradurga district, Karnataka, 577526, India",
            "latitude": "14.0424479",
            "locType": "town",
            "closest_to": "mangalore"
        },
        "kemmannagundi": {
            "blogLinks": [
                "http://wikitravel.org/en/Chikmagalur"
            ],
            "longitude": "75.7520082",
            "address": "Kemmannagundi, Tarikere taluku, Chikkamagaluru district, Karnataka, India",
            "latitude": "13.5463048",
            "locType": "village",
            "closest_to": "mangalore"
        },
        "hebbe": {
            "blogLinks": [
                "http://wikitravel.org/en/Chikmagalur"
            ],
            "longitude": "75.7253701",
            "address": "Hebbe falls, Kemmannagundi Road, Attigundi, Chikkamagaluru taluku, Chikkamagaluru district, Karnataka, India",
            "latitude": "13.5414025",
            "locType": "attraction",
            "closest_to": "mangalore"
        },
        "kerala": {
            "blogLinks": [
                "http://www.inditales.com/chitradurga-chandravalli-jogimatti/",
                "http://goindia.about.com/od/karnataka/tp/karnataka.htm"
            ],
            "longitude": "77.6382683",
            "address": "New Life Kerala Mess, Sai Baba Mandira Road, Mottappanapalaya, Indiranagar, Bengaluru, Bangalore Urban, Karnataka, 560001, India",
            "latitude": "12.9726449",
            "locType": "restaurant",
            "closest_to": "chitradurga"
        },
        "kadri": {
            "blogLinks": [
                "https://www.thrillophilia.com/places-to-visit-near-mangalore"
            ],
            "longitude": "74.8501424",
            "address": "Kadri, Mangaluru, Mangaluru taluk, Dakshina Kannada, Karnataka, 575001, India",
            "latitude": "12.8897288",
            "locType": "suburb",
            "closest_to": "mangalore"
        },
        "tumkur road": {
            "blogLinks": [
                "http://www.inditales.com/chitradurga-chandravalli-jogimatti/"
            ],
            "longitude": "77.5360458",
            "address": "Tumkur Road, Goragunte Palya, Peenya, Bengaluru, Bangalore Urban, Karnataka, 560001, India",
            "latitude": "13.0311896",
            "locType": "trunk",
            "closest_to": "chitradurga"
        },
        "national park": {
            "blogLinks": [
                "https://www.thrillophilia.com/places-to-visit-near-mangalore"
            ],
            "longitude": "77.5722783830694",
            "address": "Bannerghatta National Park, Anekal Road, Begihalli, Bangalore Urban, Karnataka, 560076, India",
            "latitude": "12.77900335",
            "locType": "national_park",
            "closest_to": "chitradurga"
        },
        "honnavar": {
            "blogLinks": [
                "http://praveenpn.com/blog/2011/01/05/bangalore-to-goa-by-car/"
            ],
            "longitude": "74.4446716",
            "address": "Honnavar, Honnavara taluku, Uttara Kannada, Karnataka, 581334, India",
            "latitude": "14.2810827",
            "locType": "town",
            "closest_to": "mangalore"
        },
        "jamalabad fort": {
            "blogLinks": [
                "https://www.thrillophilia.com/places-to-visit-near-mangalore"
            ],
            "longitude": "75.2958407",
            "address": "Jamalabad Fort, NH73, Halepete, Beltangadi taluk, Dakshina Kannada, Karnataka, 574214, India",
            "latitude": "13.0273698",
            "locType": "attraction",
            "closest_to": "mangalore"
        },
        "bellary district": {
            "blogLinks": [
                "https://en.wikipedia.org/wiki/Chitradurga_district"
            ],
            "longitude": "76.7137978546465",
            "address": "Bellary district, Karnataka, India",
            "latitude": "15.20597305",
            "locType": "administrative",
            "closest_to": "chitradurga"
        },
        "shivalli": {
            "blogLinks": [
                "https://www.thrillophilia.com/places-to-visit-near-mangalore"
            ],
            "longitude": "76.8226719",
            "address": "Shivalli, Mandya taluk, Mandya district, Karnataka, India",
            "latitude": "12.5863355",
            "locType": "village",
            "closest_to": "mangalore"
        },
        "hampi": {
            "blogLinks": [
                "http://www.hivayking.in/blog/2012/08/nh4-between-bangalore-punemumbai/",
                "http://goindia.about.com/od/karnataka/tp/karnataka.htm"
            ],
            "longitude": "76.4606199",
            "address": "Hampe, Hosapete taluk, Bellary district, Karnataka, 583239, India",
            "latitude": "15.3359769",
            "locType": "village",
            "closest_to": "chitradurga"
        },
        "mogaveera": {
            "blogLinks": [
                "https://www.thrillophilia.com/places-to-visit-near-mangalore"
            ],
            "longitude": "74.8262750607477",
            "address": "Primary school, Mogaveera pete, Kokkarne Santekatte Road, Suralu, Udupi taluku, Udupi district, Karnataka, India",
            "latitude": "13.45454075",
            "locType": "yes",
            "closest_to": "mangalore"
        },
        "chikmagalur district": {
            "blogLinks": [
                "https://en.wikipedia.org/wiki/Chitradurga_district"
            ],
            "longitude": "75.5",
            "address": "Chikmagalur, Chikkamagaluru district, Karnataka, India",
            "latitude": "13.5",
            "locType": "county",
            "closest_to": "mangalore"
        },
        "chandramouleshwara": {
            "blogLinks": [
                "https://www.thrillophilia.com/places-to-visit-near-mangalore"
            ],
            "longitude": "74.8024264",
            "address": "Chandramouleshwara Temple, Edapally - Panvel Highway, Kolnad, Karnad, Padu Panambur, Mangaluru taluk, Dakshina Kannada, Karnataka, 575025, India",
            "latitude": "13.0636768",
            "locType": "place_of_worship",
            "closest_to": "mangalore"
        },
        "dharmasthala": {
            "blogLinks": [
                "https://www.thrillophilia.com/places-to-visit-near-mangalore"
            ],
            "longitude": "75.3813122",
            "address": "Dharmasthala, Beltangadi taluk, Dakshina Kannada, Karnataka, 574216, India",
            "latitude": "12.9519571",
            "locType": "village",
            "closest_to": "mangalore"
        },
        "bharamagiri": {
            "blogLinks": [
                "https://en.wikipedia.org/wiki/Chitradurga_district"
            ],
            "longitude": "76.4993709",
            "address": "Bharamagiri, Hiriyuru taluk, Chitradurga district, Karnataka, India",
            "latitude": "13.9288556",
            "locType": "village",
            "closest_to": "mangalore"
        },
        "hubli-karwar": {
            "blogLinks": [
                "http://praveenpn.com/blog/2011/01/05/bangalore-to-goa-by-car/"
            ],
            "longitude": "76.36038",
            "address": "Hubli-Karwar Road, Amaravati, Hosapete taluk, Bellary district, Karnataka, 583225, India",
            "latitude": "15.2639568",
            "locType": "trunk",
            "closest_to": "chitradurga"
        },
        "chikmagalur": {
            "blogLinks": [
                "https://www.thrillophilia.com/places-to-visit-near-mangalore",
                "http://wikitravel.org/en/Chikmagalur"
            ],
            "longitude": "75.5",
            "address": "Chikmagalur, Chikkamagaluru district, Karnataka, India",
            "latitude": "13.5",
            "locType": "county",
            "closest_to": "mangalore"
        },
        "west": {
            "blogLinks": [
                "https://www.thrillophilia.com/places-to-visit-near-mangalore"
            ],
            "longitude": "77.5960999",
            "address": "w, Balmuri Main Road, Hulimavu,, Bannerghatta Road, Mico Arekere Layout 1st Stage, Hulimavu, Bengaluru, Bangalore Urban, Karnataka, 560076, India",
            "latitude": "12.8759384",
            "locType": "clothes",
            "closest_to": "chitradurga"
        },
        "bangalore-pune": {
            "blogLinks": [
                "http://nychthemeron.blogspot.com/2014/01/day-3-day-trip-to-chitradurga-fort.html"
            ],
            "longitude": "75.4974847",
            "address": "Pune-Bangalore Road, Motebennur, Byadagi taluk, Haveri district, Karnataka, 581106, India",
            "latitude": "14.7156528",
            "locType": "trunk",
            "closest_to": "mangalore"
        },
        "river phalguni": {
            "blogLinks": [
                "https://www.thrillophilia.com/places-to-visit-near-mangalore"
            ],
            "longitude": "75.0304308",
            "address": "Gurupura - Phalguni, Bantwal taluk, Dakshina Kannada, Karnataka, India",
            "latitude": "13.005679",
            "locType": "river",
            "closest_to": "mangalore"
        },
        "golden temple": {
            "blogLinks": [
                "http://goindia.about.com/od/karnataka/tp/karnataka.htm"
            ],
            "longitude": "75.9674656",
            "address": "Padmasambhava Buddhist Vihara (Golden Temple), MDR21, Koppa, Piriyapattana taluk, Mysuru district, Karnataka, India",
            "latitude": "12.430821",
            "locType": "place_of_worship",
            "closest_to": "mangalore"
        },
        "venur": {
            "blogLinks": [
                "https://www.thrillophilia.com/places-to-visit-near-mangalore"
            ],
            "longitude": "75.1443252",
            "address": "Venoor, Beltangadi taluk, Dakshina Kannada, Karnataka, 574242, India",
            "latitude": "13.0122097",
            "locType": "village",
            "closest_to": "mangalore"
        },
        "tumkur district": {
            "blogLinks": [
                "https://en.wikipedia.org/wiki/Chitradurga_district"
            ],
            "longitude": "76.8817530420764",
            "address": "Tumkur district, Karnataka, India",
            "latitude": "13.4176169",
            "locType": "administrative",
            "closest_to": "chitradurga"
        },
        "south karnataka": {
            "blogLinks": [
                "http://wikitravel.org/en/Chikmagalur"
            ],
            "longitude": "77.8040874",
            "address": "s, Vijayapura, Devanahalli taluk, Bangalore Rural, Karnataka, 562135, India",
            "latitude": "13.2942848",
            "locType": "residential",
            "closest_to": "chitradurga"
        },
        "tungabhadra river": {
            "blogLinks": [
                "https://en.wikipedia.org/wiki/Chitradurga_district"
            ],
            "longitude": "76.4931607",
            "address": "Tungabhadra, Gangavati taluku, Koppal district, Karnataka, India",
            "latitude": "15.3446123",
            "locType": "river",
            "closest_to": "chitradurga"
        },
        "goa": {
            "blogLinks": [
                "https://www.tripoto.com/trip/bangalore-to-goa-road-trip-places-of-interest-132888",
                "http://praveenpn.com/blog/2011/01/05/bangalore-to-goa-by-car/",
                "http://distancecalculator.globefeed.com/India_Distance_Calculator.asp?state=19"
            ],
            "longitude": "77.6200027",
            "address": "Carnival De Goa, Bhaskaran Road, Gupta Layout, Halasuru, Bengaluru, Bangalore Urban, Karnataka, 560001, India",
            "latitude": "12.9750047",
            "locType": "restaurant",
            "closest_to": "chitradurga"
        },
        "chitrakaldurga": {
            "blogLinks": [
                "https://en.wikipedia.org/wiki/Chitradurga",
                "https://en.wikipedia.org/wiki/Chitradurga_district"
            ],
            "longitude": "76.3948635401208",
            "address": "Chitradurga Fort, Kote Road, Devalagiri 1st Phase, Chitradurga, Chitradurga taluku, Chitradurga district, Karnataka, 577500, India",
            "latitude": "14.21296355",
            "locType": "attraction",
            "closest_to": "mangalore"
        },
        "us": {
            "blogLinks": [
                "https://en.wikipedia.org/wiki/Chitradurga_district"
            ],
            "longitude": "75.7223521",
            "address": "Karnataka, India",
            "latitude": "14.5203896",
            "locType": "administrative",
            "closest_to": "mangalore"
        },
        "kalaseshwara temple": {
            "blogLinks": [
                "http://www.nivalink.com/destination/chitradurga"
            ],
            "longitude": "75.363446975",
            "address": "Kalaseshwara Temple, SH66, Kalasa, Mudigere taluk, Chikkamagaluru district, Karnataka, 577124, India",
            "latitude": "13.23228505",
            "locType": "place_of_worship",
            "closest_to": "mangalore"
        },
        "amrutapura": {
            "blogLinks": [
                "http://wikitravel.org/en/Chikmagalur"
            ],
            "longitude": "75.8535015",
            "address": "Amrutapura, Tarikere taluku, Chikkamagaluru district, Karnataka, India",
            "latitude": "13.7425193",
            "locType": "village",
            "closest_to": "mangalore"
        },
        "tagore park": {
            "blogLinks": [
                "https://www.thrillophilia.com/places-to-visit-near-mangalore"
            ],
            "longitude": "77.595715",
            "address": "Rabindranath Tagore Nagar, Bengaluru, Bangalore Urban, Karnataka, 560001, India",
            "latitude": "13.0227204",
            "locType": "suburb",
            "closest_to": "chitradurga"
        },
        "udipi": {
            "blogLinks": [
                "http://www.nivalink.com/destination/chitradurga"
            ],
            "longitude": "77.652888",
            "address": "Udipi Park, 2nd Cross Road, Muniyappa Layout, Murugeshpalaya, Belure Ambedkar Nagar, Bangalore Urban, Karnataka, 560067, India",
            "latitude": "12.9530588",
            "locType": "restaurant",
            "closest_to": "chitradurga"
        },
        "bhagavathi": {
            "blogLinks": [
                "https://www.thrillophilia.com/places-to-visit-near-mangalore"
            ],
            "longitude": "74.8372435",
            "address": "Bhagavathi Nagar, 2nd Main Rd, Dongerkeri, Kudroli, Mangaluru, Mangaluru taluk, Dakshina Kannada, Karnataka, 575001, India",
            "latitude": "12.8788638",
            "locType": "tertiary",
            "closest_to": "mangalore"
        },
        "bangalore highway": {
            "blogLinks": [
                "https://www.tripoto.com/trip/bangalore-to-goa-road-trip-places-of-interest-132888"
            ],
            "longitude": "77.5912997",
            "address": "Bengaluru, Bangalore Urban, Karnataka, 560001, India",
            "latitude": "12.9791198",
            "locType": "city",
            "closest_to": "chitradurga"
        },
        "kudremukh national park": {
            "blogLinks": [
                "https://www.thrillophilia.com/places-to-visit-near-mangalore"
            ],
            "longitude": "75.1828713712862",
            "address": "Kudremukh National Park, SH66, Sringeri taluku, Chikkamagaluru district, Karnataka, India",
            "latitude": "13.25397485",
            "locType": "national_park",
            "closest_to": "mangalore"
        },
        "east": {
            "blogLinks": [
                "https://www.thrillophilia.com/places-to-visit-near-mangalore"
            ],
            "longitude": "77.6601401",
            "address": "East, 43, Velankani Drive, Electronics City Phase 1, Doddathoguru, Bangalore Urban, Karnataka, 560100, India",
            "latitude": "12.8504319",
            "locType": "restaurant",
            "closest_to": "chitradurga"
        },
        "the park": {
            "blogLinks": [
                "https://www.tripoto.com/trip/bangalore-to-goa-road-trip-places-of-interest-132888"
            ],
            "longitude": "77.5957945764651",
            "address": "park, 34th Cross Road, Tilak Nagar, Marenahalli, Bengaluru, Bangalore Urban, Karnataka, 560001, India",
            "latitude": "12.92511275",
            "locType": "park",
            "closest_to": "chitradurga"
        },
        "hiriyur": {
            "blogLinks": [
                "http://www.team-bhp.com/forum/route-travel-queries/95295-places-visit-pune-bangalore-route.html",
                "https://en.wikipedia.org/wiki/Chitradurga_district"
            ],
            "longitude": "76.1879166",
            "address": "Hiriyur, Arasikere taluku, Hassan district, Karnataka, India",
            "latitude": "13.340224",
            "locType": "village",
            "closest_to": "mangalore"
        },
        "mumbai": {
            "blogLinks": [
                "https://en.wikipedia.org/wiki/Chitradurga_district",
                "http://praveenpn.com/blog/2011/01/05/bangalore-to-goa-by-car/",
                "http://www.nivalink.com/destination/chitradurga"
            ],
            "longitude": "77.5718472",
            "address": "Mumbai Spice, 18/2, 10th Cross, Malleswaram, Vyalikaval, Malleswaram, Bengaluru, Bangalore Urban, Karnataka, 560003, India",
            "latitude": "13.0002869",
            "locType": "restaurant",
            "closest_to": "chitradurga"
        },
        "maharashtra": {
            "blogLinks": [
                "http://www.inditales.com/chitradurga-chandravalli-jogimatti/",
                "http://www.team-bhp.com/forum/route-travel-queries/95295-places-visit-pune-bangalore-route.html"
            ],
            "longitude": "77.5856013",
            "address": "Bank of Maharashtra, 24th Main, K R Layout, Puttenahalli, Bengaluru, Bangalore Urban, Karnataka, 560001, India",
            "latitude": "12.9049455",
            "locType": "bank",
            "closest_to": "chitradurga"
        },
        "aihole": {
            "blogLinks": [
                "http://goindia.about.com/od/karnataka/tp/karnataka.htm"
            ],
            "longitude": "75.8819129",
            "address": "Aihole, Hunagunda taluku, Bagalkote district, Karnataka, India",
            "latitude": "16.0192298",
            "locType": "village",
            "closest_to": "chitradurga"
        },
        "subramanya": {
            "blogLinks": [
                "https://www.thrillophilia.com/places-to-visit-near-mangalore"
            ],
            "longitude": "77.6015800913134",
            "address": "Subramanya Arcade, Marenahalli, Bengaluru, Bangalore Urban, Karnataka, 560001, India",
            "latitude": "12.9251206",
            "locType": "commercial",
            "closest_to": "chitradurga"
        },
        "tannirbhavi": {
            "blogLinks": [
                "https://www.thrillophilia.com/places-to-visit-near-mangalore"
            ],
            "longitude": "74.8132559697314",
            "address": "Tannirbhavi Beach, Matadakani Road, Bokkapatna, Kudroli, Mangaluru, Mangaluru taluk, Dakshina Kannada, Karnataka, 575001, India",
            "latitude": "12.8953559",
            "locType": "beach",
            "closest_to": "mangalore"
        },
        "st. aloysius chapel": {
            "blogLinks": [
                "https://www.thrillophilia.com/places-to-visit-near-mangalore"
            ],
            "longitude": "74.8453615",
            "address": "St. Aloysius Chapel, St Aloysius Internal Road, Dongerkeri, Mallikatte, Mangaluru, Mangaluru taluk, Dakshina Kannada, Karnataka, 575001, India",
            "latitude": "12.8737995",
            "locType": "place_of_worship",
            "closest_to": "mangalore"
        },
        "badami": {
            "blogLinks": [
                "http://goindia.about.com/od/karnataka/tp/karnataka.htm"
            ],
            "longitude": "75.6807865",
            "address": "Badami, Badami taluku, Bagalkote district, Karnataka, 587200, India",
            "latitude": "15.9203874",
            "locType": "town",
            "closest_to": "chitradurga"
        },
        "vedavati river": {
            "blogLinks": [
                "http://www.holidayiq.com/Chitradurga-Sightseeing-650.html",
                "https://en.wikipedia.org/wiki/Chitradurga_district"
            ],
            "longitude": "76.1347937",
            "address": "Vedavati, Kaduru taluk, Chikkamagaluru district, Karnataka, India",
            "latitude": "13.6048777",
            "locType": "river",
            "closest_to": "mangalore"
        },
        "chitradurga": {
            "blogLinks": [
                "https://en.wikipedia.org/wiki/Chitradurga_district",
                "http://www.holidayiq.com/Chitradurga-Sightseeing-650.html",
                "https://www.tripoto.com/trip/bangalore-to-goa-road-trip-places-of-interest-132888",
                "http://www.inditales.com/chitradurga-chandravalli-jogimatti/",
                "http://nychthemeron.blogspot.com/2014/01/day-3-day-trip-to-chitradurga-fort.html",
                "http://www.team-bhp.com/forum/route-travel-queries/95295-places-visit-pune-bangalore-route.html",
                "https://en.wikipedia.org/wiki/Chitradurga",
                "http://www.nivalink.com/destination/chitradurga"
            ],
            "longitude": "76.4005122",
            "address": "Chitradurga, Chitradurga taluku, Chitradurga district, Karnataka, 577500, India",
            "latitude": "14.2266443",
            "locType": "town",
            "closest_to": "chitradurga"
        },
        "bangalore": {
            "blogLinks": [
                "http://www.nivalink.com/destination/chitradurga",
                "http://praveenpn.com/blog/2011/01/05/bangalore-to-goa-by-car/",
                "https://www.thrillophilia.com/places-to-visit-near-mangalore",
                "https://www.tripoto.com/trip/bangalore-to-goa-road-trip-places-of-interest-132888",
                "http://wikitravel.org/en/Chikmagalur",
                "http://www.inditales.com/chitradurga-chandravalli-jogimatti/",
                "http://goindia.about.com/od/karnataka/tp/karnataka.htm",
                "http://nychthemeron.blogspot.com/2014/01/day-3-day-trip-to-chitradurga-fort.html",
                "http://www.team-bhp.com/forum/route-travel-queries/95295-places-visit-pune-bangalore-route.html",
                "http://www.hivayking.in/blog/2012/08/nh4-between-bangalore-punemumbai/",
                "https://en.wikipedia.org/wiki/Chitradurga_district"
            ],
            "longitude": "77.5912997",
            "address": "Bengaluru, Bangalore Urban, Karnataka, 560001, India",
            "latitude": "12.9791198",
            "locType": "city",
            "closest_to": "chitradurga"
        },
        "bellary": {
            "blogLinks": [
                "http://www.team-bhp.com/forum/route-travel-queries/95295-places-visit-pune-bangalore-route.html"
            ],
            "longitude": "76.8323648",
            "address": "Bellary, Bellary district, Karnataka, India",
            "latitude": "15.2485413",
            "locType": "county",
            "closest_to": "chitradurga"
        },
        "kundapura": {
            "blogLinks": [
                "http://www.nivalink.com/destination/chitradurga"
            ],
            "longitude": "74.6915722",
            "address": "Kundapura, \u0c95\u0cc1\u0c82\u0ca6\u0cbe\u0caa\u0cc1\u0cb0 \u0ca4\u0cbe\u0cb2\u0cc2\u0c95\u0cc1, Udupi district, Karnataka, 576200, India",
            "latitude": "13.6250993",
            "locType": "town",
            "closest_to": "mangalore"
        },
        "gowdahalli": {
            "blogLinks": [
                "http://wikitravel.org/en/Chikmagalur"
            ],
            "longitude": "75.5981999",
            "address": "Gowdahalli, Mudigere taluk, Chikkamagaluru district, Karnataka, India",
            "latitude": "13.0422415",
            "locType": "village",
            "closest_to": "mangalore"
        },
        "north bangalore": {
            "blogLinks": [
                "http://praveenpn.com/blog/2011/01/05/bangalore-to-goa-by-car/"
            ],
            "longitude": "77.7660547",
            "address": "N, Chaithanya Samarpan, Kadugodi, Kannamangala, Bangalore Urban, Karnataka, 560066, India",
            "latitude": "13.0217151",
            "locType": "service",
            "closest_to": "chitradurga"
        },
        "hubli karwar": {
            "blogLinks": [
                "http://praveenpn.com/blog/2011/01/05/bangalore-to-goa-by-car/"
            ],
            "longitude": "76.36038",
            "address": "Hubli-Karwar Road, Amaravati, Hosapete taluk, Bellary district, Karnataka, 583225, India",
            "latitude": "15.2639568",
            "locType": "trunk",
            "closest_to": "chitradurga"
        },
        "udupi railway station": {
            "blogLinks": [
                "https://www.thrillophilia.com/places-to-visit-near-mangalore"
            ],
            "longitude": "74.7710217",
            "address": "Udupi Railway Station, Railway Godown Road, Indrali, Udupi, Udupi taluku, Udupi district, Karnataka, 576101, India",
            "latitude": "13.3360878",
            "locType": "station",
            "closest_to": "mangalore"
        },
        "obavva": {
            "blogLinks": [
                "https://en.wikipedia.org/wiki/Chitradurga"
            ],
            "longitude": "76.4097734479351",
            "address": "Onake Obavva Stadium, SH48, Lakshmisagara, Chitradurga, Chitradurga taluku, Chitradurga district, Karnataka, 577500, India",
            "latitude": "14.2136434",
            "locType": "sports_centre",
            "closest_to": "mangalore"
        },
        "bankapur": {
            "blogLinks": [
                "http://praveenpn.com/blog/2011/01/05/bangalore-to-goa-by-car/"
            ],
            "longitude": "75.2639298",
            "address": "Bankapura, Shiggaon taluk, Haveri district, Karnataka, 581202, India",
            "latitude": "14.9217443",
            "locType": "town",
            "closest_to": "chitradurga"
        },
        "yagachi river": {
            "blogLinks": [
                "http://goindia.about.com/od/karnataka/tp/karnataka.htm"
            ],
            "longitude": "75.950911",
            "address": "Yagachi, Beluru taluk, Hassan district, Karnataka, India",
            "latitude": "13.0658494",
            "locType": "river",
            "closest_to": "mangalore"
        },
        "brahmi": {
            "blogLinks": [
                "https://en.wikipedia.org/wiki/Chitradurga_district"
            ],
            "longitude": "77.5641994467667",
            "address": "MES Kishore Kendra, 10th Main Road, Vyalikaval, Gayatri Nagar, Bengaluru, Bangalore Urban, Karnataka, 560055, India",
            "latitude": "13.00475195",
            "locType": "school",
            "closest_to": "chitradurga"
        },
        "malpe": {
            "blogLinks": [
                "https://www.thrillophilia.com/places-to-visit-near-mangalore"
            ],
            "longitude": "74.7036914",
            "address": "Malpe, Udupi taluku, Udupi district, Karnataka, India",
            "latitude": "13.3507423",
            "locType": "village",
            "closest_to": "mangalore"
        },
        "udupi": {
            "blogLinks": [
                "https://www.thrillophilia.com/places-to-visit-near-mangalore"
            ],
            "longitude": "74.7473232",
            "address": "Udupi, Udupi taluku, Udupi district, Karnataka, 576101, India",
            "latitude": "13.3419169",
            "locType": "city",
            "closest_to": "mangalore"
        },
        "bangalore - hubli": {
            "blogLinks": [
                "https://www.tripoto.com/trip/bangalore-to-goa-road-trip-places-of-interest-132888"
            ],
            "longitude": "75.1368445",
            "address": "Pune Bangalore Road, Chanakya Puri, Old Hubli, Hubballi - \u0cb9\u0cc1\u0cac\u0ccd\u0cac\u0cb3\u0ccd\u0cb3\u0cbf, Hubballi taluku, Dharwad district, Karnataka, 580020, India",
            "latitude": "15.3416245",
            "locType": "primary",
            "closest_to": "chitradurga"
        }
    },
    "mangalore": {
        "lat": "12.8698101",
        "class": "place",
        "importance": 0.45,
        "osm_type": "node",
        "lon": "74.8430082",
        "place_id": "637002",
        "display_name": "Mangaluru, Mangaluru taluk, Dakshina Kannada, Karnataka, 575001, India",
        "osm_id": "245612641",
        "boundingbox": [
            "12.7098101",
            "13.0298101",
            "74.6830082",
            "75.0030082"
        ],
        "type": "city",
        "licence": "Data \u00a9 OpenStreetMap contributors, ODbL 1.0. http://www.openstreetmap.org/copyright",
        "icon": "https://nominatim.openstreetmap.org/images/mapicons/poi_place_city.p.20.png"
    }
}