{
    "kanakapura": {
        "lat": "12.5450268",
        "class": "place",
        "importance": 0.5,
        "osm_type": "node",
        "lon": "77.4199095",
        "place_id": "1366054",
        "display_name": "Kanakapura, Kanakapura taluk, Ramanagara district, Karnataka, 562117, India",
        "osm_id": "313178025",
        "boundingbox": [
            "12.5050268",
            "12.5850268",
            "77.3799095",
            "77.4599095"
        ],
        "type": "town",
        "licence": "Data \u00a9 OpenStreetMap contributors, ODbL 1.0. http://www.openstreetmap.org/copyright",
        "icon": "https://nominatim.openstreetmap.org/images/mapicons/poi_place_town.p.20.png"
    },
    "chitradurga": {
        "lat": "14.2266443",
        "class": "place",
        "importance": 0.5,
        "osm_type": "node",
        "lon": "76.4005122",
        "place_id": "4897275",
        "display_name": "Chitradurga, Chitradurga taluku, Chitradurga district, Karnataka, 577500, India",
        "osm_id": "571409087",
        "boundingbox": [
            "14.1866443",
            "14.2666443",
            "76.3605122",
            "76.4405122"
        ],
        "type": "town",
        "licence": "Data \u00a9 OpenStreetMap contributors, ODbL 1.0. http://www.openstreetmap.org/copyright",
        "icon": "https://nominatim.openstreetmap.org/images/mapicons/poi_place_town.p.20.png"
    },
    "mentions": {
        "varaha": {
            "blogLinks": [
                "https://en.wikipedia.org/wiki/Tourism_in_Karnataka"
            ],
            "longitude": "75.3718812",
            "address": "Varaha, Hirekeruru taluk, Haveri district, Karnataka, India",
            "latitude": "14.390777",
            "locType": "village",
            "closest_to": "chitradurga"
        },
        "ranganathittu bird sanctuary": {
            "blogLinks": [
                "https://en.wikipedia.org/wiki/Tourism_in_Karnataka"
            ],
            "longitude": "76.6553081",
            "address": "Ranganathittu Bird Sanctuary, SH154, Palahalli, Srirangapattana taluk, Mandya district, Karnataka, 571438, India",
            "latitude": "12.4238524",
            "locType": "attraction",
            "closest_to": "kanakapura"
        },
        "sanapur lake": {
            "blogLinks": [
                "https://www.tripoto.com/places-to-visit/india/karnataka"
            ],
            "longitude": "76.4294274988777",
            "address": "Sanapura Kere, Sanapura, Gangavati taluku, Koppal district, Karnataka, India",
            "latitude": "15.35823095",
            "locType": "reservoir",
            "closest_to": "chitradurga"
        },
        "mowgli": {
            "blogLinks": [
                "https://www.tripoto.com/places-to-visit/india/karnataka"
            ],
            "longitude": "76.4532005",
            "address": "Mowgli Guest House, SH130, Basapura, Koppala taluku, Koppal district, Karnataka, India",
            "latitude": "15.3413499",
            "locType": "hostel",
            "closest_to": "chitradurga"
        },
        "chamundeshwari temple": {
            "blogLinks": [
                "https://www.tripoto.com/places-to-visit/india/karnataka"
            ],
            "longitude": "77.5793319839087",
            "address": "Chamundeshwari Temple, Nagarathpet Main Road, Ganigarpet, Chickpet, Bengaluru, Bangalore Urban, Karnataka, 560001, India",
            "latitude": "12.96746475",
            "locType": "place_of_worship",
            "closest_to": "kanakapura"
        },
        "varur": {
            "blogLinks": [
                "https://en.wikipedia.org/wiki/Tourism_in_Karnataka"
            ],
            "longitude": "75.1387568",
            "address": "Varur, Hubballi taluku, Dharwad district, Karnataka, India",
            "latitude": "15.2077105",
            "locType": "village",
            "closest_to": "chitradurga"
        },
        "palace gardens": {
            "blogLinks": [
                "https://www.tripoto.com/places-to-visit/india/karnataka"
            ],
            "longitude": "77.5920094892276",
            "address": "Bangalore Palace, Jayamahal Road, Jayamahal Extension, Jayamahal, Bengaluru, Bangalore Urban, Karnataka, 560001, India",
            "latitude": "12.9985963",
            "locType": "attraction",
            "closest_to": "kanakapura"
        },
        "kalyani": {
            "blogLinks": [
                "https://en.wikipedia.org/wiki/Tourism_in_Karnataka",
                "https://www.tripoto.com/places-to-visit/india/karnataka"
            ],
            "longitude": "77.6286090192686",
            "address": "Kalyani, Neeladri Road, Electronics City Phase 1, Bettadasana Pura, Bangalore Urban, Karnataka, 560100, India",
            "latitude": "12.8406466",
            "locType": "water",
            "closest_to": "kanakapura"
        },
        "hospet": {
            "blogLinks": [
                "https://www.tripoto.com/places-to-visit/india/karnataka"
            ],
            "longitude": "76.3870527",
            "address": "Hosapete, Hosapete taluk, Bellary district, Karnataka, 583200, India",
            "latitude": "15.266079",
            "locType": "town",
            "closest_to": "chitradurga"
        },
        "chunchi falls": {
            "blogLinks": [
                "http://harishoutings.blogspot.com/2008/07/sangam-mekedatu-and-chunchi-falls.html",
                "https://www.tripoto.com/places-to-visit/india/karnataka"
            ],
            "longitude": "77.4459464",
            "address": "Chunchi Falls, Kanakapura taluk, Ramanagara district, Karnataka, India",
            "latitude": "12.3515083",
            "locType": "waterfall",
            "closest_to": "kanakapura"
        },
        "chitradurga district": {
            "blogLinks": [
                "https://en.wikipedia.org/wiki/Chitradurga_district",
                "http://www.holidayiq.com/Chitradurga-Sightseeing-650.html",
                "http://distancecalculator.globefeed.com/India_Distance_Calculator.asp?state=19"
            ],
            "longitude": "76.5299366059272",
            "address": "Chitradurga district, Karnataka, India",
            "latitude": "14.3051049",
            "locType": "administrative",
            "closest_to": "chitradurga"
        },
        "mekedatu": {
            "blogLinks": [
                "http://harishoutings.blogspot.com/2008/07/sangam-mekedatu-and-chunchi-falls.html"
            ],
            "longitude": "77.4475194",
            "address": "Mekedatu, SH92, Mahalli, Kanakapura taluk, Ramanagara district, Karnataka, India",
            "latitude": "12.2584997",
            "locType": "attraction",
            "closest_to": "kanakapura"
        },
        "prince restaurant": {
            "blogLinks": [
                "https://www.tripoto.com/places-to-visit/india/karnataka"
            ],
            "longitude": "76.4602348",
            "address": "Prince, Hampi Bazaar, Hampe, Hosapete taluk, Bellary district, Karnataka, 583239, India",
            "latitude": "15.3355701",
            "locType": "restaurant",
            "closest_to": "chitradurga"
        },
        "makalidurga": {
            "blogLinks": [
                "https://www.quora.com/Which-is-the-best-place-in-Bangalore-to-spend-time-alone"
            ],
            "longitude": "77.5032241",
            "address": "Makalidurga, Doddaballapura taluk, Bangalore Rural, Karnataka, India",
            "latitude": "13.4330139",
            "locType": "peak",
            "closest_to": "kanakapura"
        },
        "bengaluru": {
            "blogLinks": [
                "https://www.quora.com/Which-is-the-best-place-in-Bangalore-to-spend-time-alone",
                "https://www.tripoto.com/places-to-visit/india/karnataka"
            ],
            "longitude": "77.5912997",
            "address": "Bengaluru, Bangalore Urban, Karnataka, 560001, India",
            "latitude": "12.9791198",
            "locType": "city",
            "closest_to": "kanakapura"
        },
        "malpe beach": {
            "blogLinks": [
                "https://www.tripoto.com/places-to-visit/india/karnataka"
            ],
            "longitude": "74.6977767",
            "address": "Malpe Beach, Malpe Road, Adi Udupi, Malpe, Udupi taluku, Udupi district, Karnataka, 576101, India",
            "latitude": "13.3610748",
            "locType": "marina",
            "closest_to": "chitradurga"
        },
        "savandurga hill": {
            "blogLinks": [
                "http://goindia.about.com/od/cities/tp/attractions-around-bangalore.htm"
            ],
            "longitude": "77.2977719",
            "address": "Savandurga, Magadi taluku, Ramanagara district, Karnataka, India",
            "latitude": "12.9159605",
            "locType": "village",
            "closest_to": "kanakapura"
        },
        "davanagere district": {
            "blogLinks": [
                "https://en.wikipedia.org/wiki/Chitradurga_district"
            ],
            "longitude": "75.8904782659728",
            "address": "Davanagere district, Karnataka, India",
            "latitude": "14.37090835",
            "locType": "administrative",
            "closest_to": "chitradurga"
        },
        "chitradurga fort": {
            "blogLinks": [
                "https://en.wikipedia.org/wiki/Chitradurga_district"
            ],
            "longitude": "76.3948635401208",
            "address": "Chitradurga Fort, Kote Road, Devalagiri 1st Phase, Chitradurga, Chitradurga taluku, Chitradurga district, Karnataka, 577500, India",
            "latitude": "14.21296355",
            "locType": "attraction",
            "closest_to": "kanakapura"
        },
        "madras": {
            "blogLinks": [
                "https://www.tripoto.com/weekend-getaways/from-kanakapura"
            ],
            "longitude": "77.6449595",
            "address": "Swami Vivekananda Road, Swamy Vivekananda Road (Old Madras Road), Sudgunte Palya, Baiyyappanahalli, Benniganahalli, Bangalore Urban, Karnataka, 560016, India",
            "latitude": "12.9859442",
            "locType": "station",
            "closest_to": "kanakapura"
        },
        "m.g": {
            "blogLinks": [
                "https://www.tripoto.com/places-to-visit/india/karnataka"
            ],
            "longitude": "75.7223521",
            "address": "Karnataka, India",
            "latitude": "14.5203896",
            "locType": "administrative",
            "closest_to": "chitradurga"
        },
        "beladhadi": {
            "blogLinks": [
                "https://www.tripoto.com/places-to-visit/india/karnataka"
            ],
            "longitude": "75.6189768",
            "address": "Beladhadi, Gadag taluk, Gadag district, Karnataka, India",
            "latitude": "15.3369716",
            "locType": "village",
            "closest_to": "chitradurga"
        },
        "golden palms": {
            "blogLinks": [
                "https://www.thrillophilia.com/around-bangalore"
            ],
            "longitude": "77.6387955187635",
            "address": "Golden Palms Apartments, Thanisandra, Shabarinagara, Bangalore Urban, Karnataka, 560045, India",
            "latitude": "13.0633668",
            "locType": "residential",
            "closest_to": "kanakapura"
        },
        "kannada": {
            "blogLinks": [
                "https://en.wikipedia.org/wiki/Chitradurga_district",
                "http://harishoutings.blogspot.com/2008/07/sangam-mekedatu-and-chunchi-falls.html",
                "https://www.tripoto.com/places-to-visit/india/karnataka"
            ],
            "longitude": "75.1008028650794",
            "address": "Dakshina Kannada, Karnataka, India",
            "latitude": "12.8114089",
            "locType": "administrative",
            "closest_to": "chitradurga"
        },
        "botanical gardens": {
            "blogLinks": [
                "https://www.tripoto.com/weekend-getaways/from-kanakapura",
                "https://www.tripoto.com/places-to-visit/india/karnataka"
            ],
            "longitude": "77.5744817798899",
            "address": "Botanical Garden, Cart road, Judicial Layout, Jakkur, Bangalore Urban, Karnataka, 560065, India",
            "latitude": "13.08099125",
            "locType": "protected_area",
            "closest_to": "kanakapura"
        },
        "bengal": {
            "blogLinks": [
                "https://www.tripoto.com/weekend-getaways/from-kanakapura",
                "https://www.tripoto.com/places-to-visit/india/karnataka"
            ],
            "longitude": "77.7517038151245",
            "address": "Bengal Lamps, Konadasapura, Bangalore Urban, Karnataka, 560066, India",
            "latitude": "13.0492646",
            "locType": "industrial",
            "closest_to": "kanakapura"
        },
        "chamundi hill": {
            "blogLinks": [
                "https://www.tripoto.com/places-to-visit/india/karnataka"
            ],
            "longitude": "76.6703937",
            "address": "Chamundi Hill, Mysuru, Mysuru taluk, Mysuru district, Karnataka, 570001, India",
            "latitude": "12.2724017",
            "locType": "peak",
            "closest_to": "kanakapura"
        },
        "malpe": {
            "blogLinks": [
                "https://en.wikipedia.org/wiki/Tourism_in_Karnataka",
                "https://www.tripoto.com/places-to-visit/india/karnataka"
            ],
            "longitude": "74.7036914",
            "address": "Malpe, Udupi taluku, Udupi district, Karnataka, India",
            "latitude": "13.3507423",
            "locType": "village",
            "closest_to": "chitradurga"
        },
        "itagi": {
            "blogLinks": [
                "https://en.wikipedia.org/wiki/Tourism_in_Karnataka"
            ],
            "longitude": "75.6701043",
            "address": "Itagi, Ranebennuru taluk, Haveri district, Karnataka, India",
            "latitude": "14.550374",
            "locType": "village",
            "closest_to": "chitradurga"
        },
        "nagarhole national park": {
            "blogLinks": [
                "https://en.wikipedia.org/wiki/Tourism_in_Karnataka"
            ],
            "longitude": "76.1537073415874",
            "address": "Nagarahole National Park, Virajpet taluk, Kodagu, Karnataka, India",
            "latitude": "12.0600362",
            "locType": "national_park",
            "closest_to": "kanakapura"
        },
        "hoysala": {
            "blogLinks": [
                "https://en.wikipedia.org/wiki/Tourism_in_Karnataka",
                "https://www.tripoto.com/places-to-visit/india/karnataka"
            ],
            "longitude": "77.6375990817051",
            "address": "Hoysala Nagar, Bengaluru, Bangalore Urban, Karnataka, 560001, India",
            "latitude": "12.97813815",
            "locType": "administrative",
            "closest_to": "kanakapura"
        },
        "mookambika": {
            "blogLinks": [
                "https://en.wikipedia.org/wiki/Tourism_in_Karnataka"
            ],
            "longitude": "74.8145296",
            "address": "Mukambika Devasthana, NH766C;SH26, Halkal, \u0c95\u0cc1\u0c82\u0ca6\u0cbe\u0caa\u0cc1\u0cb0 \u0ca4\u0cbe\u0cb2\u0cc2\u0c95\u0cc1, Udupi district, Karnataka, 576220, India",
            "latitude": "13.8638043",
            "locType": "place_of_worship",
            "closest_to": "chitradurga"
        },
        "uttarahalli": {
            "blogLinks": [
                "https://www.tripoto.com/places-to-visit/india/karnataka"
            ],
            "longitude": "77.5455438",
            "address": "Uttarahalli, Bengaluru, Bangalore Urban, Karnataka, 560001, India",
            "latitude": "12.9055682",
            "locType": "suburb",
            "closest_to": "kanakapura"
        },
        "raja seat": {
            "blogLinks": [
                "https://www.tripoto.com/weekend-getaways/from-kanakapura",
                "https://www.tripoto.com/places-to-visit/india/karnataka"
            ],
            "longitude": "75.7369653316478",
            "address": "Raja Seat, Mahatma Gandhi Road, Madikeri, Madikeri taluku, Kodagu, Karnataka, India",
            "latitude": "12.41421975",
            "locType": "park",
            "closest_to": "kanakapura"
        },
        "kukke": {
            "blogLinks": [
                "https://www.tripoto.com/places-to-visit/india/karnataka"
            ],
            "longitude": "75.3076538",
            "address": "Kukke, Tirthahalli taluk, Shimoga district, Karnataka, India",
            "latitude": "13.7523964",
            "locType": "village",
            "closest_to": "chitradurga"
        },
        "goa": {
            "blogLinks": [
                "https://en.wikipedia.org/wiki/Tourism_in_Karnataka",
                "https://www.tripoto.com/places-to-visit/india/karnataka"
            ],
            "longitude": "77.6200027",
            "address": "Carnival De Goa, Bhaskaran Road, Gupta Layout, Halasuru, Bengaluru, Bangalore Urban, Karnataka, 560001, India",
            "latitude": "12.9750047",
            "locType": "restaurant",
            "closest_to": "kanakapura"
        },
        "sagara taluk": {
            "blogLinks": [
                "https://en.wikipedia.org/wiki/Tourism_in_Karnataka"
            ],
            "longitude": "74.9610874491152",
            "address": "Sagara taluk, Shimoga district, Karnataka, India",
            "latitude": "14.09993045",
            "locType": "administrative",
            "closest_to": "chitradurga"
        },
        "sharavati": {
            "blogLinks": [
                "https://en.wikipedia.org/wiki/Tourism_in_Karnataka"
            ],
            "longitude": "74.7647294",
            "address": "Sharavati, Sagara taluk, Shimoga district, Karnataka, India",
            "latitude": "14.2360979",
            "locType": "river",
            "closest_to": "chitradurga"
        },
        "chikmagalur district": {
            "blogLinks": [
                "https://en.wikipedia.org/wiki/Tourism_in_Karnataka",
                "https://en.wikipedia.org/wiki/Chitradurga_district"
            ],
            "longitude": "75.5",
            "address": "Chikmagalur, Chikkamagaluru district, Karnataka, India",
            "latitude": "13.5",
            "locType": "county",
            "closest_to": "chitradurga"
        },
        "tunga river": {
            "blogLinks": [
                "https://www.tripoto.com/places-to-visit/india/karnataka"
            ],
            "longitude": "75.3221835",
            "address": "Tunga, Tirthahalli taluk, Shimoga district, Karnataka, India",
            "latitude": "13.6632221",
            "locType": "river",
            "closest_to": "chitradurga"
        },
        "emerald lake": {
            "blogLinks": [
                "https://www.tripoto.com/weekend-getaways/from-kanakapura"
            ],
            "longitude": "77.8188013",
            "address": "Emerald Isle Resort, NH75, Lakshmisagara, Kolar taluk, Kolar district, Karnataka, 563133, India",
            "latitude": "13.0833534",
            "locType": "hotel",
            "closest_to": "kanakapura"
        },
        "siddapur": {
            "blogLinks": [
                "https://www.tripoto.com/places-to-visit/india/karnataka"
            ],
            "longitude": "74.911019",
            "address": "Siddapur, \u0c95\u0cc1\u0c82\u0ca6\u0cbe\u0caa\u0cc1\u0cb0 \u0ca4\u0cbe\u0cb2\u0cc2\u0c95\u0cc1, Udupi district, Karnataka, 576229, India",
            "latitude": "13.6626885",
            "locType": "village",
            "closest_to": "chitradurga"
        },
        "beluru": {
            "blogLinks": [
                "https://en.wikipedia.org/wiki/Tourism_in_Karnataka"
            ],
            "longitude": "75.8634851",
            "address": "Belur, Beluru taluk, Hassan district, Karnataka, 573115, India",
            "latitude": "13.1645671",
            "locType": "town",
            "closest_to": "kanakapura"
        },
        "somwarpet": {
            "blogLinks": [
                "https://www.tripoto.com/places-to-visit/india/karnataka"
            ],
            "longitude": "75.8457638",
            "address": "Somwarpet, Somawarpet taluk, Kodagu, Karnataka, 571236, India",
            "latitude": "12.6004446",
            "locType": "town",
            "closest_to": "kanakapura"
        },
        "nilgiris": {
            "blogLinks": [
                "https://en.wikipedia.org/wiki/Tourism_in_Karnataka",
                "https://www.tripoto.com/weekend-getaways/from-kanakapura"
            ],
            "longitude": "77.6069792",
            "address": "Nilgiris, Brigade Road, Tasker Town, Ashok Nagar, Bengaluru, Bangalore Urban, Karnataka, 560001, India",
            "latitude": "12.9725052",
            "locType": "supermarket",
            "closest_to": "kanakapura"
        },
        "sri chamarajendra zoological gardens": {
            "blogLinks": [
                "https://www.tripoto.com/places-to-visit/india/karnataka"
            ],
            "longitude": "76.6682662743162",
            "address": "Sri Chamarajendra Zoological Garden, Kozhikode - Kollegal Highway, Race Course, Mysuru, Mysuru taluk, Mysuru district, Karnataka, 570001, India",
            "latitude": "12.3006384",
            "locType": "zoo",
            "closest_to": "kanakapura"
        },
        "murudeshwara temple": {
            "blogLinks": [
                "https://www.tripoto.com/places-to-visit/india/karnataka"
            ],
            "longitude": "74.484753966647",
            "address": "Murudeshwara Temple, NH66, Manki, Honnavara taluku, Uttara Kannada, Karnataka, 581348, India",
            "latitude": "14.0934908",
            "locType": "place_of_worship",
            "closest_to": "chitradurga"
        },
        "koppal": {
            "blogLinks": [
                "https://en.wikipedia.org/wiki/Tourism_in_Karnataka",
                "http://www.mapsofindia.com/maps/karnataka/"
            ],
            "longitude": "76.1547421",
            "address": "Koppala, Koppala taluku, Koppal district, Karnataka, 583231, India",
            "latitude": "15.3484144",
            "locType": "town",
            "closest_to": "chitradurga"
        },
        "mastikatte": {
            "blogLinks": [
                "https://en.wikipedia.org/wiki/Tourism_in_Karnataka"
            ],
            "longitude": "74.4604101",
            "address": "Mastikatte, Ankola taluk, Uttara Kannada, Karnataka, India",
            "latitude": "14.6857168",
            "locType": "village",
            "closest_to": "chitradurga"
        },
        "netravati": {
            "blogLinks": [
                "https://en.wikipedia.org/wiki/Tourism_in_Karnataka",
                "https://www.quora.com/Which-is-the-best-place-in-Bangalore-to-spend-time-alone"
            ],
            "longitude": "75.1562182",
            "address": "Netravati, Bantwal taluk, Dakshina Kannada, Karnataka, India",
            "latitude": "12.8537655",
            "locType": "river",
            "closest_to": "chitradurga"
        },
        "kabini river": {
            "blogLinks": [
                "https://en.wikipedia.org/wiki/Tourism_in_Karnataka",
                "https://www.thrillophilia.com/around-bangalore",
                "https://www.tripoto.com/places-to-visit/india/karnataka"
            ],
            "longitude": "76.6477184",
            "address": "Kabini right bank canal, Nanjanagudu taluk, Mysuru district, Karnataka, India",
            "latitude": "12.0780998",
            "locType": "canal",
            "closest_to": "kanakapura"
        },
        "nilgiri range": {
            "blogLinks": [
                "https://www.tripoto.com/weekend-getaways/from-kanakapura"
            ],
            "longitude": "76.658639",
            "address": "Bangalore Nilgiri Road, Ittigegudu, Mysuru, Mysuru taluk, Mysuru district, Karnataka, 570001, India",
            "latitude": "12.304105",
            "locType": "primary",
            "closest_to": "kanakapura"
        },
        "silicon valley": {
            "blogLinks": [
                "https://www.tripoto.com/places-to-visit/india/karnataka"
            ],
            "longitude": "77.6053133563105",
            "address": "RK Estates : Silicon Valley Layout, Vidyanagar, Bengaluru, Bangalore Urban, Karnataka, 560001, India",
            "latitude": "13.1650062",
            "locType": "residential",
            "closest_to": "kanakapura"
        },
        "brahmagiri range": {
            "blogLinks": [
                "https://www.tripoto.com/places-to-visit/india/karnataka"
            ],
            "longitude": "76.8122474",
            "address": "Brahmagiri Betta, Molakalmuru taluku, Chitradurga district, Karnataka, India",
            "latitude": "14.8001586",
            "locType": "peak",
            "closest_to": "chitradurga"
        },
        "tadiandamol": {
            "blogLinks": [
                "https://www.tripoto.com/places-to-visit/india/karnataka"
            ],
            "longitude": "75.608815",
            "address": "Tadiandamol, Madikeri taluku, Kodagu, Karnataka, India",
            "latitude": "12.2175641",
            "locType": "peak",
            "closest_to": "kanakapura"
        },
        "nandi": {
            "blogLinks": [
                "https://www.tripoto.com/places-to-visit/india/karnataka"
            ],
            "longitude": "75.8556266",
            "address": "Nandi, Tarikere taluku, Chikkamagaluru district, Karnataka, India",
            "latitude": "13.6434094",
            "locType": "village",
            "closest_to": "kanakapura"
        },
        "mercara": {
            "blogLinks": [
                "https://en.wikipedia.org/wiki/Tourism_in_Karnataka",
                "https://www.tripoto.com/places-to-visit/india/karnataka"
            ],
            "longitude": "75.740031",
            "address": "Madikeri, Madikeri taluku, Kodagu, Karnataka, India",
            "latitude": "12.4204003",
            "locType": "town",
            "closest_to": "kanakapura"
        },
        "orissa": {
            "blogLinks": [
                "https://www.tripoto.com/places-to-visit/india/karnataka"
            ],
            "longitude": "77.6448007",
            "address": "Little Orissa, 18th Main Road, Babasaheb Colony, Kodihalli, Bengaluru, Bangalore Urban, Karnataka, 560001, India",
            "latitude": "12.9622425",
            "locType": "restaurant",
            "closest_to": "kanakapura"
        },
        "brahmagiri peak": {
            "blogLinks": [
                "https://www.tripoto.com/weekend-getaways/from-kanakapura"
            ],
            "longitude": "75.490746",
            "address": "Brahmagiri, Madikeri taluku, Kodagu, Karnataka, India",
            "latitude": "12.3868578",
            "locType": "peak",
            "closest_to": "kanakapura"
        },
        "hosur road": {
            "blogLinks": [
                "https://www.tripoto.com/places-to-visit/india/karnataka"
            ],
            "longitude": "77.6241106",
            "address": "Hosur Road, BTM 2nd Stage, Bommanahalli, Bengaluru, Bangalore Urban, Karnataka, 560001, India",
            "latitude": "12.9147705",
            "locType": "trunk",
            "closest_to": "kanakapura"
        },
        "banavasi": {
            "blogLinks": [
                "https://en.wikipedia.org/wiki/Tourism_in_Karnataka"
            ],
            "longitude": "75.0129845",
            "address": "Banavasi, Shirasi taluk, Uttara Kannada, Karnataka, India",
            "latitude": "14.5389738",
            "locType": "town",
            "closest_to": "chitradurga"
        },
        "kozhikode": {
            "blogLinks": [
                "https://www.tripoto.com/places-to-visit/india/karnataka"
            ],
            "longitude": "76.6598864",
            "address": "Kozhikode - Kollegal Highway, Ittigegudu, Mysuru, Mysuru taluk, Mysuru district, Karnataka, 570001, India",
            "latitude": "12.2926117",
            "locType": "primary",
            "closest_to": "kanakapura"
        },
        "bylakuppe": {
            "blogLinks": [
                "https://www.quora.com/Which-is-the-best-place-in-Bangalore-to-spend-time-alone",
                "https://www.tripoto.com/places-to-visit/india/karnataka"
            ],
            "longitude": "75.9953435",
            "address": "Bylakuppe, Piriyapattana taluk, Mysuru district, Karnataka, India",
            "latitude": "12.4292508",
            "locType": "village",
            "closest_to": "kanakapura"
        },
        "dattatreya temple": {
            "blogLinks": [
                "https://www.tripoto.com/places-to-visit/india/karnataka"
            ],
            "longitude": "77.5401435953887",
            "address": "Dattatreya Temple, 7th Main Road, Seven Hills Layout, Ittamadu, Bengaluru, Bangalore Urban, Karnataka, 560001, India",
            "latitude": "12.92479825",
            "locType": "place_of_worship",
            "closest_to": "kanakapura"
        },
        "iruppu falls": {
            "blogLinks": [
                "https://www.tripoto.com/weekend-getaways/from-kanakapura",
                "https://www.tripoto.com/places-to-visit/india/karnataka"
            ],
            "longitude": "75.9839484",
            "address": "Iruppu Falls, SH89, Taila, Virajpet taluk, Kodagu, Karnataka, 571217, India",
            "latitude": "11.9667954",
            "locType": "attraction",
            "closest_to": "kanakapura"
        },
        "chamundi": {
            "blogLinks": [
                "https://www.tripoto.com/places-to-visit/india/karnataka"
            ],
            "longitude": "76.6703937",
            "address": "Chamundi Hill, Mysuru, Mysuru taluk, Mysuru district, Karnataka, 570001, India",
            "latitude": "12.2724017",
            "locType": "peak",
            "closest_to": "kanakapura"
        },
        "kalaseshwara temple": {
            "blogLinks": [
                "http://www.nivalink.com/destination/chitradurga"
            ],
            "longitude": "75.363446975",
            "address": "Kalaseshwara Temple, SH66, Kalasa, Mudigere taluk, Chikkamagaluru district, Karnataka, 577124, India",
            "latitude": "13.23228505",
            "locType": "place_of_worship",
            "closest_to": "chitradurga"
        },
        "south east": {
            "blogLinks": [
                "https://www.tripoto.com/places-to-visit/india/karnataka"
            ],
            "longitude": "75.7223521",
            "address": "Karnataka, India",
            "latitude": "14.5203896",
            "locType": "administrative",
            "closest_to": "chitradurga"
        },
        "madhukeshwara temple": {
            "blogLinks": [
                "https://www.tripoto.com/places-to-visit/india/karnataka"
            ],
            "longitude": "75.0171155065268",
            "address": "Madhukeshwara Temple, Ratha Beedhi, Banavasi, Shirasi taluk, Uttara Kannada, Karnataka, India",
            "latitude": "14.5352632",
            "locType": "place_of_worship",
            "closest_to": "chitradurga"
        },
        "tamil nadu": {
            "blogLinks": [
                "https://en.wikipedia.org/wiki/Tourism_in_Karnataka",
                "https://www.tripoto.com/weekend-getaways/from-kanakapura",
                "http://www.mapsofindia.com/maps/karnataka/",
                "http://www.inditales.com/chitradurga-chandravalli-jogimatti/",
                "https://www.tripoto.com/places-to-visit/india/karnataka"
            ],
            "longitude": "76.9514152",
            "address": "KARNATAKA BANK, Diwan Bhadur Road, Five Corner, RS Puram, Coimbatore, Coimbatore district, Tamil Nadu, 641001, India",
            "latitude": "11.0025894",
            "locType": "bank",
            "closest_to": "kanakapura"
        },
        "kali river": {
            "blogLinks": [
                "https://www.thrillophilia.com/around-bangalore",
                "https://www.tripoto.com/places-to-visit/india/karnataka"
            ],
            "longitude": "74.5802901",
            "address": "Kali, Joida taluk, Uttara Kannada, Karnataka, India",
            "latitude": "15.0145378",
            "locType": "river",
            "closest_to": "chitradurga"
        },
        "mysore palace": {
            "blogLinks": [
                "https://www.tripoto.com/places-to-visit/india/karnataka"
            ],
            "longitude": "76.6539249338108",
            "address": "Mysore Palace, Sayyaji Rao Road, Vani Vilas, Mysuru, Mysuru taluk, Mysuru district, Karnataka, 570001, India",
            "latitude": "12.3052915",
            "locType": "yes",
            "closest_to": "kanakapura"
        },
        "mandya district": {
            "blogLinks": [
                "https://en.wikipedia.org/wiki/Tourism_in_Karnataka",
                "http://goindia.about.com/od/cities/tp/attractions-around-bangalore.htm",
                "https://www.tripoto.com/places-to-visit/india/karnataka"
            ],
            "longitude": "76.7302318329607",
            "address": "Mandya district, Karnataka, India",
            "latitude": "12.6336348",
            "locType": "administrative",
            "closest_to": "kanakapura"
        },
        "cauvery": {
            "blogLinks": [
                "https://www.quora.com/Which-is-the-best-place-in-Bangalore-to-spend-time-alone"
            ],
            "longitude": "77.5832796015599",
            "address": "Cauvery, 1st Main Road, Lower Palace Orchard, Guttahalli, Bengaluru, Bangalore Urban, Karnataka, 560001, India",
            "latitude": "13.00262215",
            "locType": "cinema",
            "closest_to": "kanakapura"
        },
        "srirangapatna": {
            "blogLinks": [
                "https://en.wikipedia.org/wiki/Tourism_in_Karnataka",
                "https://www.tripoto.com/places-to-visit/india/karnataka"
            ],
            "longitude": "76.6850743",
            "address": "Srirangapatna, Srirangapattana taluk, Mandya district, Karnataka, 571438, India",
            "latitude": "12.4225604",
            "locType": "town",
            "closest_to": "kanakapura"
        },
        "pattadakal": {
            "blogLinks": [
                "https://en.wikipedia.org/wiki/Tourism_in_Karnataka",
                "https://www.tripoto.com/places-to-visit/india/karnataka"
            ],
            "longitude": "75.815884048161",
            "address": "Pattadakal Temples, SH14, \u0cac\u0cbe\u0c9a\u0cbf\u0ca8\u0c97\u0cc1\u0ca1\u0ccd\u0ca1, Badami taluku, Bagalkote district, Karnataka, 587211, India",
            "latitude": "15.9506349",
            "locType": "attraction",
            "closest_to": "chitradurga"
        },
        "hiriyur": {
            "blogLinks": [
                "https://en.wikipedia.org/wiki/Chitradurga_district"
            ],
            "longitude": "76.1879166",
            "address": "Hiriyur, Arasikere taluku, Hassan district, Karnataka, India",
            "latitude": "13.340224",
            "locType": "village",
            "closest_to": "kanakapura"
        },
        "maharashtra": {
            "blogLinks": [
                "https://en.wikipedia.org/wiki/Tourism_in_Karnataka",
                "http://www.mapsofindia.com/maps/karnataka/",
                "http://www.inditales.com/chitradurga-chandravalli-jogimatti/",
                "https://www.tripoto.com/places-to-visit/india/karnataka"
            ],
            "longitude": "77.5856013",
            "address": "Bank of Maharashtra, 24th Main, K R Layout, Puttenahalli, Bengaluru, Bangalore Urban, Karnataka, 560001, India",
            "latitude": "12.9049455",
            "locType": "bank",
            "closest_to": "kanakapura"
        },
        "subramanya": {
            "blogLinks": [
                "https://en.wikipedia.org/wiki/Tourism_in_Karnataka",
                "https://www.tripoto.com/places-to-visit/india/karnataka"
            ],
            "longitude": "77.6015800913134",
            "address": "Subramanya Arcade, Marenahalli, Bengaluru, Bangalore Urban, Karnataka, 560001, India",
            "latitude": "12.9251206",
            "locType": "commercial",
            "closest_to": "kanakapura"
        },
        "dharwad": {
            "blogLinks": [
                "https://en.wikipedia.org/wiki/Tourism_in_Karnataka"
            ],
            "longitude": "75.0066516",
            "address": "Dharwad, Dharawada taluku, Dharwad district, Karnataka, 580001, India",
            "latitude": "15.4540505",
            "locType": "city",
            "closest_to": "chitradurga"
        },
        "nandi bull": {
            "blogLinks": [
                "https://www.tripoto.com/places-to-visit/india/karnataka"
            ],
            "longitude": "76.4671825",
            "address": "Monolithic Bull, Way to Vitthala Temple, Hampe, Hosapete taluk, Bellary district, Karnataka, 583239, India",
            "latitude": "15.3337944",
            "locType": "attraction",
            "closest_to": "chitradurga"
        },
        "lokapavani river": {
            "blogLinks": [
                "https://www.tripoto.com/places-to-visit/india/karnataka"
            ],
            "longitude": "76.7301496",
            "address": "Lokapavani, Mandya taluk, Mandya district, Karnataka, India",
            "latitude": "12.6108167",
            "locType": "river",
            "closest_to": "kanakapura"
        },
        "udayavani": {
            "blogLinks": [
                "https://en.wikipedia.org/wiki/Chitradurga_district"
            ],
            "longitude": "77.6148055",
            "address": "Udayavani, Cubbon Road, Tasker Town, Ashok Nagar, Bengaluru, Bangalore Urban, Karnataka, 560001, India",
            "latitude": "12.9751718",
            "locType": "newspaper",
            "closest_to": "kanakapura"
        },
        "mallikarjuna temple": {
            "blogLinks": [
                "https://www.tripoto.com/places-to-visit/india/karnataka"
            ],
            "longitude": "75.7213492",
            "address": "Mallikarjuna Temple, SH135, Nelavagi, Badami taluku, Bagalkote district, Karnataka, India",
            "latitude": "15.9321101",
            "locType": "place_of_worship",
            "closest_to": "chitradurga"
        },
        "hebbe falls": {
            "blogLinks": [
                "https://en.wikipedia.org/wiki/Tourism_in_Karnataka"
            ],
            "longitude": "75.7253701",
            "address": "Hebbe falls, Kemmannagundi Road, Attigundi, Chikkamagaluru taluku, Chikkamagaluru district, Karnataka, India",
            "latitude": "13.5414025",
            "locType": "attraction",
            "closest_to": "kanakapura"
        },
        "hassan district": {
            "blogLinks": [
                "https://en.wikipedia.org/wiki/Tourism_in_Karnataka"
            ],
            "longitude": "76.1745460751981",
            "address": "Hassan district, Karnataka, India",
            "latitude": "13.0315068",
            "locType": "administrative",
            "closest_to": "kanakapura"
        },
        "mysuru": {
            "blogLinks": [
                "https://www.tripoto.com/places-to-visit/india/karnataka"
            ],
            "longitude": "76.6553609",
            "address": "Mysuru, Mysuru taluk, Mysuru district, Karnataka, 570001, India",
            "latitude": "12.3051828",
            "locType": "city",
            "closest_to": "kanakapura"
        },
        "sharavathi river": {
            "blogLinks": [
                "https://www.tripoto.com/places-to-visit/india/karnataka"
            ],
            "longitude": "77.6216184337102",
            "address": "Sharavathi Block, National Games Village Road, Ambedkar Nagar, Ejipura, Bengaluru, Bangalore Urban, Karnataka, 560001, India",
            "latitude": "12.9464709",
            "locType": "yes",
            "closest_to": "kanakapura"
        },
        "hill station": {
            "blogLinks": [
                "https://www.tripoto.com/places-to-visit/india/karnataka"
            ],
            "longitude": "75.7223521",
            "address": "Karnataka, India",
            "latitude": "14.5203896",
            "locType": "administrative",
            "closest_to": "chitradurga"
        },
        "varada": {
            "blogLinks": [
                "https://en.wikipedia.org/wiki/Tourism_in_Karnataka"
            ],
            "longitude": "75.47206",
            "address": "Varada, Savanura taluk, Haveri district, Karnataka, India",
            "latitude": "14.8717792",
            "locType": "river",
            "closest_to": "chitradurga"
        },
        "sunset point": {
            "blogLinks": [
                "https://www.tripoto.com/places-to-visit/india/karnataka"
            ],
            "longitude": "76.4594093",
            "address": "Sunset Point, Hampi Kamalapura Road, Hampe, Hosapete taluk, Bellary district, Karnataka, 583239, India",
            "latitude": "15.3326761",
            "locType": "viewpoint",
            "closest_to": "chitradurga"
        },
        "wonderla": {
            "blogLinks": [
                "https://www.thrillophilia.com/around-bangalore",
                "https://www.tripoto.com/places-to-visit/india/karnataka"
            ],
            "longitude": "77.4026822",
            "address": "Wonderla, Wonder La Road, Manchanayakanahalli, Ramanagara taluk, Ramanagara district, Karnataka, India",
            "latitude": "12.8382986",
            "locType": "bus_stop",
            "closest_to": "kanakapura"
        },
        "bellary road": {
            "blogLinks": [
                "https://www.tripoto.com/places-to-visit/india/karnataka"
            ],
            "longitude": "77.5915237",
            "address": "Bellary Road, Kanaka Nagar, Hebbal, Bengaluru, Bangalore Urban, Karnataka, 560001, India",
            "latitude": "13.0465345",
            "locType": "trunk",
            "closest_to": "kanakapura"
        },
        "yelahanka": {
            "blogLinks": [
                "http://www.distancesfrom.com/travel-from-Yelahanka-to-Chitradurga/TravelFromHistory/30575094.aspx"
            ],
            "longitude": "77.5963454",
            "address": "Yelahanka, Jakkur, Bangalore Urban, Karnataka, India",
            "latitude": "13.1006982",
            "locType": "suburb",
            "closest_to": "kanakapura"
        },
        "kalasa": {
            "blogLinks": [
                "https://en.wikipedia.org/wiki/Tourism_in_Karnataka"
            ],
            "longitude": "75.3582366",
            "address": "Kalasa, Mudigere taluk, Chikkamagaluru district, Karnataka, 577124, India",
            "latitude": "13.2322235",
            "locType": "town",
            "closest_to": "chitradurga"
        },
        "india": {
            "blogLinks": [
                "https://en.wikipedia.org/wiki/Chitradurga_district",
                "http://goindia.about.com/od/cities/tp/attractions-around-bangalore.htm",
                "http://www.mapsofindia.com/maps/karnataka/",
                "http://harishoutings.blogspot.com/2008/07/sangam-mekedatu-and-chunchi-falls.html",
                "https://www.shouut.com/guide/view/yerramaranahalli/12-places-under-200km-from-bangalore-weekend-plans-sorted/312",
                "https://en.wikipedia.org/wiki/Tourism_in_Karnataka",
                "https://www.thrillophilia.com/around-bangalore",
                "https://www.tripoto.com/weekend-getaways/from-kanakapura",
                "http://www.inditales.com/chitradurga-chandravalli-jogimatti/",
                "http://www.distancesfrom.com/travel-from-Yelahanka-to-Chitradurga/TravelFromHistory/30575094.aspx",
                "http://distancecalculator.globefeed.com/India_Distance_Calculator.asp?state=19",
                "https://www.tripoto.com/places-to-visit/india/karnataka",
                "https://www.quora.com/Which-is-the-best-place-in-Bangalore-to-spend-time-alone",
                "http://www.nivalink.com/destination/chitradurga"
            ],
            "longitude": "75.7223521",
            "address": "Karnataka, India",
            "latitude": "14.5203896",
            "locType": "administrative",
            "closest_to": "chitradurga"
        },
        "dubare elephant camp": {
            "blogLinks": [
                "https://www.tripoto.com/weekend-getaways/from-kanakapura"
            ],
            "longitude": "75.9066719",
            "address": "Dubare Elephant Camp, SH91, Dodda Bettageri, Somawarpet taluk, Kodagu, Karnataka, India",
            "latitude": "12.3716865",
            "locType": "attraction",
            "closest_to": "kanakapura"
        },
        "kuknur": {
            "blogLinks": [
                "https://en.wikipedia.org/wiki/Tourism_in_Karnataka"
            ],
            "longitude": "75.9934934",
            "address": "Kukanura, Yelaburga taluku, Koppal district, Karnataka, 583232, India",
            "latitude": "15.4902753",
            "locType": "village",
            "closest_to": "chitradurga"
        },
        "gotagodi village": {
            "blogLinks": [
                "https://en.wikipedia.org/wiki/Tourism_in_Karnataka"
            ],
            "longitude": "75.0452834",
            "address": "Gotagodi, Hanagal taluk, Haveri district, Karnataka, India",
            "latitude": "14.7634556",
            "locType": "village",
            "closest_to": "chitradurga"
        },
        "anegundi": {
            "blogLinks": [
                "https://en.wikipedia.org/wiki/Tourism_in_Karnataka"
            ],
            "longitude": "76.4924232",
            "address": "Anegundi, Gangavati taluku, Koppal district, Karnataka, India",
            "latitude": "15.3509583",
            "locType": "village",
            "closest_to": "chitradurga"
        },
        "tumkur": {
            "blogLinks": [
                "https://en.wikipedia.org/wiki/Tourism_in_Karnataka",
                "http://goindia.about.com/od/cities/tp/attractions-around-bangalore.htm",
                "https://www.tripoto.com/places-to-visit/india/karnataka"
            ],
            "longitude": "77.0002445",
            "address": "Tumakuru, Tumkur district, Karnataka, India",
            "latitude": "13.4999406",
            "locType": "county",
            "closest_to": "kanakapura"
        },
        "chandragupta maurya": {
            "blogLinks": [
                "https://www.tripoto.com/places-to-visit/india/karnataka"
            ],
            "longitude": "77.585340318101",
            "address": "Chandragupta Maurya playground, 11 Main (Sri Aurobindo Marg), Jayanagar 4th Block, Jayanagar, Bengaluru, Bangalore Urban, Karnataka, 560001, India",
            "latitude": "12.92084805",
            "locType": "pitch",
            "closest_to": "kanakapura"
        },
        "shirali": {
            "blogLinks": [
                "https://en.wikipedia.org/wiki/Tourism_in_Karnataka"
            ],
            "longitude": "74.5286591",
            "address": "Shirali, Bhatkala taluk, Uttara Kannada, Karnataka, 581354, India",
            "latitude": "14.0280925",
            "locType": "village",
            "closest_to": "chitradurga"
        },
        "gadag district": {
            "blogLinks": [
                "https://en.wikipedia.org/wiki/Tourism_in_Karnataka"
            ],
            "longitude": "75.6807542794645",
            "address": "Gadag district, Karnataka, India",
            "latitude": "15.416337",
            "locType": "administrative",
            "closest_to": "chitradurga"
        },
        "kanakpura road": {
            "blogLinks": [
                "http://harishoutings.blogspot.com/2008/07/sangam-mekedatu-and-chunchi-falls.html",
                "https://www.thrillophilia.com/around-bangalore",
                "https://www.tripoto.com/weekend-getaways/from-kanakapura"
            ],
            "longitude": "77.5438085908703",
            "address": "H 902, Mantri Tranquil, Gubbalala, Off Kanakpura Road, Bengaluru - 61, Subramanyapura Main Road, Singapore Gardens, Uttarahalli, Gubbalala, Bangalore Urban, Karnataka, 560086, India",
            "latitude": "12.8866679",
            "locType": "yes",
            "closest_to": "kanakapura"
        },
        "yagachi river": {
            "blogLinks": [
                "https://www.tripoto.com/places-to-visit/india/karnataka"
            ],
            "longitude": "75.950911",
            "address": "Yagachi, Beluru taluk, Hassan district, Karnataka, India",
            "latitude": "13.0658494",
            "locType": "river",
            "closest_to": "kanakapura"
        },
        "hosadurga taluk": {
            "blogLinks": [
                "http://www.holidayiq.com/Chitradurga-Sightseeing-650.html"
            ],
            "longitude": "77.2095258",
            "address": "Hosadurga, Pavagada taluk, Tumkur district, Karnataka, India",
            "latitude": "14.2608929",
            "locType": "village",
            "closest_to": "kanakapura"
        },
        "tungabhadra": {
            "blogLinks": [
                "https://en.wikipedia.org/wiki/Tourism_in_Karnataka"
            ],
            "longitude": "76.4931607",
            "address": "Tungabhadra, Gangavati taluku, Koppal district, Karnataka, India",
            "latitude": "15.3446123",
            "locType": "river",
            "closest_to": "chitradurga"
        },
        "mysore - mandya": {
            "blogLinks": [
                "https://www.tripoto.com/places-to-visit/india/karnataka"
            ],
            "longitude": "77.0544201",
            "address": "Mysore Road, Somanahalli, Madduru taluk, Mandya district, Karnataka, 571428, India",
            "latitude": "12.6121234",
            "locType": "trunk",
            "closest_to": "kanakapura"
        },
        "cubbon park": {
            "blogLinks": [
                "https://www.tripoto.com/places-to-visit/india/karnataka"
            ],
            "longitude": "77.5977565",
            "address": "Cubbon Park, Cubbon Road, Tasker Town, Shivajinagar, Bengaluru, Bangalore Urban, Karnataka, 560001, India",
            "latitude": "12.9808487",
            "locType": "station",
            "closest_to": "kanakapura"
        },
        "bandipur national park": {
            "blogLinks": [
                "https://www.shouut.com/guide/view/yerramaranahalli/12-places-under-200km-from-bangalore-weekend-plans-sorted/312",
                "https://en.wikipedia.org/wiki/Tourism_in_Karnataka",
                "https://www.thrillophilia.com/around-bangalore",
                "https://www.tripoto.com/places-to-visit/india/karnataka"
            ],
            "longitude": "76.4314968740264",
            "address": "Bandipur National Park, Kozhikode - Kollegal Highway, Gundlupet taluk, Chamarajanagar district, Karnataka, India",
            "latitude": "11.76682425",
            "locType": "national_park",
            "closest_to": "kanakapura"
        },
        "kapila river": {
            "blogLinks": [
                "https://www.tripoto.com/places-to-visit/india/karnataka"
            ],
            "longitude": "76.1040848",
            "address": "Kapila Road, Ravindra Nagar, PWD Colony, Hassan, Hasana taluk, Hassan district, Karnataka, 573201, India",
            "latitude": "13.016016",
            "locType": "residential",
            "closest_to": "kanakapura"
        },
        "nugu": {
            "blogLinks": [
                "https://www.tripoto.com/places-to-visit/india/karnataka"
            ],
            "longitude": "76.4213276",
            "address": "Nugu, Heggadadevanakote taluk, Mysuru district, Karnataka, India",
            "latitude": "11.8823658",
            "locType": "river",
            "closest_to": "kanakapura"
        },
        "karnataka": {
            "blogLinks": [
                "https://en.wikipedia.org/wiki/Chitradurga_district",
                "http://goindia.about.com/od/cities/tp/attractions-around-bangalore.htm",
                "http://www.mapsofindia.com/maps/karnataka/",
                "http://harishoutings.blogspot.com/2008/07/sangam-mekedatu-and-chunchi-falls.html",
                "http://www.holidayiq.com/Chitradurga-Sightseeing-650.html",
                "https://www.shouut.com/guide/view/yerramaranahalli/12-places-under-200km-from-bangalore-weekend-plans-sorted/312",
                "https://en.wikipedia.org/wiki/Tourism_in_Karnataka",
                "https://www.thrillophilia.com/around-bangalore",
                "https://www.tripoto.com/weekend-getaways/from-kanakapura",
                "http://www.inditales.com/chitradurga-chandravalli-jogimatti/",
                "http://www.distancesfrom.com/travel-from-Yelahanka-to-Chitradurga/TravelFromHistory/30575094.aspx",
                "http://distancecalculator.globefeed.com/India_Distance_Calculator.asp?state=19",
                "https://www.tripoto.com/places-to-visit/india/karnataka",
                "https://www.quora.com/Which-is-the-best-place-in-Bangalore-to-spend-time-alone",
                "http://www.nivalink.com/destination/chitradurga"
            ],
            "longitude": "76.6639936",
            "address": "Karnataka, Shalivahana Road, Nazarbad, Mysuru, Mysuru taluk, Mysuru district, Karnataka, 570001, India",
            "latitude": "12.3084901",
            "locType": "atm",
            "closest_to": "kanakapura"
        },
        "north karnataka": {
            "blogLinks": [
                "https://en.wikipedia.org/wiki/Tourism_in_Karnataka",
                "https://www.tripoto.com/places-to-visit/india/karnataka"
            ],
            "longitude": "77.7660547",
            "address": "N, Chaithanya Samarpan, Kadugodi, Kannamangala, Bangalore Urban, Karnataka, 560066, India",
            "latitude": "13.0217151",
            "locType": "service",
            "closest_to": "kanakapura"
        },
        "sangameshwara": {
            "blogLinks": [
                "https://en.wikipedia.org/wiki/Tourism_in_Karnataka"
            ],
            "longitude": "74.87651",
            "address": "Sangameshwara, Kalaghatagi taluku, Dharwad district, Karnataka, India",
            "latitude": "15.184341",
            "locType": "village",
            "closest_to": "chitradurga"
        },
        "kanakapura road": {
            "blogLinks": [
                "https://en.wikipedia.org/wiki/Tourism_in_Karnataka",
                "http://goindia.about.com/od/cities/tp/attractions-around-bangalore.htm",
                "https://www.tripoto.com/places-to-visit/india/karnataka"
            ],
            "longitude": "77.5733483",
            "address": "Kanakapura Road, Rajotsava Nagar, Kaderenahalli, Bengaluru, Bangalore Urban, Karnataka, 560001, India",
            "latitude": "12.9064528",
            "locType": "trunk",
            "closest_to": "kanakapura"
        },
        "barapole river": {
            "blogLinks": [
                "https://www.thrillophilia.com/around-bangalore"
            ],
            "longitude": "75.8218551",
            "address": "Barapole, Virajpet taluk, Kodagu, Karnataka, India",
            "latitude": "12.0738308",
            "locType": "river",
            "closest_to": "kanakapura"
        },
        "belthangadi": {
            "blogLinks": [
                "https://www.tripoto.com/places-to-visit/india/karnataka"
            ],
            "longitude": "75.2825052",
            "address": "Belthangadi, Beltangadi taluk, Dakshina Kannada, Karnataka, 574214, India",
            "latitude": "12.9903521",
            "locType": "village",
            "closest_to": "chitradurga"
        },
        "mumbai": {
            "blogLinks": [
                "https://www.tripoto.com/places-to-visit/india/karnataka"
            ],
            "longitude": "77.5718472",
            "address": "Mumbai Spice, 18/2, 10th Cross, Malleswaram, Vyalikaval, Malleswaram, Bengaluru, Bangalore Urban, Karnataka, 560003, India",
            "latitude": "13.0002869",
            "locType": "restaurant",
            "closest_to": "kanakapura"
        },
        "kunti betta": {
            "blogLinks": [
                "https://www.quora.com/Which-is-the-best-place-in-Bangalore-to-spend-time-alone",
                "https://www.thrillophilia.com/around-bangalore",
                "https://www.tripoto.com/places-to-visit/india/karnataka"
            ],
            "longitude": "76.6982646",
            "address": "Kunti Betta, Pandavapura taluk, Mandya district, Karnataka, India",
            "latitude": "12.5082433",
            "locType": "peak",
            "closest_to": "kanakapura"
        },
        "ritz carlton": {
            "blogLinks": [
                "https://www.tripoto.com/places-to-visit/india/karnataka"
            ],
            "longitude": "77.6015963682898",
            "address": "Ritz Carlton, FM Cariappa Road (Residency Road), Shantala Nagar, MacIvor Town, Bengaluru, Bangalore Urban, Karnataka, 560001, India",
            "latitude": "12.9677378",
            "locType": "hotel",
            "closest_to": "kanakapura"
        },
        "bheemeshwari": {
            "blogLinks": [
                "https://en.wikipedia.org/wiki/Tourism_in_Karnataka",
                "https://www.quora.com/Which-is-the-best-place-in-Bangalore-to-spend-time-alone"
            ],
            "longitude": "77.2778171",
            "address": "Bheemeshwari, Muttatti, Malavalli taluk, Mandya district, Karnataka, India",
            "latitude": "12.3124122",
            "locType": "locality",
            "closest_to": "kanakapura"
        },
        "kodagu district of karnataka": {
            "blogLinks": [
                "https://www.tripoto.com/places-to-visit/india/karnataka"
            ],
            "longitude": "76.2818865",
            "address": "Kodagu Kaloni, Hunasuru taluk, Mysuru district, Karnataka, India",
            "latitude": "12.2335192",
            "locType": "village",
            "closest_to": "kanakapura"
        },
        "summer palace": {
            "blogLinks": [
                "https://www.tripoto.com/places-to-visit/india/karnataka"
            ],
            "longitude": "77.5736841970666",
            "address": "Tippu's Summer Palace, A V Road, Ranasingpet, Kalasipalya, Bengaluru, Bangalore Urban, Karnataka, 560 002, India",
            "latitude": "12.95964655",
            "locType": "attraction",
            "closest_to": "kanakapura"
        },
        "vitthala": {
            "blogLinks": [
                "https://www.tripoto.com/places-to-visit/india/karnataka"
            ],
            "longitude": "76.4705005",
            "address": "Way to Vitthala Temple, Hampe, Hosapete taluk, Bellary district, Karnataka, 583239, India",
            "latitude": "15.3376716",
            "locType": "footway",
            "closest_to": "chitradurga"
        },
        "shimoga district": {
            "blogLinks": [
                "https://en.wikipedia.org/wiki/Tourism_in_Karnataka"
            ],
            "longitude": "75.1312533993886",
            "address": "Shimoga district, Karnataka, India",
            "latitude": "14.0558284",
            "locType": "administrative",
            "closest_to": "chitradurga"
        },
        "northern karnataka": {
            "blogLinks": [
                "https://www.tripoto.com/places-to-visit/india/karnataka"
            ],
            "longitude": "77.6804678",
            "address": "Northern Operating  Services Pvt Ltd, RMZ Ecospace, Internal Rd, RMZ Ecospace, Bellandur, Doddakannelli, Bangalore Urban, Karnataka, 560037, India",
            "latitude": "12.9257442",
            "locType": "company",
            "closest_to": "kanakapura"
        },
        "hemakuta hill": {
            "blogLinks": [
                "https://www.tripoto.com/places-to-visit/india/karnataka"
            ],
            "longitude": "76.4602971",
            "address": "Hemakuta Hill, Hosapete taluk, Bellary district, Karnataka, India",
            "latitude": "15.332915",
            "locType": "peak",
            "closest_to": "chitradurga"
        },
        "baker street": {
            "blogLinks": [
                "https://www.tripoto.com/weekend-getaways/from-kanakapura"
            ],
            "longitude": "77.5859336",
            "address": "Donut Baker, 24th Main, K R Layout, Puttenahalli, Bengaluru, Bangalore Urban, Karnataka, 560001, India",
            "latitude": "12.899527",
            "locType": "bakery",
            "closest_to": "kanakapura"
        },
        "hanuman temple": {
            "blogLinks": [
                "https://www.tripoto.com/places-to-visit/india/karnataka"
            ],
            "longitude": "77.5273276",
            "address": "Hanuman Temple, 1st Cross Road, MEI Colony, Peenya, Bengaluru, Bangalore Urban, Karnataka, 560001, India",
            "latitude": "13.0343487",
            "locType": "place_of_worship",
            "closest_to": "kanakapura"
        },
        "maravanthe": {
            "blogLinks": [
                "https://www.tripoto.com/places-to-visit/india/karnataka"
            ],
            "longitude": "74.6480358",
            "address": "Nethaji Subhash Chandra Bose Government High School, Maravanthe, NH66, Navunda, \u0c95\u0cc1\u0c82\u0ca6\u0cbe\u0caa\u0cc1\u0cb0 \u0ca4\u0cbe\u0cb2\u0cc2\u0c95\u0cc1, Udupi district, Karnataka, 576224, India",
            "latitude": "13.7316626",
            "locType": "school",
            "closest_to": "chitradurga"
        },
        "kanva reservoir": {
            "blogLinks": [
                "https://www.tripoto.com/places-to-visit/india/karnataka"
            ],
            "longitude": "77.2039784730662",
            "address": "Kanva Reservoir, Chamanahalli, Ramanagara taluk, Ramanagara district, Karnataka, India",
            "latitude": "12.73575",
            "locType": "reservoir",
            "closest_to": "kanakapura"
        },
        "rain-tree": {
            "blogLinks": [
                "https://www.tripoto.com/weekend-getaways/from-kanakapura",
                "https://www.tripoto.com/places-to-visit/india/karnataka"
            ],
            "longitude": "77.6414765",
            "address": "Rain Tree, 3rd Main Road, Defence Colony, Hoysala Nagar, Bengaluru, Bangalore Urban, Karnataka, 560001, India",
            "latitude": "12.9757365",
            "locType": "tree",
            "closest_to": "kanakapura"
        },
        "holalkere": {
            "blogLinks": [
                "https://en.wikipedia.org/wiki/Chitradurga_district"
            ],
            "longitude": "76.1830578",
            "address": "Holalkere, Holalkere taluk, Chitradurga district, Karnataka, 577526, India",
            "latitude": "14.0424479",
            "locType": "town",
            "closest_to": "kanakapura"
        },
        "chelavara": {
            "blogLinks": [
                "https://www.quora.com/Which-is-the-best-place-in-Bangalore-to-spend-time-alone"
            ],
            "longitude": "75.6734811730693",
            "address": "Chelavara Falls, Madikeri taluku, Kodagu, Karnataka, India",
            "latitude": "12.20601005",
            "locType": "waterfall",
            "closest_to": "kanakapura"
        },
        "sri krishna temple": {
            "blogLinks": [
                "https://www.tripoto.com/places-to-visit/india/karnataka"
            ],
            "longitude": "77.6437236",
            "address": "Sri Krishna Temple Road, Old Binnamangala, Hoysala Nagar, Bengaluru, Bangalore Urban, Karnataka, 560001, India",
            "latitude": "12.9791699",
            "locType": "unclassified",
            "closest_to": "kanakapura"
        },
        "bharamagiri": {
            "blogLinks": [
                "https://en.wikipedia.org/wiki/Chitradurga_district"
            ],
            "longitude": "76.4993709",
            "address": "Bharamagiri, Hiriyuru taluk, Chitradurga district, Karnataka, India",
            "latitude": "13.9288556",
            "locType": "village",
            "closest_to": "kanakapura"
        },
        "koppal district": {
            "blogLinks": [
                "https://en.wikipedia.org/wiki/Tourism_in_Karnataka"
            ],
            "longitude": "76.310639117029",
            "address": "Koppal district, Karnataka, India",
            "latitude": "15.57825725",
            "locType": "administrative",
            "closest_to": "chitradurga"
        },
        "talakaveri": {
            "blogLinks": [
                "https://www.tripoto.com/places-to-visit/india/karnataka"
            ],
            "longitude": "75.4930074",
            "address": "Talakaveri, Madikeri taluku, Kodagu, Karnataka, India",
            "latitude": "12.3858456",
            "locType": "hamlet",
            "closest_to": "kanakapura"
        },
        "kabini": {
            "blogLinks": [
                "https://en.wikipedia.org/wiki/Tourism_in_Karnataka",
                "https://www.tripoto.com/places-to-visit/india/karnataka"
            ],
            "longitude": "76.4152088",
            "address": "Kabini, Heggadadevanakote taluk, Mysuru district, Karnataka, India",
            "latitude": "12.0140065",
            "locType": "river",
            "closest_to": "kanakapura"
        },
        "bankpur fort": {
            "blogLinks": [
                "https://en.wikipedia.org/wiki/Tourism_in_Karnataka"
            ],
            "longitude": "75.2512090188504",
            "address": "Bankapura Fort, SH137, Guddada Channapura, Shiggaon taluk, Haveri district, Karnataka, 581202, India",
            "latitude": "14.9231815",
            "locType": "archaeological_site",
            "closest_to": "chitradurga"
        },
        "river tungabhadra": {
            "blogLinks": [
                "https://www.tripoto.com/places-to-visit/india/karnataka"
            ],
            "longitude": "76.4931607",
            "address": "Tungabhadra, Gangavati taluku, Koppal district, Karnataka, India",
            "latitude": "15.3446123",
            "locType": "river",
            "closest_to": "chitradurga"
        },
        "mirjan fort": {
            "blogLinks": [
                "https://www.thrillophilia.com/around-bangalore"
            ],
            "longitude": "74.4174838158512",
            "address": "Mirjana Fort, Edapally- Panvel Highway, Kimani, Kumata taluk, Uttara Kannada, Karnataka, 581344, India",
            "latitude": "14.48905715",
            "locType": "attraction",
            "closest_to": "chitradurga"
        },
        "mandya": {
            "blogLinks": [
                "https://en.wikipedia.org/wiki/Tourism_in_Karnataka",
                "https://www.tripoto.com/weekend-getaways/from-kanakapura",
                "http://www.mapsofindia.com/maps/karnataka/",
                "https://www.tripoto.com/places-to-visit/india/karnataka"
            ],
            "longitude": "76.8937392",
            "address": "Mandya, Mandya taluk, Mandya district, Karnataka, 571401, India",
            "latitude": "12.5217836",
            "locType": "town",
            "closest_to": "kanakapura"
        },
        "durga temple": {
            "blogLinks": [
                "https://www.tripoto.com/places-to-visit/india/karnataka"
            ],
            "longitude": "77.6125928",
            "address": "Durga Temple, 29th Main, Mahadeshwara Nagara, BTM Layout, Bengaluru, Bangalore Urban, Karnataka, 560001, India",
            "latitude": "12.9057731",
            "locType": "place_of_worship",
            "closest_to": "kanakapura"
        },
        "karnataka state": {
            "blogLinks": [
                "https://www.tripoto.com/places-to-visit/india/karnataka"
            ],
            "longitude": "76.6236231",
            "address": "Karnataka State Open University, \u0cb9\u0cc1\u0ca3\u0cb8\u0cc2\u0cb0\u0cc1 \u0cb0\u0cb8\u0ccd\u0ca4\u0cc6, Gokulam, Mysuru, Mysuru taluk, Mysuru district, Karnataka, 570001, India",
            "latitude": "12.315382",
            "locType": "university",
            "closest_to": "kanakapura"
        },
        "iruppu waterfalls": {
            "blogLinks": [
                "https://www.tripoto.com/places-to-visit/india/karnataka"
            ],
            "longitude": "75.9839484",
            "address": "Iruppu Falls, Virajpet taluk, Kodagu, Karnataka, India",
            "latitude": "11.9667954",
            "locType": "waterfall",
            "closest_to": "kanakapura"
        },
        "kukkarahalli lake": {
            "blogLinks": [
                "https://www.tripoto.com/places-to-visit/india/karnataka"
            ],
            "longitude": "76.6304982433348",
            "address": "Kukkarahalli Kere, Bogadi Road, Sarasvatipuram, Mysuru, Mysuru taluk, Mysuru district, Karnataka, 570001, India",
            "latitude": "12.3103805",
            "locType": "water",
            "closest_to": "kanakapura"
        },
        "kaveri": {
            "blogLinks": [
                "https://en.wikipedia.org/wiki/Tourism_in_Karnataka",
                "https://www.quora.com/Which-is-the-best-place-in-Bangalore-to-spend-time-alone",
                "https://www.tripoto.com/places-to-visit/india/karnataka"
            ],
            "longitude": "77.0635531",
            "address": "Kaveri, Kollegala taluk, Chamarajanagar district, Karnataka, India",
            "latitude": "12.1687878",
            "locType": "river",
            "closest_to": "kanakapura"
        },
        "dattatreya": {
            "blogLinks": [
                "https://en.wikipedia.org/wiki/Tourism_in_Karnataka"
            ],
            "longitude": "75.7539724",
            "address": "Inam Dattatreya Pitha, Chikkamagaluru taluku, Chikkamagaluru district, Karnataka, India",
            "latitude": "13.4315216",
            "locType": "hamlet",
            "closest_to": "kanakapura"
        },
        "ooty lake": {
            "blogLinks": [
                "https://www.tripoto.com/weekend-getaways/from-kanakapura"
            ],
            "longitude": "76.6586807",
            "address": "Ooty Road, Vidyaranyapuram, Mysuru, Mysuru taluk, Mysuru district, Karnataka, 570001, India",
            "latitude": "12.2774807",
            "locType": "primary",
            "closest_to": "kanakapura"
        },
        "narasimha swamy temple": {
            "blogLinks": [
                "https://en.wikipedia.org/wiki/Tourism_in_Karnataka"
            ],
            "longitude": "76.2427318",
            "address": "Narasimha Swamy Temple, Attavara Mudigere Road, Attavara, Hasana taluk, Hassan district, Karnataka, India",
            "latitude": "13.0943931",
            "locType": "place_of_worship",
            "closest_to": "kanakapura"
        },
        "goa karnataka": {
            "blogLinks": [
                "https://www.tripoto.com/places-to-visit/india/karnataka"
            ],
            "longitude": "77.6200027",
            "address": "Carnival De Goa, Bhaskaran Road, Gupta Layout, Halasuru, Bengaluru, Bangalore Urban, Karnataka, 560001, India",
            "latitude": "12.9750047",
            "locType": "restaurant",
            "closest_to": "kanakapura"
        },
        "river cauvery": {
            "blogLinks": [
                "https://www.tripoto.com/places-to-visit/india/karnataka"
            ],
            "longitude": "77.5832796015599",
            "address": "Cauvery, 1st Main Road, Lower Palace Orchard, Guttahalli, Bengaluru, Bangalore Urban, Karnataka, 560001, India",
            "latitude": "13.00262215",
            "locType": "cinema",
            "closest_to": "kanakapura"
        },
        "shivaganga": {
            "blogLinks": [
                "http://goindia.about.com/od/cities/tp/attractions-around-bangalore.htm"
            ],
            "longitude": "76.2510807",
            "address": "Shivaganga, Holalkere taluk, Chitradurga district, Karnataka, India",
            "latitude": "14.0791346",
            "locType": "village",
            "closest_to": "kanakapura"
        },
        "old madras road": {
            "blogLinks": [
                "https://www.tripoto.com/places-to-visit/india/karnataka"
            ],
            "longitude": "77.689988",
            "address": "Old Madras Road, Devasandra, ITI Colony, Garudacharpalya, Bangalore Urban, Karnataka, 560048, India",
            "latitude": "13.0076952",
            "locType": "trunk",
            "closest_to": "kanakapura"
        },
        "mangalore international airport": {
            "blogLinks": [
                "https://www.tripoto.com/weekend-getaways/from-kanakapura"
            ],
            "longitude": "74.887492668144",
            "address": "Mangalore International Airport, Airport Entry Road, Gandhinagar, Kenjar, Mangaluru taluk, Dakshina Kannada, Karnataka, 575015, India",
            "latitude": "12.95518575",
            "locType": "aerodrome",
            "closest_to": "chitradurga"
        },
        "urban valley": {
            "blogLinks": [
                "https://www.thrillophilia.com/around-bangalore"
            ],
            "longitude": "77.5536449997113",
            "address": "Bangalore Urban, Karnataka, India",
            "latitude": "12.94514225",
            "locType": "administrative",
            "closest_to": "kanakapura"
        },
        "uttara kannada": {
            "blogLinks": [
                "https://en.wikipedia.org/wiki/Tourism_in_Karnataka",
                "http://www.onefivenine.com/india/Travel/Place/Chitradurga"
            ],
            "longitude": "74.4729163045979",
            "address": "Uttara Kannada, Karnataka, India",
            "latitude": "14.6726379",
            "locType": "administrative",
            "closest_to": "chitradurga"
        },
        "devanahalli": {
            "blogLinks": [
                "https://www.quora.com/Which-is-the-best-place-in-Bangalore-to-spend-time-alone"
            ],
            "longitude": "77.7134377",
            "address": "Devanahalli, Devanahalli taluk, Bangalore Rural, Karnataka, India",
            "latitude": "13.2483502",
            "locType": "town",
            "closest_to": "kanakapura"
        },
        "belavadi": {
            "blogLinks": [
                "https://en.wikipedia.org/wiki/Tourism_in_Karnataka"
            ],
            "longitude": "75.3760773",
            "address": "Belavadi, Koppa taluk, Chikkamagaluru district, Karnataka, India",
            "latitude": "13.5284899",
            "locType": "village",
            "closest_to": "chitradurga"
        },
        "gundulpet": {
            "blogLinks": [
                "https://www.tripoto.com/places-to-visit/india/karnataka"
            ],
            "longitude": "76.6916141",
            "address": "Gundlupet, Gundlupet taluk, Chamarajanagar district, Karnataka, 571111, India",
            "latitude": "11.808496",
            "locType": "town",
            "closest_to": "kanakapura"
        },
        "haveri district": {
            "blogLinks": [
                "https://en.wikipedia.org/wiki/Tourism_in_Karnataka"
            ],
            "longitude": "75.3845674304742",
            "address": "Haveri district, Karnataka, India",
            "latitude": "14.714635",
            "locType": "administrative",
            "closest_to": "chitradurga"
        },
        "manjusha museum": {
            "blogLinks": [
                "https://en.wikipedia.org/wiki/Tourism_in_Karnataka"
            ],
            "longitude": "75.3821342838196",
            "address": "Manjusha Museum, SH37, Dharmasthala, Beltangadi taluk, Dakshina Kannada, Karnataka, 574216, India",
            "latitude": "12.95116975",
            "locType": "museum",
            "closest_to": "chitradurga"
        },
        "district of chikmagalur": {
            "blogLinks": [
                "https://www.tripoto.com/places-to-visit/india/karnataka"
            ],
            "longitude": "75.7739538645039",
            "address": "District Treasury Office, SH57, Palu mane, Santaveri, Tarikere taluku, Chikkamagaluru district, Karnataka, 577137, India",
            "latitude": "13.3260288",
            "locType": "government",
            "closest_to": "kanakapura"
        },
        "arasikere": {
            "blogLinks": [
                "https://en.wikipedia.org/wiki/Tourism_in_Karnataka"
            ],
            "longitude": "76.2568436",
            "address": "Arasikere, Arasikere taluku, Hassan district, Karnataka, 573103, India",
            "latitude": "13.3159809",
            "locType": "town",
            "closest_to": "kanakapura"
        },
        "kudremukh national park": {
            "blogLinks": [
                "https://en.wikipedia.org/wiki/Tourism_in_Karnataka",
                "https://www.tripoto.com/places-to-visit/india/karnataka"
            ],
            "longitude": "75.1828713712862",
            "address": "Kudremukh National Park, SH66, Sringeri taluku, Chikkamagaluru district, Karnataka, India",
            "latitude": "13.25397485",
            "locType": "national_park",
            "closest_to": "chitradurga"
        },
        "east": {
            "blogLinks": [
                "https://en.wikipedia.org/wiki/Tourism_in_Karnataka"
            ],
            "longitude": "77.6601401",
            "address": "East, 43, Velankani Drive, Electronics City Phase 1, Doddathoguru, Bangalore Urban, Karnataka, 560100, India",
            "latitude": "12.8504319",
            "locType": "restaurant",
            "closest_to": "kanakapura"
        },
        "karnatka": {
            "blogLinks": [
                "https://www.tripoto.com/places-to-visit/india/karnataka"
            ],
            "longitude": "77.5679508",
            "address": "Karnatka Rajya Kaigarika Sahakari Bank, Bull Temple Road, Mavalli, Chamarajapete, Bengaluru, Bangalore Urban, Karnataka, 560001, India",
            "latitude": "12.9500847",
            "locType": "bank",
            "closest_to": "kanakapura"
        },
        "tibet": {
            "blogLinks": [
                "https://www.tripoto.com/places-to-visit/india/karnataka"
            ],
            "longitude": "77.6068828",
            "address": "Tibet Bazaar, Brigade Road, Tasker Town, Ashok Nagar, Bengaluru, Bangalore Urban, Karnataka, 560001, India",
            "latitude": "12.9722398",
            "locType": "supermarket",
            "closest_to": "kanakapura"
        },
        "lalbagh rock": {
            "blogLinks": [
                "https://www.tripoto.com/places-to-visit/india/karnataka"
            ],
            "longitude": "77.5892075522266",
            "address": "Lalbagh Rock, Siddapura Road, Mavalli, Someshwaranagar, Bengaluru, Bangalore Urban, Karnataka, 560001, India",
            "latitude": "12.94871895",
            "locType": "bare_rock",
            "closest_to": "kanakapura"
        },
        "lakshmana tirtha falls": {
            "blogLinks": [
                "https://www.tripoto.com/places-to-visit/india/karnataka"
            ],
            "longitude": "75.9839484",
            "address": "Iruppu Falls, SH89, Taila, Virajpet taluk, Kodagu, Karnataka, 571217, India",
            "latitude": "11.9667954",
            "locType": "attraction",
            "closest_to": "kanakapura"
        },
        "tungabadhra river": {
            "blogLinks": [
                "https://www.tripoto.com/places-to-visit/india/karnataka"
            ],
            "longitude": "76.3337165",
            "address": "Tungabadhra Dam, Hosapete taluk, Bellary district, Karnataka, India",
            "latitude": "15.2635742",
            "locType": "dam",
            "closest_to": "chitradurga"
        },
        "bangalore": {
            "blogLinks": [
                "https://en.wikipedia.org/wiki/Chitradurga_district",
                "http://goindia.about.com/od/cities/tp/attractions-around-bangalore.htm",
                "http://www.mapsofindia.com/maps/karnataka/",
                "http://harishoutings.blogspot.com/2008/07/sangam-mekedatu-and-chunchi-falls.html",
                "https://www.shouut.com/guide/view/yerramaranahalli/12-places-under-200km-from-bangalore-weekend-plans-sorted/312",
                "https://en.wikipedia.org/wiki/Tourism_in_Karnataka",
                "http://www.mouthshut.com/review/Chitradurga-review-rtsmpumlmom",
                "https://www.thrillophilia.com/around-bangalore",
                "https://www.tripoto.com/weekend-getaways/from-kanakapura",
                "http://www.inditales.com/chitradurga-chandravalli-jogimatti/",
                "https://www.tripoto.com/places-to-visit/india/karnataka",
                "https://www.quora.com/Which-is-the-best-place-in-Bangalore-to-spend-time-alone",
                "http://www.nivalink.com/destination/chitradurga"
            ],
            "longitude": "77.5912997",
            "address": "Bengaluru, Bangalore Urban, Karnataka, 560001, India",
            "latitude": "12.9791198",
            "locType": "city",
            "closest_to": "kanakapura"
        },
        "kudremukh": {
            "blogLinks": [
                "https://www.tripoto.com/places-to-visit/india/karnataka"
            ],
            "longitude": "75.2523304",
            "address": "Kudremukha, Mudigere taluk, Chikkamagaluru district, Karnataka, India",
            "latitude": "13.2144007",
            "locType": "village",
            "closest_to": "chitradurga"
        },
        "pyramid valley": {
            "blogLinks": [
                "https://www.tripoto.com/places-to-visit/india/karnataka"
            ],
            "longitude": "77.4934813",
            "address": "Pyramid Valley International, Kanakapura Road, Vaderahalli, Kanakapura taluk, Ramanagara district, Karnataka, India",
            "latitude": "12.7001678",
            "locType": "attraction",
            "closest_to": "kanakapura"
        },
        "karantaka": {
            "blogLinks": [
                "https://www.tripoto.com/places-to-visit/india/karnataka"
            ],
            "longitude": "75.9173315988071",
            "address": "OBG & Paediatrics Block, Shamanur Road, K.T. Jambanna Nagara, Davanagere, Davanagere taluku, Davanagere district, Karnataka, 577004, India",
            "latitude": "14.45753495",
            "locType": "hospital",
            "closest_to": "chitradurga"
        },
        "savandurga": {
            "blogLinks": [
                "https://www.quora.com/Which-is-the-best-place-in-Bangalore-to-spend-time-alone"
            ],
            "longitude": "77.2977719",
            "address": "Savandurga, Magadi taluku, Ramanagara district, Karnataka, India",
            "latitude": "12.9159605",
            "locType": "village",
            "closest_to": "kanakapura"
        },
        "nadu": {
            "blogLinks": [
                "https://www.tripoto.com/places-to-visit/india/karnataka"
            ],
            "longitude": "77.6163313",
            "address": "Tamil Nadu Marcantile Bank, Mahatma Gandhi Road, Gowthampuram, Ashok Nagar, Bengaluru, Bangalore Urban, Karnataka, 560001, India",
            "latitude": "12.9734064",
            "locType": "bank",
            "closest_to": "kanakapura"
        },
        "bhoga nandeeshwara temple": {
            "blogLinks": [
                "http://goindia.about.com/od/cities/tp/attractions-around-bangalore.htm"
            ],
            "longitude": "77.6981219363524",
            "address": "Bhoga Nandeeshwara Temple, SH74, Sultanapete, Chikkaballapura taluk, Chikkaballapura district, Karnataka, India",
            "latitude": "13.3867543",
            "locType": "place_of_worship",
            "closest_to": "kanakapura"
        },
        "hemavati": {
            "blogLinks": [
                "https://www.tripoto.com/places-to-visit/india/karnataka"
            ],
            "longitude": "76.0723187",
            "address": "Hemavati, Hasana taluk, Hassan district, Karnataka, India",
            "latitude": "12.8179996",
            "locType": "river",
            "closest_to": "kanakapura"
        },
        "mysore city": {
            "blogLinks": [
                "https://www.tripoto.com/places-to-visit/india/karnataka"
            ],
            "longitude": "76.6553609",
            "address": "Mysuru, Mysuru taluk, Mysuru district, Karnataka, 570001, India",
            "latitude": "12.3051828",
            "locType": "city",
            "closest_to": "kanakapura"
        },
        "kamala": {
            "blogLinks": [
                "https://en.wikipedia.org/wiki/Tourism_in_Karnataka"
            ],
            "longitude": "77.5664867",
            "address": "Kamala Nehru Patashala (Emmanual English School), 5th A Cross Road, Yediyur, Thyagaraja Nagar, Bengaluru, Bangalore Urban, Karnataka, 560001, India",
            "latitude": "12.9339482",
            "locType": "school",
            "closest_to": "kanakapura"
        },
        "virajpet": {
            "blogLinks": [
                "https://www.tripoto.com/places-to-visit/india/karnataka"
            ],
            "longitude": "75.8033421",
            "address": "Virajpet, Virajpet taluk, Kodagu, Karnataka, 571218, India",
            "latitude": "12.1972711",
            "locType": "town",
            "closest_to": "kanakapura"
        },
        "railway station": {
            "blogLinks": [
                "https://www.tripoto.com/weekend-getaways/from-kanakapura"
            ],
            "longitude": "77.515738",
            "address": "Railway Station, Gauribidanuru taluk, Chikkaballapura district, Karnataka, India",
            "latitude": "13.5029417",
            "locType": "village",
            "closest_to": "kanakapura"
        },
        "river kaveri": {
            "blogLinks": [
                "https://www.tripoto.com/weekend-getaways/from-kanakapura",
                "http://goindia.about.com/od/cities/tp/attractions-around-bangalore.htm",
                "https://www.tripoto.com/places-to-visit/india/karnataka"
            ],
            "longitude": "77.0635531",
            "address": "Kaveri, Kollegala taluk, Chamarajanagar district, Karnataka, India",
            "latitude": "12.1687878",
            "locType": "river",
            "closest_to": "kanakapura"
        },
        "linganamakki dam": {
            "blogLinks": [
                "https://www.tripoto.com/places-to-visit/india/karnataka"
            ],
            "longitude": "74.8464623767123",
            "address": "Linganamakki Dam, Sagara taluk, Shimoga district, Karnataka, India",
            "latitude": "14.1758978",
            "locType": "dam",
            "closest_to": "chitradurga"
        },
        "kanakpura": {
            "blogLinks": [
                "http://harishoutings.blogspot.com/2008/07/sangam-mekedatu-and-chunchi-falls.html",
                "https://www.thrillophilia.com/around-bangalore"
            ],
            "longitude": "77.5438085908703",
            "address": "H 902, Mantri Tranquil, Gubbalala, Off Kanakpura Road, Bengaluru - 61, Subramanyapura Main Road, Singapore Gardens, Uttarahalli, Gubbalala, Bangalore Urban, Karnataka, 560086, India",
            "latitude": "12.8866679",
            "locType": "yes",
            "closest_to": "kanakapura"
        },
        "science park": {
            "blogLinks": [
                "https://www.quora.com/Which-is-the-best-place-in-Bangalore-to-spend-time-alone"
            ],
            "longitude": "77.5899473497951",
            "address": "Science Park, Musical Fountain Road, Chakravarty Layout, Vasantnagar, Bengaluru, Bangalore Urban, Karnataka, 560001, India",
            "latitude": "12.9846548",
            "locType": "playground",
            "closest_to": "kanakapura"
        },
        "amruth sarovar lake": {
            "blogLinks": [
                "https://www.tripoto.com/places-to-visit/india/karnataka"
            ],
            "longitude": "77.6809602980907",
            "address": "Amruth Sarovar, Sultanapete, Chikkaballapura taluk, Chikkaballapura district, Karnataka, India",
            "latitude": "13.3711828",
            "locType": "reservoir",
            "closest_to": "kanakapura"
        },
        "haveri": {
            "blogLinks": [
                "https://en.wikipedia.org/wiki/Tourism_in_Karnataka",
                "http://www.mapsofindia.com/maps/karnataka/"
            ],
            "longitude": "75.3996731",
            "address": "Haveri, Haveri taluku, Haveri district, Karnataka, 581110, India",
            "latitude": "14.7874825",
            "locType": "town",
            "closest_to": "chitradurga"
        },
        "omkareshwara temple": {
            "blogLinks": [
                "https://www.tripoto.com/weekend-getaways/from-kanakapura",
                "https://www.tripoto.com/places-to-visit/india/karnataka"
            ],
            "longitude": "75.741304",
            "address": "Omkareshwara Temple, Main Road, Madikeri, Madikeri taluku, Kodagu, Karnataka, India",
            "latitude": "12.420546",
            "locType": "place_of_worship",
            "closest_to": "kanakapura"
        },
        "vaderahalli lake": {
            "blogLinks": [
                "https://www.tripoto.com/places-to-visit/india/karnataka"
            ],
            "longitude": "76.1593344",
            "address": "Ujjappa Vaderahalli, Jagaluru taluku, Davanagere district, Karnataka, India",
            "latitude": "14.6149749",
            "locType": "village",
            "closest_to": "chitradurga"
        },
        "shimoga": {
            "blogLinks": [
                "https://en.wikipedia.org/wiki/Tourism_in_Karnataka"
            ],
            "longitude": "75.569737",
            "address": "Shivamogga, Shivamogga taluku, Shimoga district, Karnataka, 577200, India",
            "latitude": "13.9311723",
            "locType": "city",
            "closest_to": "chitradurga"
        },
        "vishnu": {
            "blogLinks": [
                "https://en.wikipedia.org/wiki/Tourism_in_Karnataka"
            ],
            "longitude": "77.7198022157059",
            "address": "Vishnu Residency Apartments, Thubarahalli, Siddapura, Bangalore Urban, Karnataka, 560066, India",
            "latitude": "12.95388635",
            "locType": "residential",
            "closest_to": "kanakapura"
        },
        "kumta": {
            "blogLinks": [
                "https://en.wikipedia.org/wiki/Tourism_in_Karnataka"
            ],
            "longitude": "74.4107617",
            "address": "Kumta, Kumata taluk, Uttara Kannada, Karnataka, India",
            "latitude": "14.4261647",
            "locType": "town",
            "closest_to": "chitradurga"
        },
        "bababudan range": {
            "blogLinks": [
                "https://www.tripoto.com/places-to-visit/india/karnataka"
            ],
            "longitude": "75.7606996",
            "address": "Baba Budangiri, Chikkamagaluru, Chikkamagaluru taluku, Chikkamagaluru district, Karnataka, 577101, India",
            "latitude": "13.4210884",
            "locType": "peak",
            "closest_to": "kanakapura"
        },
        "mysore district": {
            "blogLinks": [
                "https://en.wikipedia.org/wiki/Tourism_in_Karnataka",
                "https://www.tripoto.com/places-to-visit/india/karnataka"
            ],
            "longitude": "76.6553609",
            "address": "Mysuru, Mysuru taluk, Mysuru district, Karnataka, 570001, India",
            "latitude": "12.3051828",
            "locType": "city",
            "closest_to": "kanakapura"
        },
        "tumkur district": {
            "blogLinks": [
                "https://en.wikipedia.org/wiki/Chitradurga_district"
            ],
            "longitude": "76.8817530420764",
            "address": "Tumkur district, Karnataka, India",
            "latitude": "13.4176169",
            "locType": "administrative",
            "closest_to": "kanakapura"
        },
        "kodachadri": {
            "blogLinks": [
                "https://en.wikipedia.org/wiki/Tourism_in_Karnataka",
                "https://www.thrillophilia.com/around-bangalore"
            ],
            "longitude": "74.8705395",
            "address": "Kodachadri, \u0c95\u0cc1\u0c82\u0ca6\u0cbe\u0caa\u0cc1\u0cb0 \u0ca4\u0cbe\u0cb2\u0cc2\u0c95\u0cc1, Udupi district, Karnataka, India",
            "latitude": "13.8565758",
            "locType": "peak",
            "closest_to": "chitradurga"
        },
        "pushpagiri": {
            "blogLinks": [
                "https://www.tripoto.com/places-to-visit/india/karnataka"
            ],
            "longitude": "77.5333268",
            "address": "Pushpagiri Nagar, Bengaluru, Bangalore Urban, Karnataka, 560001, India",
            "latitude": "12.9297622",
            "locType": "locality",
            "closest_to": "kanakapura"
        },
        "bahubali": {
            "blogLinks": [
                "https://en.wikipedia.org/wiki/Tourism_in_Karnataka"
            ],
            "longitude": "76.4846128",
            "address": "Bahubali Statue, SH8, Shravanabelagola, Channarayapattana taluk, Hassan district, Karnataka, 573135, India",
            "latitude": "12.8540505",
            "locType": "place_of_worship",
            "closest_to": "kanakapura"
        },
        "trikuteshwara": {
            "blogLinks": [
                "https://www.tripoto.com/places-to-visit/india/karnataka"
            ],
            "longitude": "75.6267663445114",
            "address": "Trikuteshwara Temple\u200e, SH6, Betageri, Gadag, Gadag taluk, Gadag district, Karnataka, 582102, India",
            "latitude": "15.42449145",
            "locType": "place_of_worship",
            "closest_to": "chitradurga"
        },
        "melukote": {
            "blogLinks": [
                "https://www.tripoto.com/places-to-visit/india/karnataka"
            ],
            "longitude": "76.6482937",
            "address": "Melukote, Pandavapura taluk, Mandya district, Karnataka, India",
            "latitude": "12.6739352",
            "locType": "village",
            "closest_to": "kanakapura"
        },
        "siddheshwara": {
            "blogLinks": [
                "https://en.wikipedia.org/wiki/Tourism_in_Karnataka"
            ],
            "longitude": "77.5876527",
            "address": "Siddheshwara Medicals, Judicial Layout, Allalasandra, Bangalore, 7th Main Road, Judicial Layout, Bengaluru, Bangalore Urban, Karnataka, 560001, India",
            "latitude": "13.0797146",
            "locType": "pharmacy",
            "closest_to": "kanakapura"
        },
        "bhatkal": {
            "blogLinks": [
                "https://en.wikipedia.org/wiki/Tourism_in_Karnataka"
            ],
            "longitude": "74.5485295",
            "address": "Bhatkal, Bhatkala taluk, Uttara Kannada, Karnataka, 581320, India",
            "latitude": "13.9952114",
            "locType": "town",
            "closest_to": "chitradurga"
        },
        "mysore lake": {
            "blogLinks": [
                "https://www.tripoto.com/places-to-visit/india/karnataka"
            ],
            "longitude": "76.6553609",
            "address": "Mysuru, Mysuru taluk, Mysuru district, Karnataka, 570001, India",
            "latitude": "12.3051828",
            "locType": "city",
            "closest_to": "kanakapura"
        },
        "dakshina kannada": {
            "blogLinks": [
                "https://en.wikipedia.org/wiki/Tourism_in_Karnataka",
                "http://www.mapsofindia.com/maps/karnataka/",
                "https://www.tripoto.com/weekend-getaways/from-kanakapura"
            ],
            "longitude": "75.1008028650794",
            "address": "Dakshina Kannada, Karnataka, India",
            "latitude": "12.8114089",
            "locType": "administrative",
            "closest_to": "chitradurga"
        },
        "halebid": {
            "blogLinks": [
                "https://www.tripoto.com/places-to-visit/india/karnataka"
            ],
            "longitude": "75.9918793",
            "address": "Halebidu, Beluru taluk, Hassan district, Karnataka, 573121, India",
            "latitude": "13.2167959",
            "locType": "village",
            "closest_to": "kanakapura"
        },
        "unchalli falls": {
            "blogLinks": [
                "https://en.wikipedia.org/wiki/Tourism_in_Karnataka"
            ],
            "longitude": "74.7477592",
            "address": "\u0c89\u0c82\u0c9a\u0cb3\u0ccd\u0cb3\u0cbf \u0c9c\u0cb2\u0caa\u0cbe\u0ca4, Siddapura taluk, Uttara Kannada, Karnataka, India",
            "latitude": "14.4097755",
            "locType": "waterfall",
            "closest_to": "chitradurga"
        },
        "' river cauvery": {
            "blogLinks": [
                "https://www.tripoto.com/places-to-visit/india/karnataka"
            ],
            "longitude": "77.5832796015599",
            "address": "Cauvery, 1st Main Road, Lower Palace Orchard, Guttahalli, Bengaluru, Bangalore Urban, Karnataka, 560001, India",
            "latitude": "13.00262215",
            "locType": "cinema",
            "closest_to": "kanakapura"
        },
        "kutta": {
            "blogLinks": [
                "https://www.tripoto.com/places-to-visit/india/karnataka"
            ],
            "longitude": "76.0491296",
            "address": "Kutta, Virajpet taluk, Kodagu, Karnataka, India",
            "latitude": "11.9696155",
            "locType": "village",
            "closest_to": "kanakapura"
        },
        "bagamandala": {
            "blogLinks": [
                "https://en.wikipedia.org/wiki/Tourism_in_Karnataka"
            ],
            "longitude": "75.748408",
            "address": "Madikeri - Bagamandala ,Tala Kaveri Road, Mekeri, Madikeri taluku, Kodagu, Karnataka, India",
            "latitude": "12.388062",
            "locType": "primary",
            "closest_to": "kanakapura"
        },
        "shivanasamudra": {
            "blogLinks": [
                "https://en.wikipedia.org/wiki/Tourism_in_Karnataka"
            ],
            "longitude": "77.1703215",
            "address": "Shivanasamudra, Kollegala taluk, Chamarajanagar district, Karnataka, India",
            "latitude": "12.2719056",
            "locType": "village",
            "closest_to": "kanakapura"
        },
        "vittala": {
            "blogLinks": [
                "https://www.tripoto.com/places-to-visit/india/karnataka"
            ],
            "longitude": "76.6237847175927",
            "address": "Vijaya Vittala PU College, Sahukar Chennaiah Road, Sarasvatipuram, Mysuru, Mysuru taluk, Mysuru district, Karnataka, 570001, India",
            "latitude": "12.30129655",
            "locType": "yes",
            "closest_to": "kanakapura"
        },