{
    "hassan": {
        "lat": "13.0070817",
        "class": "place",
        "importance": 0.490701435537,
        "osm_type": "node",
        "lon": "76.0992703",
        "place_id": "1806238",
        "display_name": "Hassan, Hasana taluk, Hassan district, Karnataka, 573201, India",
        "osm_id": "340748436",
        "boundingbox": [
            "12.9670817",
            "13.0470817",
            "76.0592703",
            "76.1392703"
        ],
        "type": "town",
        "licence": "Data \u00a9 OpenStreetMap contributors, ODbL 1.0. http://www.openstreetmap.org/copyright",
        "icon": "https://nominatim.openstreetmap.org/images/mapicons/poi_place_town.p.20.png"
    },
    "chitradurga": {
        "lat": "14.2266443",
        "class": "place",
        "importance": 0.5,
        "osm_type": "node",
        "lon": "76.4005122",
        "place_id": "4897275",
        "display_name": "Chitradurga, Chitradurga taluku, Chitradurga district, Karnataka, 577500, India",
        "osm_id": "571409087",
        "boundingbox": [
            "14.1866443",
            "14.2666443",
            "76.3605122",
            "76.4405122"
        ],
        "type": "town",
        "licence": "Data \u00a9 OpenStreetMap contributors, ODbL 1.0. http://www.openstreetmap.org/copyright",
        "icon": "https://nominatim.openstreetmap.org/images/mapicons/poi_place_town.p.20.png"
    },
    "mentions": {
        "varaha": {
            "blogLinks": [
                "https://en.wikipedia.org/wiki/Tourism_in_Karnataka"
            ],
            "longitude": "75.3718812",
            "address": "Varaha, Hirekeruru taluk, Haveri district, Karnataka, India",
            "latitude": "14.390777",
            "locType": "village",
            "closest_to": "chitradurga"
        },
        "shravanabelagola": {
            "blogLinks": [
                "http://www.ticketgoose.com/bus-tickets/hassan-to-chitradurga",
                "http://goindia.about.com/od/karnataka/tp/karnataka.htm"
            ],
            "longitude": "76.4869997",
            "address": "Shravanabelagola, Channarayapattana taluk, Hassan district, Karnataka, 573135, India",
            "latitude": "12.8581305",
            "locType": "town",
            "closest_to": "hassan"
        },
        "ranganathittu bird sanctuary": {
            "blogLinks": [
                "https://en.wikipedia.org/wiki/Tourism_in_Karnataka"
            ],
            "longitude": "76.6553081",
            "address": "Ranganathittu Bird Sanctuary, SH154, Palahalli, Srirangapattana taluk, Mandya district, Karnataka, 571438, India",
            "latitude": "12.4238524",
            "locType": "attraction",
            "closest_to": "hassan"
        },
        "kalasa": {
            "blogLinks": [
                "https://en.wikipedia.org/wiki/Tourism_in_Karnataka"
            ],
            "longitude": "75.3582366",
            "address": "Kalasa, Mudigere taluk, Chikkamagaluru district, Karnataka, 577124, India",
            "latitude": "13.2322235",
            "locType": "town",
            "closest_to": "hassan"
        },
        "kambadahalli": {
            "blogLinks": [
                "https://en.wikipedia.org/wiki/Tourism_in_Karnataka"
            ],
            "longitude": "77.1671918",
            "address": "Kambadahalli, Madhugiri taluk, Tumkur district, Karnataka, India",
            "latitude": "13.6843692",
            "locType": "village",
            "closest_to": "hassan"
        },
        "india": {
            "blogLinks": [
                "http://www.mapsofindia.com/maps/karnataka/",
                "http://www.ticketgoose.com/bus-tickets/hassan-to-chitradurga",
                "https://en.wikipedia.org/wiki/Tourism_in_Karnataka",
                "http://www.nivalink.com/destination/hassan",
                "http://www.distancesfrom.com/distance-from-Chitradurga-to-Hassan/DistanceHistory/25012.aspx",
                "http://www.inditales.com/chitradurga-chandravalli-jogimatti/",
                "http://distancecalculator.globefeed.com/India_Distance_Calculator.asp?state=19",
                "http://goindia.about.com/od/karnataka/tp/karnataka.htm",
                "http://www.distancesfrom.com/in/flight-distance-from-Chitradurga-to-Hassan/FlightHistory/33240730.aspx",
                "https://en.wikipedia.org/wiki/Chitradurga_district"
            ],
            "longitude": "75.7223521",
            "address": "Karnataka, India",
            "latitude": "14.5203896",
            "locType": "administrative",
            "closest_to": "chitradurga"
        },
        "madakari nayaka": {
            "blogLinks": [
                "https://en.wikipedia.org/wiki/Chitradurga_district"
            ],
            "longitude": "76.4026941",
            "address": "Madakari Nayaka School, SH48, Lakshmisagara, Chitradurga, Chitradurga taluku, Chitradurga district, Karnataka, 577500, India",
            "latitude": "14.2243599",
            "locType": "school",
            "closest_to": "hassan"
        },
        "kumara": {
            "blogLinks": [
                "http://www.holidayiq.com/destinations/sakleshpur/"
            ],
            "longitude": "75.6865652",
            "address": "Kumara Parvatha, Somawarpet taluk, Kodagu, Karnataka, India",
            "latitude": "12.6623315",
            "locType": "peak",
            "closest_to": "hassan"
        },
        "haveri": {
            "blogLinks": [
                "https://en.wikipedia.org/wiki/Tourism_in_Karnataka",
                "http://www.mapsofindia.com/maps/karnataka/"
            ],
            "longitude": "75.3996731",
            "address": "Haveri, Haveri taluku, Haveri district, Karnataka, 581110, India",
            "latitude": "14.7874825",
            "locType": "town",
            "closest_to": "chitradurga"
        },
        "hemavathi river": {
            "blogLinks": [
                "http://www.holidayiq.com/destinations/sakleshpur/"
            ],
            "longitude": "76.0556931",
            "address": "Hemavathi Reservoir, Hasana taluk, Hassan district, Karnataka, India",
            "latitude": "12.8267596",
            "locType": "dam",
            "closest_to": "hassan"
        },
        "sakleshpur": {
            "blogLinks": [
                "http://goindia.about.com/od/karnataka/tp/karnataka.htm",
                "http://www.holidayiq.com/destinations/sakleshpur/"
            ],
            "longitude": "75.7862318",
            "address": "Sakaleshpura, Sakaleshapura taluk, Hassan district, Karnataka, 573134, India",
            "latitude": "12.9434349",
            "locType": "town",
            "closest_to": "hassan"
        },
        "shimoga": {
            "blogLinks": [
                "https://en.wikipedia.org/wiki/Tourism_in_Karnataka"
            ],
            "longitude": "75.569737",
            "address": "Shivamogga, Shivamogga taluku, Shimoga district, Karnataka, 577200, India",
            "latitude": "13.9311723",
            "locType": "city",
            "closest_to": "hassan"
        },
        "hemavathy river": {
            "blogLinks": [
                "http://www.holidayiq.com/Hassan-Sightseeing-374.html"
            ],
            "longitude": "76.5150009",
            "address": "T Subramanian Hemavathy Irrigation Canal, Tipaturu taluk, Tumkur district, Karnataka, India",
            "latitude": "13.2293083",
            "locType": "canal",
            "closest_to": "hassan"
        },
        "srirangapattana": {
            "blogLinks": [
                "http://www.holidayiq.com/destinations/sakleshpur/"
            ],
            "longitude": "76.703932434547",
            "address": "Srirangapattana taluk, Mandya district, Karnataka, India",
            "latitude": "12.40148225",
            "locType": "administrative",
            "closest_to": "hassan"
        },
        "main road": {
            "blogLinks": [
                "http://www.holidayiq.com/destinations/sakleshpur/"
            ],
            "longitude": "76.6222634",
            "address": "Main Road, Sriramapura, Mysuru, Mysuru taluk, Mysuru district, Karnataka, 570001, India",
            "latitude": "12.2674879",
            "locType": "tertiary",
            "closest_to": "hassan"
        },
        "narayana": {
            "blogLinks": [
                "https://en.wikipedia.org/wiki/Tourism_in_Karnataka"
            ],
            "longitude": "76.201037",
            "address": "Narayana Gondanahalli, Holalkere taluk, Chitradurga district, Karnataka, India",
            "latitude": "13.9181889",
            "locType": "village",
            "closest_to": "hassan"
        },
        "anegundi": {
            "blogLinks": [
                "https://en.wikipedia.org/wiki/Tourism_in_Karnataka"
            ],
            "longitude": "76.4924232",
            "address": "Anegundi, Gangavati taluku, Koppal district, Karnataka, India",
            "latitude": "15.3509583",
            "locType": "village",
            "closest_to": "chitradurga"
        },
        "tumkur": {
            "blogLinks": [
                "https://en.wikipedia.org/wiki/Tourism_in_Karnataka"
            ],
            "longitude": "77.0002445",
            "address": "Tumakuru, Tumkur district, Karnataka, India",
            "latitude": "13.4999406",
            "locType": "county",
            "closest_to": "hassan"
        },
        "chitradurga district": {
            "blogLinks": [
                "http://www.holidayiq.com/Hassan-Sightseeing-374.html",
                "http://www.holidayiq.com/Chitradurga-Sightseeing-650.html",
                "https://en.wikipedia.org/wiki/Chitradurga_district"
            ],
            "longitude": "76.5299366059272",
            "address": "Chitradurga district, Karnataka, India",
            "latitude": "14.3051049",
            "locType": "administrative",
            "closest_to": "chitradurga"
        },
        "mysore district": {
            "blogLinks": [
                "https://en.wikipedia.org/wiki/Tourism_in_Karnataka"
            ],
            "longitude": "76.6553609",
            "address": "Mysuru, Mysuru taluk, Mysuru district, Karnataka, 570001, India",
            "latitude": "12.3051828",
            "locType": "city",
            "closest_to": "hassan"
        },
        "maharaja park": {
            "blogLinks": [
                "http://www.holidayiq.com/Hassan-Sightseeing-374.html"
            ],
            "longitude": "76.0999163058945",
            "address": "Maharaja Park, AVK College Road, Ravindra Nagar, Rangoli Halla, Hassan, Hasana taluk, Hassan district, Karnataka, 573201, India",
            "latitude": "13.007876",
            "locType": "park",
            "closest_to": "hassan"
        },
        "yagachi river": {
            "blogLinks": [
                "http://goindia.about.com/od/karnataka/tp/karnataka.htm"
            ],
            "longitude": "75.950911",
            "address": "Yagachi, Beluru taluk, Hassan district, Karnataka, India",
            "latitude": "13.0658494",
            "locType": "river",
            "closest_to": "hassan"
        },
        "ranganathaswamy temple": {
            "blogLinks": [
                "http://www.holidayiq.com/Chitradurga-Sightseeing-650.html"
            ],
            "longitude": "76.1812411",
            "address": "Ranganathaswamy Temple, Steps to Ranganathaswami Temple, Halekote, Hole Narasipura taluk, Hassan district, Karnataka, 573211, India",
            "latitude": "12.854149",
            "locType": "place_of_worship",
            "closest_to": "hassan"
        },
        "tungabhadra": {
            "blogLinks": [
                "https://en.wikipedia.org/wiki/Tourism_in_Karnataka"
            ],
            "longitude": "76.4931607",
            "address": "Tungabhadra, Gangavati taluku, Koppal district, Karnataka, India",
            "latitude": "15.3446123",
            "locType": "river",
            "closest_to": "chitradurga"
        },
        "gorur dam": {
            "blogLinks": [
                "http://www.holidayiq.com/Hassan-Sightseeing-374.html"
            ],
            "longitude": "76.0644435",
            "address": "Gorur, Hasana taluk, Hassan district, Karnataka, 573120, India",
            "latitude": "12.8238999",
            "locType": "village",
            "closest_to": "hassan"
        },
        "kanaganahalli": {
            "blogLinks": [
                "https://en.wikipedia.org/wiki/Tourism_in_Karnataka"
            ],
            "longitude": "76.5876958",
            "address": "Kanaganahalli, Pandavapura taluk, Mandya district, Karnataka, India",
            "latitude": "12.5588444",
            "locType": "village",
            "closest_to": "hassan"
        },
        "gomateshwara": {
            "blogLinks": [
                "http://www.nivalink.com/destination/hassan",
                "http://www.ticketgoose.com/bus-tickets/hassan-to-chitradurga"
            ],
            "longitude": "76.4846128",
            "address": "Bahubali Statue, SH8, Shravanabelagola, Channarayapattana taluk, Hassan district, Karnataka, 573135, India",
            "latitude": "12.8540505",
            "locType": "place_of_worship",
            "closest_to": "hassan"
        },
        "coorg": {
            "blogLinks": [
                "http://www.indiamike.com/india/karnataka-f38/places-to-go-in-south-karnataka-t102701/"
            ],
            "longitude": "75.740031",
            "address": "Madikeri, Madikeri taluku, Kodagu, Karnataka, India",
            "latitude": "12.4204003",
            "locType": "town",
            "closest_to": "hassan"
        },
        "irupu falls": {
            "blogLinks": [
                "https://en.wikipedia.org/wiki/Tourism_in_Karnataka"
            ],
            "longitude": "75.9839484",
            "address": "Iruppu Falls, SH89, Taila, Virajpet taluk, Kodagu, Karnataka, 571217, India",
            "latitude": "11.9667954",
            "locType": "attraction",
            "closest_to": "hassan"
        },
        "dakshina kannada": {
            "blogLinks": [
                "https://en.wikipedia.org/wiki/Tourism_in_Karnataka",
                "http://www.mapsofindia.com/maps/karnataka/",
                "http://www.holidayiq.com/destinations/sakleshpur/"
            ],
            "longitude": "75.1008028650794",
            "address": "Dakshina Kannada, Karnataka, India",
            "latitude": "12.8114089",
            "locType": "administrative",
            "closest_to": "hassan"
        },
        "manjarabad fort": {
            "blogLinks": [
                "http://www.holidayiq.com/destinations/sakleshpur/"
            ],
            "longitude": "75.7580572896098",
            "address": "Manjarabad Fort, SH27, Hullahalli, Sakaleshapura taluk, Hassan district, Karnataka, 573134, India",
            "latitude": "12.9173302",
            "locType": "attraction",
            "closest_to": "hassan"
        },
        "kodagu": {
            "blogLinks": [
                "https://en.wikipedia.org/wiki/Tourism_in_Karnataka",
                "http://www.mapsofindia.com/maps/karnataka/",
                "http://goindia.about.com/od/karnataka/tp/karnataka.htm"
            ],
            "longitude": "75.6677235950852",
            "address": "Kodagu, Karnataka, India",
            "latitude": "12.38117345",
            "locType": "administrative",
            "closest_to": "hassan"
        },
        "chola": {
            "blogLinks": [
                "https://en.wikipedia.org/wiki/Tourism_in_Karnataka"
            ],
            "longitude": "76.098782",
            "address": "Chola Gold Loan, Bengaluru - Mangaluru Road, Ravindra Nagar, Santhe Pete, Hassan, Hasana taluk, Hassan district, Karnataka, 573201, India",
            "latitude": "13.0023906",
            "locType": "yes",
            "closest_to": "hassan"
        },
        "karnataka": {
            "blogLinks": [
                "http://www.mapsofindia.com/maps/karnataka/",
                "http://www.holidayiq.com/Chitradurga-Sightseeing-650.html",
                "http://www.ticketgoose.com/bus-tickets/hassan-to-chitradurga",
                "http://www.holidayiq.com/destinations/sakleshpur/",
                "https://en.wikipedia.org/wiki/Tourism_in_Karnataka",
                "http://www.nivalink.com/destination/hassan",
                "http://www.distancesfrom.com/distance-from-Chitradurga-to-Hassan/DistanceHistory/25012.aspx",
                "http://www.karnatakatourism.org/",
                "http://www.indiamike.com/india/karnataka-f38/places-to-go-in-south-karnataka-t102701/",
                "http://www.inditales.com/chitradurga-chandravalli-jogimatti/",
                "http://distancecalculator.globefeed.com/India_Distance_Calculator.asp?state=19",
                "http://goindia.about.com/od/karnataka/tp/karnataka.htm",
                "http://www.distancesfrom.com/in/flight-distance-from-Chitradurga-to-Hassan/FlightHistory/33240730.aspx",
                "https://en.wikipedia.org/wiki/Chitradurga_district"
            ],
            "longitude": "76.6639936",
            "address": "Karnataka, Shalivahana Road, Nazarbad, Mysuru, Mysuru taluk, Mysuru district, Karnataka, 570001, India",
            "latitude": "12.3084901",
            "locType": "atm",
            "closest_to": "hassan"
        },
        "bagamandala": {
            "blogLinks": [
                "https://en.wikipedia.org/wiki/Tourism_in_Karnataka"
            ],
            "longitude": "75.748408",
            "address": "Madikeri - Bagamandala ,Tala Kaveri Road, Mekeri, Madikeri taluku, Kodagu, Karnataka, India",
            "latitude": "12.388062",
            "locType": "primary",
            "closest_to": "hassan"
        },
        "river hemavathi": {
            "blogLinks": [
                "http://www.nivalink.com/destination/hassan"
            ],
            "longitude": "76.0556931",
            "address": "Hemavathi Reservoir, Hasana taluk, Hassan district, Karnataka, India",
            "latitude": "12.8267596",
            "locType": "dam",
            "closest_to": "hassan"
        },
        "mangalore": {
            "blogLinks": [
                "http://www.holidayiq.com/Hassan-Sightseeing-374.html",
                "http://www.holidayiq.com/destinations/sakleshpur/",
                "https://en.wikipedia.org/wiki/Tourism_in_Karnataka",
                "http://www.nivalink.com/destination/hassan",
                "http://www.onefivenine.com/india/Travel/Place/Chitradurga",
                "http://goindia.about.com/od/karnataka/tp/karnataka.htm"
            ],
            "longitude": "74.8430082",
            "address": "Mangaluru, Mangaluru taluk, Dakshina Kannada, Karnataka, 575001, India",
            "latitude": "12.8698101",
            "locType": "city",
            "closest_to": "hassan"
        },
        "chennakesava temple": {
            "blogLinks": [
                "http://www.ticketgoose.com/bus-tickets/hassan-to-chitradurga"
            ],
            "longitude": "75.8603311",
            "address": "Chennakesava Temple, NH73, Navilahalli, Beluru taluk, Hassan district, Karnataka, India",
            "latitude": "13.1629239",
            "locType": "place_of_worship",
            "closest_to": "hassan"
        },
        "davanagere district": {
            "blogLinks": [
                "https://en.wikipedia.org/wiki/Chitradurga_district"
            ],
            "longitude": "75.8904782659728",
            "address": "Davanagere district, Karnataka, India",
            "latitude": "14.37090835",
            "locType": "administrative",
            "closest_to": "chitradurga"
        },
        "ooty": {
            "blogLinks": [
                "http://www.indiamike.com/india/karnataka-f38/places-to-go-in-south-karnataka-t102701/",
                "http://www.nivalink.com/destination/hassan"
            ],
            "longitude": "76.6586807",
            "address": "Ooty Road, Vidyaranyapuram, Mysuru, Mysuru taluk, Mysuru district, Karnataka, 570001, India",
            "latitude": "12.2774807",
            "locType": "primary",
            "closest_to": "hassan"
        },
        "kannada": {
            "blogLinks": [
                "https://en.wikipedia.org/wiki/Chitradurga_district"
            ],
            "longitude": "75.1008028650794",
            "address": "Dakshina Kannada, Karnataka, India",
            "latitude": "12.8114089",
            "locType": "administrative",
            "closest_to": "hassan"
        },
        "bahubali": {
            "blogLinks": [
                "https://en.wikipedia.org/wiki/Tourism_in_Karnataka"
            ],
            "longitude": "76.4846128",
            "address": "Bahubali Statue, SH8, Shravanabelagola, Channarayapattana taluk, Hassan district, Karnataka, 573135, India",
            "latitude": "12.8540505",
            "locType": "place_of_worship",
            "closest_to": "hassan"
        },
        "hassan": {
            "blogLinks": [
                "http://goindia.about.com/od/karnataka/tp/karnataka.htm",
                "https://en.wikipedia.org/wiki/Tourism_in_Karnataka",
                "http://www.holidayiq.com/destinations/sakleshpur/"
            ],
            "longitude": "76.0992703",
            "address": "Hassan, Hasana taluk, Hassan district, Karnataka, 573201, India",
            "latitude": "13.0070817",
            "locType": "town",
            "closest_to": "hassan"
        },
        "itagi": {
            "blogLinks": [
                "https://en.wikipedia.org/wiki/Tourism_in_Karnataka"
            ],
            "longitude": "75.6701043",
            "address": "Itagi, Ranebennuru taluk, Haveri district, Karnataka, India",
            "latitude": "14.550374",
            "locType": "village",
            "closest_to": "chitradurga"
        },
        "brahmagiri": {
            "blogLinks": [
                "https://en.wikipedia.org/wiki/Chitradurga_district"
            ],
            "longitude": "75.490746",
            "address": "Brahmagiri, Madikeri taluku, Kodagu, Karnataka, India",
            "latitude": "12.3868578",
            "locType": "peak",
            "closest_to": "hassan"
        },
        "belur": {
            "blogLinks": [
                "http://www.indiamike.com/india/karnataka-f38/places-to-go-in-south-karnataka-t102701/",
                "http://www.nivalink.com/destination/hassan",
                "http://goindia.about.com/od/karnataka/tp/karnataka.htm"
            ],
            "longitude": "75.8634851",
            "address": "Belur, Beluru taluk, Hassan district, Karnataka, 573115, India",
            "latitude": "13.1645671",
            "locType": "town",
            "closest_to": "hassan"
        },
        "nagarhole national park": {
            "blogLinks": [
                "https://en.wikipedia.org/wiki/Tourism_in_Karnataka"
            ],
            "longitude": "76.1537073415874",
            "address": "Nagarahole National Park, Virajpet taluk, Kodagu, Karnataka, India",
            "latitude": "12.0600362",
            "locType": "national_park",
            "closest_to": "hassan"
        },
        "virupaksha temple": {
            "blogLinks": [
                "https://en.wikipedia.org/wiki/Tourism_in_Karnataka"
            ],
            "longitude": "76.4587777156223",
            "address": "Virupaksha Temple, Hampi Bazaar, Hampe, Hosapete taluk, Bellary district, Karnataka, 583239, India",
            "latitude": "15.3351754",
            "locType": "place_of_worship",
            "closest_to": "chitradurga"
        },
        "chitradurga fort": {
            "blogLinks": [
                "http://goindia.about.com/od/karnataka/tp/karnataka.htm",
                "https://en.wikipedia.org/wiki/Chitradurga_district"
            ],
            "longitude": "76.3948635401208",
            "address": "Chitradurga Fort, Kote Road, Devalagiri 1st Phase, Chitradurga, Chitradurga taluku, Chitradurga district, Karnataka, 577500, India",
            "latitude": "14.21296355",
            "locType": "attraction",
            "closest_to": "hassan"
        },
        "hosadurga taluk": {
            "blogLinks": [
                "http://www.holidayiq.com/Chitradurga-Sightseeing-650.html"
            ],
            "longitude": "77.2095258",
            "address": "Hosadurga, Pavagada taluk, Tumkur district, Karnataka, India",
            "latitude": "14.2608929",
            "locType": "village",
            "closest_to": "chitradurga"
        },
        "sakaleshpura": {
            "blogLinks": [
                "http://www.holidayiq.com/destinations/sakleshpur/"
            ],
            "longitude": "75.7862318",
            "address": "Sakaleshpura, Sakaleshapura taluk, Hassan district, Karnataka, 573134, India",
            "latitude": "12.9434349",
            "locType": "town",
            "closest_to": "hassan"
        },
        "koppal": {
            "blogLinks": [
                "https://en.wikipedia.org/wiki/Tourism_in_Karnataka",
                "http://www.mapsofindia.com/maps/karnataka/"
            ],
            "longitude": "76.1547421",
            "address": "Koppala, Koppala taluku, Koppal district, Karnataka, 583231, India",
            "latitude": "15.3484144",
            "locType": "town",
            "closest_to": "chitradurga"
        },
        "chandramoulishwara": {
            "blogLinks": [
                "https://en.wikipedia.org/wiki/Tourism_in_Karnataka"
            ],
            "longitude": "76.6290267",
            "address": "Chandramoulishwara Temple, Adipampa Road, Gokulam, Mysuru, Mysuru taluk, Mysuru district, Karnataka, 570001, India",
            "latitude": "12.3225663",
            "locType": "place_of_worship",
            "closest_to": "hassan"
        },
        "kannur": {
            "blogLinks": [
                "http://www.nivalink.com/destination/hassan"
            ],
            "longitude": "74.8858161",
            "address": "Netravati bridge - Kannur Bypass Road (Proposed), Padil, Bajal, Mangaluru taluk, Dakshina Kannada, Karnataka, 575007, India",
            "latitude": "12.8487602",
            "locType": "construction",
            "closest_to": "hassan"
        },
        "nanjangud": {
            "blogLinks": [
                "http://www.indiamike.com/india/karnataka-f38/places-to-go-in-south-karnataka-t102701/"
            ],
            "longitude": "76.683164",
            "address": "Nanjangud, Nanjanagudu Bypass, Hejjige, Nanjanagudu taluk, Mysuru district, Karnataka, 571300, India",
            "latitude": "12.1229725",
            "locType": "station",
            "closest_to": "hassan"
        },
        "kukke": {
            "blogLinks": [
                "http://www.holidayiq.com/destinations/sakleshpur/"
            ],
            "longitude": "75.3076538",
            "address": "Kukke, Tirthahalli taluk, Shimoga district, Karnataka, India",
            "latitude": "13.7523964",
            "locType": "village",
            "closest_to": "hassan"
        },
        "karkala": {
            "blogLinks": [
                "https://en.wikipedia.org/wiki/Tourism_in_Karnataka"
            ],
            "longitude": "74.9959586",
            "address": "Karkala, Karkala taluk, Udupi district, Karnataka, 574104, India",
            "latitude": "13.2112826",
            "locType": "town",
            "closest_to": "hassan"
        },
        "halebidu": {
            "blogLinks": [
                "http://www.indiamike.com/india/karnataka-f38/places-to-go-in-south-karnataka-t102701/",
                "https://en.wikipedia.org/wiki/Tourism_in_Karnataka",
                "http://www.nivalink.com/destination/hassan"
            ],
            "longitude": "76.4607075",
            "address": "Halebidu, Hunasuru taluk, Mysuru district, Karnataka, India",
            "latitude": "12.359893",
            "locType": "village",
            "closest_to": "hassan"
        },
        "arasikere": {
            "blogLinks": [
                "https://en.wikipedia.org/wiki/Tourism_in_Karnataka"
            ],
            "longitude": "76.2568436",
            "address": "Arasikere, Arasikere taluku, Hassan district, Karnataka, 573103, India",
            "latitude": "13.3159809",
            "locType": "town",
            "closest_to": "hassan"
        },
        "holalkere": {
            "blogLinks": [
                "https://en.wikipedia.org/wiki/Chitradurga_district"
            ],
            "longitude": "76.1830578",
            "address": "Holalkere, Holalkere taluk, Chitradurga district, Karnataka, 577526, India",
            "latitude": "14.0424479",
            "locType": "town",
            "closest_to": "hassan"
        },
        "sringeri": {
            "blogLinks": [
                "http://www.indiamike.com/india/karnataka-f38/places-to-go-in-south-karnataka-t102701/"
            ],
            "longitude": "75.2553718",
            "address": "Sringeri, Sringeri taluku, Chikkamagaluru district, Karnataka, 577592, India",
            "latitude": "13.4261724",
            "locType": "town",
            "closest_to": "hassan"
        },
        "chikmagalur district": {
            "blogLinks": [
                "https://en.wikipedia.org/wiki/Tourism_in_Karnataka",
                "https://en.wikipedia.org/wiki/Chitradurga_district"
            ],
            "longitude": "75.5",
            "address": "Chikmagalur, Chikkamagaluru district, Karnataka, India",
            "latitude": "13.5",
            "locType": "county",
            "closest_to": "hassan"
        },
        "bhadra river": {
            "blogLinks": [
                "https://en.wikipedia.org/wiki/Tourism_in_Karnataka"
            ],
            "longitude": "75.527118",
            "address": "Bhadra, Chikkamagaluru taluku, Chikkamagaluru district, Karnataka, India",
            "latitude": "13.4888356",
            "locType": "river",
            "closest_to": "hassan"
        },
        "chikkamagalur": {
            "blogLinks": [
                "http://www.holidayiq.com/destinations/sakleshpur/"
            ],
            "longitude": "75.789501",
            "address": "Chikkamagalur, SH57, Hosamane Badavane, Hiremagaluru, Chikkamagaluru taluku, Chikkamagaluru district, Karnataka, 577101, India",
            "latitude": "13.3030706",
            "locType": "station",
            "closest_to": "hassan"
        },
        "maragunda": {
            "blogLinks": [
                "http://www.holidayiq.com/destinations/sakleshpur/"
            ],
            "longitude": "75.6201653",
            "address": "Maragunda, Sakaleshapura taluk, Hassan district, Karnataka, India",
            "latitude": "12.9867236",
            "locType": "village",
            "closest_to": "hassan"
        },
        "kabini": {
            "blogLinks": [
                "https://en.wikipedia.org/wiki/Tourism_in_Karnataka"
            ],
            "longitude": "76.4152088",
            "address": "Kabini, Heggadadevanakote taluk, Mysuru district, Karnataka, India",
            "latitude": "12.0140065",
            "locType": "river",
            "closest_to": "hassan"
        },
        "beluru": {
            "blogLinks": [
                "https://en.wikipedia.org/wiki/Tourism_in_Karnataka"
            ],
            "longitude": "75.8634851",
            "address": "Belur, Beluru taluk, Hassan district, Karnataka, 573115, India",
            "latitude": "13.1645671",
            "locType": "town",
            "closest_to": "hassan"
        },
        "malnad": {
            "blogLinks": [
                "http://www.holidayiq.com/destinations/sakleshpur/"
            ],
            "longitude": "75.7715495",
            "address": "Malnad Hospital, Mudigere-Kadur Road, Chikkamagaluru, Chikkamagaluru taluku, Chikkamagaluru district, Karnataka, 577101, India",
            "latitude": "13.3160351",
            "locType": "hospital",
            "closest_to": "hassan"
        },
        "bellary district": {
            "blogLinks": [
                "https://en.wikipedia.org/wiki/Tourism_in_Karnataka",
                "https://en.wikipedia.org/wiki/Chitradurga_district"
            ],
            "longitude": "76.7137978546465",
            "address": "Bellary district, Karnataka, India",
            "latitude": "15.20597305",
            "locType": "administrative",
            "closest_to": "chitradurga"
        },
        "kemmangundi": {
            "blogLinks": [
                "https://en.wikipedia.org/wiki/Tourism_in_Karnataka"
            ],
            "longitude": "75.7520082",
            "address": "Kemmannagundi, Tarikere taluku, Chikkamagaluru district, Karnataka, India",
            "latitude": "13.5463048",
            "locType": "village",
            "closest_to": "hassan"
        },
        "hampi": {
            "blogLinks": [
                "https://en.wikipedia.org/wiki/Tourism_in_Karnataka",
                "http://distancecalculator.globefeed.com/India_Distance_Calculator.asp?state=19",
                "http://goindia.about.com/od/karnataka/tp/karnataka.htm"
            ],
            "longitude": "76.4606199",
            "address": "Hampe, Hosapete taluk, Bellary district, Karnataka, 583239, India",
            "latitude": "15.3359769",
            "locType": "village",
            "closest_to": "chitradurga"
        },
        "nageshwara": {
            "blogLinks": [
                "http://www.nivalink.com/destination/hassan"
            ],
            "longitude": "77.095092",
            "address": "Nageshwara, #4, Honnenahalli Road, Satyamangala, Tumkur taluk, Tumkur district, Karnataka, 572101, India",
            "latitude": "13.3632898",
            "locType": "yes",
            "closest_to": "hassan"
        },
        "shimoga district": {
            "blogLinks": [
                "https://en.wikipedia.org/wiki/Tourism_in_Karnataka"
            ],
            "longitude": "75.1312533993886",
            "address": "Shimoga district, Karnataka, India",
            "latitude": "14.0558284",
            "locType": "administrative",
            "closest_to": "chitradurga"
        },
        "narasimha swamy temple": {
            "blogLinks": [
                "https://en.wikipedia.org/wiki/Tourism_in_Karnataka"
            ],
            "longitude": "76.2427318",
            "address": "Narasimha Swamy Temple, Attavara Mudigere Road, Attavara, Hasana taluk, Hassan district, Karnataka, India",
            "latitude": "13.0943931",
            "locType": "place_of_worship",
            "closest_to": "hassan"
        },
        "bharamagiri": {
            "blogLinks": [
                "https://en.wikipedia.org/wiki/Chitradurga_district"
            ],
            "longitude": "76.4993709",
            "address": "Bharamagiri, Hiriyuru taluk, Chitradurga district, Karnataka, India",
            "latitude": "13.9288556",
            "locType": "village",
            "closest_to": "hassan"
        },
        "netravati": {
            "blogLinks": [
                "https://en.wikipedia.org/wiki/Tourism_in_Karnataka"
            ],
            "longitude": "75.1562182",
            "address": "Netravati, Bantwal taluk, Dakshina Kannada, Karnataka, India",
            "latitude": "12.8537655",
            "locType": "river",
            "closest_to": "hassan"
        },
        "kabini river": {
            "blogLinks": [
                "https://en.wikipedia.org/wiki/Tourism_in_Karnataka"
            ],
            "longitude": "76.6477184",
            "address": "Kabini right bank canal, Nanjanagudu taluk, Mysuru district, Karnataka, India",
            "latitude": "12.0780998",
            "locType": "canal",
            "closest_to": "hassan"
        },
        "nagarahole": {
            "blogLinks": [
                "https://en.wikipedia.org/wiki/Tourism_in_Karnataka"
            ],
            "longitude": "76.2286805",
            "address": "Nagarahole, Heggadadevanakote taluk, Mysuru district, Karnataka, India",
            "latitude": "12.0229466",
            "locType": "river",
            "closest_to": "hassan"
        },
        "sakaleshpura taluk": {
            "blogLinks": [
                "http://www.holidayiq.com/Hassan-Sightseeing-374.html"
            ],
            "longitude": "75.7862318",
            "address": "Sakaleshpura, Sakaleshapura taluk, Hassan district, Karnataka, 573134, India",
            "latitude": "12.9434349",
            "locType": "town",
            "closest_to": "hassan"
        },
        "chitrakaldurga": {
            "blogLinks": [
                "https://en.wikipedia.org/wiki/Chitradurga_district"
            ],
            "longitude": "76.3948635401208",
            "address": "Chitradurga Fort, Kote Road, Devalagiri 1st Phase, Chitradurga, Chitradurga taluku, Chitradurga district, Karnataka, 577500, India",
            "latitude": "14.21296355",
            "locType": "attraction",
            "closest_to": "hassan"
        },
        "manjusha museum": {
            "blogLinks": [
                "https://en.wikipedia.org/wiki/Tourism_in_Karnataka"
            ],
            "longitude": "75.3821342838196",
            "address": "Manjusha Museum, SH37, Dharmasthala, Beltangadi taluk, Dakshina Kannada, Karnataka, 574216, India",
            "latitude": "12.95116975",
            "locType": "museum",
            "closest_to": "hassan"
        },
        "aralaguppe": {
            "blogLinks": [
                "http://www.nivalink.com/destination/hassan"
            ],
            "longitude": "76.6165598",
            "address": "Aralaguppe, Tipaturu taluk, Tumkur district, Karnataka, India",
            "latitude": "13.2517886",
            "locType": "village",
            "closest_to": "hassan"
        },
        "mercara": {
            "blogLinks": [
                "https://en.wikipedia.org/wiki/Tourism_in_Karnataka"
            ],
            "longitude": "75.740031",
            "address": "Madikeri, Madikeri taluku, Kodagu, Karnataka, India",
            "latitude": "12.4204003",
            "locType": "town",
            "closest_to": "hassan"
        },
        "golden temple": {
            "blogLinks": [
                "http://goindia.about.com/od/karnataka/tp/karnataka.htm"
            ],
            "longitude": "75.9674656",
            "address": "Padmasambhava Buddhist Vihara (Golden Temple), MDR21, Koppa, Piriyapattana taluk, Mysuru district, Karnataka, India",
            "latitude": "12.430821",
            "locType": "place_of_worship",
            "closest_to": "hassan"
        },
        "venur": {
            "blogLinks": [
                "https://en.wikipedia.org/wiki/Tourism_in_Karnataka"
            ],
            "longitude": "75.1443252",
            "address": "Venoor, Beltangadi taluk, Dakshina Kannada, Karnataka, 574242, India",
            "latitude": "13.0122097",
            "locType": "village",
            "closest_to": "hassan"
        },
        "tumkur district": {
            "blogLinks": [
                "https://en.wikipedia.org/wiki/Chitradurga_district"
            ],
            "longitude": "76.8817530420764",
            "address": "Tumkur district, Karnataka, India",
            "latitude": "13.4176169",
            "locType": "administrative",
            "closest_to": "hassan"
        },
        "mandya": {
            "blogLinks": [
                "https://en.wikipedia.org/wiki/Tourism_in_Karnataka",
                "http://www.mapsofindia.com/maps/karnataka/"
            ],
            "longitude": "76.8937392",
            "address": "Mandya, Mandya taluk, Mandya district, Karnataka, 571401, India",
            "latitude": "12.5217836",
            "locType": "town",
            "closest_to": "hassan"
        },
        "tungabhadra river": {
            "blogLinks": [
                "https://en.wikipedia.org/wiki/Chitradurga_district"
            ],
            "longitude": "76.4931607",
            "address": "Tungabhadra, Gangavati taluku, Koppal district, Karnataka, India",
            "latitude": "15.3446123",
            "locType": "river",
            "closest_to": "chitradurga"
        },
        "hasanamba temple": {
            "blogLinks": [
                "http://www.nivalink.com/destination/hassan"
            ],
            "longitude": "76.0946142",
            "address": "Sri Hasanamba Temple, Hosaline Road, Ravindra Nagar, Santhe Pete, Hassan, Hasana taluk, Hassan district, Karnataka, 573201, India",
            "latitude": "13.0027589",
            "locType": "place_of_worship",
            "closest_to": "hassan"
        },
        "somnathpur": {
            "blogLinks": [
                "http://www.indiamike.com/india/karnataka-f38/places-to-go-in-south-karnataka-t102701/"
            ],
            "longitude": "76.8833039",
            "address": "Somanathapura, Tirumakudalu Narasipura taluk, Mysuru district, Karnataka, India",
            "latitude": "12.2761528",
            "locType": "village",
            "closest_to": "hassan"
        },
        "us": {
            "blogLinks": [
                "https://en.wikipedia.org/wiki/Chitradurga_district"
            ],
            "longitude": "75.7223521",
            "address": "Karnataka, India",
            "latitude": "14.5203896",
            "locType": "administrative",
            "closest_to": "chitradurga"
        },
        "hassan district": {
            "blogLinks": [
                "https://en.wikipedia.org/wiki/Tourism_in_Karnataka",
                "http://www.holidayiq.com/Hassan-Sightseeing-374.html",
                "http://www.holidayiq.com/destinations/sakleshpur/"
            ],
            "longitude": "76.1745460751981",
            "address": "Hassan district, Karnataka, India",
            "latitude": "13.0315068",
            "locType": "administrative",
            "closest_to": "hassan"
        },
        "kalaseshwara temple": {
            "blogLinks": [
                "http://www.nivalink.com/destination/hassan"
            ],
            "longitude": "75.363446975",
            "address": "Kalaseshwara Temple, SH66, Kalasa, Mudigere taluk, Chikkamagaluru district, Karnataka, 577124, India",
            "latitude": "13.23228505",
            "locType": "place_of_worship",
            "closest_to": "hassan"
        },
        "mysore airport": {
            "blogLinks": [
                "http://www.ticketgoose.com/bus-tickets/hassan-to-chitradurga"
            ],
            "longitude": "76.658194",
            "address": "Mysore Mandakalli Airport, NH766, JP Nagar, Marashe, Mysuru taluk, Mysuru district, Karnataka, India",
            "latitude": "12.2278498",
            "locType": "terminal",
            "closest_to": "hassan"
        },
        "haveri district": {
            "blogLinks": [
                "https://en.wikipedia.org/wiki/Tourism_in_Karnataka"
            ],
            "longitude": "75.3845674304742",
            "address": "Haveri district, Karnataka, India",
            "latitude": "14.714635",
            "locType": "administrative",
            "closest_to": "chitradurga"
        },
        "kudremukh national park": {
            "blogLinks": [
                "https://en.wikipedia.org/wiki/Tourism_in_Karnataka"
            ],
            "longitude": "75.1828713712862",
            "address": "Kudremukh National Park, SH66, Sringeri taluku, Chikkamagaluru district, Karnataka, India",
            "latitude": "13.25397485",
            "locType": "national_park",
            "closest_to": "hassan"
        },
        "srirangapatna": {
            "blogLinks": [
                "https://en.wikipedia.org/wiki/Tourism_in_Karnataka"
            ],
            "longitude": "76.6850743",
            "address": "Srirangapatna, Srirangapattana taluk, Mandya district, Karnataka, 571438, India",
            "latitude": "12.4225604",
            "locType": "town",
            "closest_to": "hassan"
        },
        "hiriyur": {
            "blogLinks": [
                "https://en.wikipedia.org/wiki/Chitradurga_district"
            ],
            "longitude": "76.1879166",
            "address": "Hiriyur, Arasikere taluku, Hassan district, Karnataka, India",
            "latitude": "13.340224",
            "locType": "village",
            "closest_to": "hassan"
        },
        "mysore maharaja": {
            "blogLinks": [
                "https://en.wikipedia.org/wiki/Chitradurga_district"
            ],
            "longitude": "76.6596385",
            "address": "Maharaja Hotel Mysore, Bangalore Nilgiri Road, Mandi Mohalla, Mysuru, Mysuru taluk, Mysuru district, Karnataka, 570001, India",
            "latitude": "12.3112197",
            "locType": "hotel",
            "closest_to": "hassan"
        },
        "sirigere": {
            "blogLinks": [
                "https://en.wikipedia.org/wiki/Tourism_in_Karnataka"
            ],
            "longitude": "76.2051907",
            "address": "Sirigere, Chitradurga taluku, Chitradurga district, Karnataka, India",
            "latitude": "14.2840739",
            "locType": "village",
            "closest_to": "chitradurga"
        },
        "chitradurga": {
            "blogLinks": [
                "http://www.ticketgoose.com/bus-tickets/hassan-to-chitradurga",
                "http://www.holidayiq.com/Chitradurga-Sightseeing-650.html",
                "https://en.wikipedia.org/wiki/Tourism_in_Karnataka",
                "http://www.distancesfrom.com/distance-from-Chitradurga-to-Hassan/DistanceHistory/25012.aspx",
                "http://www.indiamike.com/india/karnataka-f38/places-to-go-in-south-karnataka-t102701/",
                "http://www.inditales.com/chitradurga-chandravalli-jogimatti/",
                "http://www.distancesfrom.com/in/flight-distance-from-Chitradurga-to-Hassan/FlightHistory/33240730.aspx",
                "https://en.wikipedia.org/wiki/Chitradurga_district"
            ],
            "longitude": "76.4005122",
            "address": "Chitradurga, Chitradurga taluku, Chitradurga district, Karnataka, 577500, India",
            "latitude": "14.2266443",
            "locType": "town",
            "closest_to": "hassan"
        },
        "nagarahole national park": {
            "blogLinks": [
                "https://en.wikipedia.org/wiki/Tourism_in_Karnataka"
            ],
            "longitude": "76.1537073415874",
            "address": "Nagarahole National Park, Virajpet taluk, Kodagu, Karnataka, India",
            "latitude": "12.0600362",
            "locType": "national_park",
            "closest_to": "hassan"
        },
        "bellary": {
            "blogLinks": [
                "https://en.wikipedia.org/wiki/Tourism_in_Karnataka",
                "http://www.mapsofindia.com/maps/karnataka/"
            ],
            "longitude": "76.8323648",
            "address": "Bellary, Bellary district, Karnataka, India",
            "latitude": "15.2485413",
            "locType": "county",
            "closest_to": "chitradurga"
        },
        "mandya district": {
            "blogLinks": [
                "https://en.wikipedia.org/wiki/Tourism_in_Karnataka"
            ],
            "longitude": "76.7302318329607",
            "address": "Mandya district, Karnataka, India",
            "latitude": "12.6336348",
            "locType": "administrative",
            "closest_to": "hassan"
        },
        "dattatreya": {
            "blogLinks": [
                "https://en.wikipedia.org/wiki/Tourism_in_Karnataka"
            ],
            "longitude": "75.7539724",
            "address": "Inam Dattatreya Pitha, Chikkamagaluru taluku, Chikkamagaluru district, Karnataka, India",
            "latitude": "13.4315216",
            "locType": "hamlet",
            "closest_to": "hassan"
        },
        "hebbe falls": {
            "blogLinks": [
                "https://en.wikipedia.org/wiki/Tourism_in_Karnataka"
            ],
            "longitude": "75.7253701",
            "address": "Hebbe falls, Kemmannagundi Road, Attigundi, Chikkamagaluru taluku, Chikkamagaluru district, Karnataka, India",
            "latitude": "13.5414025",
            "locType": "attraction",
            "closest_to": "hassan"
        },
        "belavadi": {
            "blogLinks": [
                "https://en.wikipedia.org/wiki/Tourism_in_Karnataka"
            ],
            "longitude": "75.3760773",
            "address": "Belavadi, Koppa taluk, Chikkamagaluru district, Karnataka, India",
            "latitude": "13.5284899",
            "locType": "village",
            "closest_to": "hassan"
        },
        "mysuru": {
            "blogLinks": [
                "http://www.distancesfrom.com/in/flight-distance-from-Chitradurga-to-Hassan/FlightHistory/33240730.aspx",
                "http://www.inditales.com/chitradurga-chandravalli-jogimatti/",
                "http://www.holidayiq.com/destinations/sakleshpur/"
            ],
            "longitude": "76.6553609",
            "address": "Mysuru, Mysuru taluk, Mysuru district, Karnataka, 570001, India",
            "latitude": "12.3051828",
            "locType": "city",
            "closest_to": "hassan"
        },
        "vedavati river": {
            "blogLinks": [
                "http://www.holidayiq.com/Chitradurga-Sightseeing-650.html",
                "https://en.wikipedia.org/wiki/Chitradurga_district"
            ],
            "longitude": "76.1347937",
            "address": "Vedavati, Kaduru taluk, Chikkamagaluru district, Karnataka, India",
            "latitude": "13.6048777",
            "locType": "river",
            "closest_to": "hassan"
        },
        "varada": {
            "blogLinks": [
                "https://en.wikipedia.org/wiki/Tourism_in_Karnataka"
            ],
            "longitude": "75.47206",
            "address": "Varada, Savanura taluk, Haveri district, Karnataka, India",
            "latitude": "14.8717792",
            "locType": "river",
            "closest_to": "chitradurga"
        },
        "rock garden": {
            "blogLinks": [
                "https://en.wikipedia.org/wiki/Tourism_in_Karnataka"
            ],
            "longitude": "75.6142269",
            "address": "Waterfalls by the Rock site, Madikeri taluku, Kodagu, Karnataka, India",
            "latitude": "12.2248591",
            "locType": "waterfall",
            "closest_to": "hassan"
        }
    }
}