{
    "dandeli": {
        "place_id": "5820025",
        "osm_id": "612546262",
        "icon": "https://nominatim.openstreetmap.org/images/mapicons/poi_place_town.p.20.png",
        "osm_type": "node",
        "licence": "Data \u00a9 OpenStreetMap contributors, ODbL 1.0. http://www.openstreetmap.org/copyright",
        "display_name": "Dandeli, Haliyala taluku, Uttara Kannada, Karnataka, 581325, India",
        "type": "town",
        "lon": "74.6236037",
        "boundingbox": [
            "15.2090284",
            "15.2890284",
            "74.5836037",
            "74.6636037"
        ],
        "importance": 0.5,
        "lat": "15.2490284",
        "class": "place"
    },
    "manipal": {
        "place_id": "14794110",
        "osm_id": "1351009057",
        "icon": "https://nominatim.openstreetmap.org/images/mapicons/poi_place_town.p.20.png",
        "osm_type": "node",
        "licence": "Data \u00a9 OpenStreetMap contributors, ODbL 1.0. http://www.openstreetmap.org/copyright",
        "display_name": "Manipal, Udupi taluku, Udupi district, Karnataka, India",
        "type": "town",
        "lon": "74.7870308",
        "boundingbox": [
            "13.3119723",
            "13.3919723",
            "74.7470308",
            "74.8270308"
        ],
        "importance": 0.5,
        "lat": "13.3519723",
        "class": "place"
    },
    "mentions": {
        "ratnagiri highway": {
            "closest_to": "manipal",
            "address": "Ratnagiri Road, Basavannahalli, Chikkamagaluru, Chikkamagaluru taluku, Chikkamagaluru district, Karnataka, 577101, India",
            "longitude": "75.7727724",
            "latitude": "13.3292344",
            "blogLinks": [
                "http://www.nivalink.com/destination/dandeli"
            ],
            "locType": "secondary"
        },
        "malpe beach": {
            "closest_to": "manipal",
            "address": "Malpe Beach, Malpe Road, Adi Udupi, Malpe, Udupi taluku, Udupi district, Karnataka, 576101, India",
            "longitude": "74.6977767",
            "latitude": "13.3610748",
            "blogLinks": [
                "http://www.ticketgoose.com/bus-tickets/dandeli-to-manipal",
                "http://manipalblog.com/2012/04/06/5-places-you-can-visit-on-weekends-in-manipal-tips-for-the-foreign-exchange-student/"
            ],
            "locType": "marina"
        },
        "manipal": {
            "closest_to": "manipal",
            "address": "Manipal, Udupi taluku, Udupi district, Karnataka, India",
            "longitude": "74.7870308",
            "latitude": "13.3519723",
            "blogLinks": [
                "http://manipalblog.com/2012/04/06/5-places-you-can-visit-on-weekends-in-manipal-tips-for-the-foreign-exchange-student/"
            ],
            "locType": "town"
        },
        "kannur": {
            "closest_to": "manipal",
            "address": "Netravati bridge - Kannur Bypass Road (Proposed), Padil, Bajal, Mangaluru taluk, Dakshina Kannada, Karnataka, 575007, India",
            "longitude": "74.8858161",
            "latitude": "12.8487602",
            "blogLinks": [
                "http://www.nivalink.com/destination/manipal"
            ],
            "locType": "construction"
        },
        "bejai": {
            "closest_to": "manipal",
            "address": "Bejai Main Road, Kuntikan, Kadri, Mangaluru, Mangaluru taluk, Dakshina Kannada, Karnataka, 575001, India",
            "longitude": "74.8534469",
            "latitude": "12.8903184",
            "blogLinks": [
                "http://manipalblog.com/2012/05/25/9-places-of-interest-around-mangalore-you-can-visit-this-weekend/"
            ],
            "locType": "primary"
        },
        "badami": {
            "closest_to": "dandeli",
            "address": "Badami, Badami taluku, Bagalkote district, Karnataka, 587200, India",
            "longitude": "75.6807865",
            "latitude": "15.9203874",
            "blogLinks": [
                "http://www.hoparoundindia.com/state-guides/karnataka.aspx"
            ],
            "locType": "town"
        },
        "linganamakki reservoir": {
            "closest_to": "manipal",
            "address": "Linganamakki Reservoir, Hosanagara taluk, Shimoga district, Karnataka, India",
            "longitude": "75.0410123818511",
            "latitude": "14.0035104",
            "blogLinks": [
                "http://www.beontheroad.com/2014/06/top-10-monsoon-holidays-in-karnataka.html"
            ],
            "locType": "water"
        },
        "anegudde": {
            "closest_to": "manipal",
            "address": "Anegudde Ganapathi Temple, Anugudde Ganapathi Temple Road, Vaderahobali, Kumbhashi, \u0c95\u0cc1\u0c82\u0ca6\u0cbe\u0caa\u0cc1\u0cb0 \u0ca4\u0cbe\u0cb2\u0cc2\u0c95\u0cc1, Udupi district, Karnataka, 576231, India",
            "longitude": "74.70466635",
            "latitude": "13.56926545",
            "blogLinks": [
                "http://www.hoparoundindia.com/state-guides/karnataka.aspx"
            ],
            "locType": "place_of_worship"
        },
        "unchalli falls": {
            "closest_to": "manipal",
            "address": "\u0c89\u0c82\u0c9a\u0cb3\u0ccd\u0cb3\u0cbf \u0c9c\u0cb2\u0caa\u0cbe\u0ca4, Siddapura taluk, Uttara Kannada, Karnataka, India",
            "longitude": "74.7477592",
            "latitude": "14.4097755",
            "blogLinks": [
                "https://www.quora.com/What-are-some-good-places-to-visit-on-the-Goa-Mangalore-route"
            ],
            "locType": "waterfall"
        },
        "kundapur": {
            "closest_to": "manipal",
            "address": "United Basel mission church Higher Primary School, Kundapur, Chikkansal Road, Vaderahobali, Kundapura, \u0c95\u0cc1\u0c82\u0ca6\u0cbe\u0caa\u0cc1\u0cb0 \u0ca4\u0cbe\u0cb2\u0cc2\u0c95\u0cc1, Udupi district, Karnataka, 576200, India",
            "longitude": "74.6906749",
            "latitude": "13.6343509",
            "blogLinks": [
                "https://www.quora.com/What-are-some-good-places-to-visit-on-the-Goa-Mangalore-route"
            ],
            "locType": "school"
        },
        "mahakali": {
            "closest_to": "manipal",
            "address": "Mahakali Marga, Ambalapadi, Udupi, Udupi taluku, Udupi district, Karnataka, 576101, India",
            "longitude": "74.7253262",
            "latitude": "13.3420788",
            "blogLinks": [
                "http://www.nivalink.com/destination/manipal"
            ],
            "locType": "residential"
        },
        "gangamula": {
            "closest_to": "manipal",
            "address": "Gangamula, Sringeri taluku, Chikkamagaluru district, Karnataka, India",
            "longitude": "75.1619502",
            "latitude": "13.2494821",
            "blogLinks": [
                "http://manipalblog.com/2012/05/25/9-places-of-interest-around-mangalore-you-can-visit-this-weekend/"
            ],
            "locType": "peak"
        },
        "tirupati": {
            "closest_to": "manipal",
            "address": "Malekallu Tirupathi, Arasikere taluku, Hassan district, Karnataka, India",
            "longitude": "76.2727455",
            "latitude": "13.3289007",
            "blogLinks": [
                "https://www.quora.com/What-are-some-good-places-to-visit-on-the-Goa-Mangalore-route"
            ],
            "locType": "village"
        },
        "mudushedde": {
            "closest_to": "manipal",
            "address": "Mudushedde, Mangaluru taluk, Dakshina Kannada, Karnataka, India",
            "longitude": "74.8869336",
            "latitude": "12.9277738",
            "blogLinks": [
                "http://manipalblog.com/2012/05/25/9-places-of-interest-around-mangalore-you-can-visit-this-weekend/"
            ],
            "locType": "village"
        },
        "mangalore railway station": {
            "closest_to": "manipal",
            "address": "Hotels in Mangalore Near Railway Station  (Reiseb\u00fcro ), SH67, Gandhinagar, Kenjar, Mangaluru taluk, Dakshina Kannada, Karnataka, 575015, India",
            "longitude": "74.8680725",
            "latitude": "12.9519663",
            "blogLinks": [
                "http://www.nivalink.com/destination/manipal"
            ],
            "locType": "travel_agent"
        },
        "moodabidri": {
            "closest_to": "manipal",
            "address": "Moodabidri, Mangaluru taluk, Dakshina Kannada, Karnataka, 574227, India",
            "longitude": "74.9977469",
            "latitude": "13.0699218",
            "blogLinks": [
                "http://www.hoparoundindia.com/state-guides/karnataka.aspx"
            ],
            "locType": "town"
        },
        "kukke": {
            "closest_to": "manipal",
            "address": "Kukke, Tirthahalli taluk, Shimoga district, Karnataka, India",
            "longitude": "75.3076538",
            "latitude": "13.7523964",
            "blogLinks": [
                "http://www.hoparoundindia.com/state-guides/karnataka.aspx"
            ],
            "locType": "village"
        },
        "river nagajhari": {
            "closest_to": "dandeli",
            "address": "Nagajhari School, Belgaum - Panaji Highway, Cantonment, Belagavi, Belagavi taluku, Belgaum district, Karnataka, 590001, India",
            "longitude": "74.5013412",
            "latitude": "15.8351706",
            "blogLinks": [
                "http://travel.india.com/dandeli/"
            ],
            "locType": "school"
        },
        "river kaneri": {
            "closest_to": "manipal",
            "address": "Kaneri, Joida taluk, Uttara Kannada, Karnataka, India",
            "longitude": "74.4834864",
            "latitude": "15.0680686",
            "blogLinks": [
                "http://travel.india.com/dandeli/"
            ],
            "locType": "river"
        },
        "kali": {
            "closest_to": "manipal",
            "address": "Kali, Joida taluk, Uttara Kannada, Karnataka, India",
            "longitude": "74.5802901",
            "latitude": "15.0145378",
            "blogLinks": [
                "http://www.nivalink.com/destination/dandeli"
            ],
            "locType": "river"
        },
        "mahakali temple": {
            "closest_to": "manipal",
            "address": "Mahakali and Janardhana Temple, Mahakali Marga, Ambalapadi, Udupi, Udupi taluku, Udupi district, Karnataka, 576101, India",
            "longitude": "74.7307174382814",
            "latitude": "13.3371922",
            "blogLinks": [
                "http://www.nivalink.com/destination/manipal"
            ],
            "locType": "place_of_worship"
        },
        "udupi railway station": {
            "closest_to": "manipal",
            "address": "Udupi Railway Station, Railway Godown Road, Indrali, Udupi, Udupi taluku, Udupi district, Karnataka, 576101, India",
            "longitude": "74.7710217",
            "latitude": "13.3360878",
            "blogLinks": [
                "http://travel.india.com/dandeli/"
            ],
            "locType": "station"
        },
        "half moon beach": {
            "closest_to": "manipal",
            "address": "Half Moon Beach, Om beach road, Gokarna, Kumata taluk, Uttara Kannada, Karnataka, 581326, India",
            "longitude": "74.3310971256284",
            "latitude": "14.5179028",
            "blogLinks": [
                "https://www.quora.com/What-are-some-good-places-to-visit-on-the-Goa-Mangalore-route"
            ],
            "locType": "beach"
        },
        "karwar": {
            "closest_to": "manipal",
            "address": "Karwar, Karavara taluk, Uttara Kannada, Karnataka, 581300, India",
            "longitude": "74.1319229",
            "latitude": "14.8120931",
            "blogLinks": [
                "https://www.quora.com/What-are-some-good-places-to-visit-on-the-Goa-Mangalore-route",
                "http://www.hoparoundindia.com/state-guides/karnataka.aspx"
            ],
            "locType": "town"
        },
        "anshi": {
            "closest_to": "manipal",
            "address": "Anshi, Joida taluk, Uttara Kannada, Karnataka, India",
            "longitude": "74.3708809",
            "latitude": "14.9925559",
            "blogLinks": [
                "http://www.nivalink.com/destination/dandeli"
            ],
            "locType": "village"
        },
        "ganeshgudi": {
            "closest_to": "dandeli",
            "address": "Ganeshagudi, Joida taluk, Uttara Kannada, Karnataka, India",
            "longitude": "74.5335693",
            "latitude": "15.2815822",
            "blogLinks": [
                "http://www.nivalink.com/destination/dandeli"
            ],
            "locType": "village"
        },
        "udupi": {
            "closest_to": "manipal",
            "address": "Udupi, Udupi taluku, Udupi district, Karnataka, 576101, India",
            "longitude": "74.7473232",
            "latitude": "13.3419169",
            "blogLinks": [
                "http://www.ticketgoose.com/bus-tickets/dandeli-to-manipal",
                "http://www.nivalink.com/destination/manipal",
                "http://www.hoparoundindia.com/state-guides/karnataka.aspx"
            ],
            "locType": "city"
        },
        "bijapur": {
            "closest_to": "dandeli",
            "address": "Vijayapura, Vijayapura taluk, Bijapur district, Karnataka, 586101, India",
            "longitude": "75.7175387",
            "latitude": "16.8269911",
            "blogLinks": [
                "http://www.hoparoundindia.com/state-guides/karnataka.aspx",
                "http://www.nivalink.com/destination/dandeli"
            ],
            "locType": "city"
        },
        "south west": {
            "closest_to": "manipal",
            "address": "Karnataka, India",
            "longitude": "75.7223521",
            "latitude": "14.5203896",
            "blogLinks": [
                "http://manipalblog.com/2012/05/25/9-places-of-interest-around-mangalore-you-can-visit-this-weekend/"
            ],
            "locType": "administrative"
        },
        "kaneri": {
            "closest_to": "manipal",
            "address": "Kaneri, Joida taluk, Uttara Kannada, Karnataka, India",
            "longitude": "74.4834864",
            "latitude": "15.0680686",
            "blogLinks": [
                "http://www.nivalink.com/destination/dandeli"
            ],
            "locType": "river"
        },
        "kapu beach": {
            "closest_to": "manipal",
            "address": "Kapu Beach, NH66, Mallaru, Udupi taluku, Udupi district, Karnataka, India",
            "longitude": "74.7388930883129",
            "latitude": "13.2187564",
            "blogLinks": [
                "http://www.ticketgoose.com/bus-tickets/dandeli-to-manipal",
                "http://manipalblog.com/2012/04/06/5-places-you-can-visit-on-weekends-in-manipal-tips-for-the-foreign-exchange-student/"
            ],
            "locType": "beach"
        },
        "kalaseshwara temple": {
            "closest_to": "manipal",
            "address": "Kalaseshwara Temple, SH66, Kalasa, Mudigere taluk, Chikkamagaluru district, Karnataka, 577124, India",
            "longitude": "75.363446975",
            "latitude": "13.23228505",
            "blogLinks": [
                "http://www.nivalink.com/destination/manipal"
            ],
            "locType": "place_of_worship"
        },
        "shravanabelagola": {
            "closest_to": "manipal",
            "address": "Shravanabelagola, Channarayapattana taluk, Hassan district, Karnataka, 573135, India",
            "longitude": "76.4869997",
            "latitude": "12.8581305",
            "blogLinks": [
                "http://www.hoparoundindia.com/state-guides/karnataka.aspx"
            ],
            "locType": "town"
        },
        "mangalore district": {
            "closest_to": "manipal",
            "address": "Mangalore Tiles Pvt Ltd, Vaderahobali, Kodi, \u0c95\u0cc1\u0c82\u0ca6\u0cbe\u0caa\u0cc1\u0cb0 \u0ca4\u0cbe\u0cb2\u0cc2\u0c95\u0cc1, Udupi district, Karnataka, 576201, India",
            "longitude": "74.6783124676725",
            "latitude": "13.628752",
            "blogLinks": [
                "http://manipalblog.com/2012/05/25/9-places-of-interest-around-mangalore-you-can-visit-this-weekend/"
            ],
            "locType": "industrial"
        },
        "puttur": {
            "closest_to": "manipal",
            "address": "Putturu, Putturu taluk, Dakshina Kannada, Karnataka, 574200, India",
            "longitude": "75.2018421",
            "latitude": "12.7632858",
            "blogLinks": [
                "http://manipalblog.com/2012/05/25/9-places-of-interest-around-mangalore-you-can-visit-this-weekend/",
                "https://www.yatra.com/travel/weekend/"
            ],
            "locType": "town"
        },
        "sowparnika": {
            "closest_to": "manipal",
            "address": "Sowparnika Guest House, NH766C;SH26, Kollur, \u0c95\u0cc1\u0c82\u0ca6\u0cbe\u0caa\u0cc1\u0cb0 \u0ca4\u0cbe\u0cb2\u0cc2\u0c95\u0cc1, Udupi district, Karnataka, 576220, India",
            "longitude": "74.8121600727933",
            "latitude": "13.86533575",
            "blogLinks": [
                "http://www.beontheroad.com/2014/06/top-10-monsoon-holidays-in-karnataka.html"
            ],
            "locType": "guest_house"
        },
        "sringeri": {
            "closest_to": "manipal",
            "address": "Sringeri, Sringeri taluku, Chikkamagaluru district, Karnataka, 577592, India",
            "longitude": "75.2553718",
            "latitude": "13.4261724",
            "blogLinks": [
                "http://www.hoparoundindia.com/state-guides/karnataka.aspx"
            ],
            "locType": "town"
        },
        "st. marys island": {
            "closest_to": "manipal",
            "address": "Thonse Par (St. Mary's Island), Udupi, Udupi district, Karnataka, 576101, India",
            "longitude": "74.673344375479",
            "latitude": "13.37920635",
            "blogLinks": [
                "http://manipalblog.com/2012/04/06/5-places-you-can-visit-on-weekends-in-manipal-tips-for-the-foreign-exchange-student/"
            ],
            "locType": "island"
        },
        "mangalore airport": {
            "closest_to": "manipal",
            "address": "Mangalore International Airport, Airport Entry Road, Gandhinagar, Kenjar, Mangaluru taluk, Dakshina Kannada, Karnataka, 575015, India",
            "longitude": "74.887492668144",
            "latitude": "12.95518575",
            "blogLinks": [
                "http://www.ticketgoose.com/bus-tickets/dandeli-to-manipal",
                "http://www.nivalink.com/destination/manipal"
            ],
            "locType": "aerodrome"
        },
        "murudeshwara": {
            "closest_to": "manipal",
            "address": "Murudeshwara, Bhatkala taluk, Uttara Kannada, Karnataka, 581350, India",
            "longitude": "74.4883354",
            "latitude": "14.0959549",
            "blogLinks": [
                "http://www.hoparoundindia.com/state-guides/karnataka.aspx"
            ],
            "locType": "town"
        },
        "aihole": {
            "closest_to": "dandeli",
            "address": "Aihole, Hunagunda taluku, Bagalkote district, Karnataka, India",
            "longitude": "75.8819129",
            "latitude": "16.0192298",
            "blogLinks": [
                "http://www.hoparoundindia.com/state-guides/karnataka.aspx"
            ],
            "locType": "village"
        },
        "dakshin kannada": {
            "closest_to": "manipal",
            "address": "Dakshin Court, NH73, Kaikunje, Bantwal Cross Road, Bantwal taluk, Dakshina Kannada, Karnataka, India",
            "longitude": "75.0309089",
            "latitude": "12.8827367",
            "blogLinks": [
                "http://manipalblog.com/2012/05/25/9-places-of-interest-around-mangalore-you-can-visit-this-weekend/"
            ],
            "locType": "restaurant"
        },
        "pattadakal": {
            "closest_to": "dandeli",
            "address": "Pattadakal Temples, SH14, \u0cac\u0cbe\u0c9a\u0cbf\u0ca8\u0c97\u0cc1\u0ca1\u0ccd\u0ca1, Badami taluku, Bagalkote district, Karnataka, 587211, India",
            "longitude": "75.815884048161",
            "latitude": "15.9506349",
            "blogLinks": [
                "http://www.hoparoundindia.com/state-guides/karnataka.aspx"
            ],
            "locType": "attraction"
        },
        "st. aloysius chapel": {
            "closest_to": "manipal",
            "address": "St. Aloysius Chapel, St Aloysius Internal Road, Dongerkeri, Mallikatte, Mangaluru, Mangaluru taluk, Dakshina Kannada, Karnataka, 575001, India",
            "longitude": "74.8453615",
            "latitude": "12.8737995",
            "blogLinks": [
                "http://manipalblog.com/2012/05/25/9-places-of-interest-around-mangalore-you-can-visit-this-weekend/"
            ],
            "locType": "place_of_worship"
        },
        "bejai circle": {
            "closest_to": "manipal",
            "address": "Bejai Main Road, Kuntikan, Kadri, Mangaluru, Mangaluru taluk, Dakshina Kannada, Karnataka, 575001, India",
            "longitude": "74.8534469",
            "latitude": "12.8903184",
            "blogLinks": [
                "http://manipalblog.com/2012/05/25/9-places-of-interest-around-mangalore-you-can-visit-this-weekend/"
            ],
            "locType": "primary"
        },
        "kudremukh national park": {
            "closest_to": "manipal",
            "address": "Kudremukh National Park, SH66, Sringeri taluku, Chikkamagaluru district, Karnataka, India",
            "longitude": "75.1828713712862",
            "latitude": "13.25397485",
            "blogLinks": [
                "http://manipalblog.com/2012/05/25/9-places-of-interest-around-mangalore-you-can-visit-this-weekend/"
            ],
            "locType": "national_park"
        },
        "kudremukh": {
            "closest_to": "manipal",
            "address": "Kudremukha, Mudigere taluk, Chikkamagaluru district, Karnataka, India",
            "longitude": "75.2523304",
            "latitude": "13.2144007",
            "blogLinks": [
                "http://www.beontheroad.com/2014/06/top-10-monsoon-holidays-in-karnataka.html",
                "http://manipalblog.com/2012/05/25/9-places-of-interest-around-mangalore-you-can-visit-this-weekend/"
            ],
            "locType": "village"
        },
        "puttur taluk": {
            "closest_to": "manipal",
            "address": "Putturu, Putturu taluk, Dakshina Kannada, Karnataka, 574200, India",
            "longitude": "75.2018421",
            "latitude": "12.7632858",
            "blogLinks": [
                "http://manipalblog.com/2012/05/25/9-places-of-interest-around-mangalore-you-can-visit-this-weekend/"
            ],
            "locType": "town"
        },
        "annapoorneshwari temple": {
            "closest_to": "manipal",
            "address": "Sri Ambika Annapoorneshwari Temple, SH101, Sunkadakatte, Mangaluru taluk, Dakshina Kannada, Karnataka, India",
            "longitude": "74.9006001",
            "latitude": "12.97910715",
            "blogLinks": [
                "http://www.hoparoundindia.com/state-guides/karnataka.aspx"
            ],
            "locType": "place_of_worship"
        },
        "hampi": {
            "closest_to": "dandeli",
            "address": "Hampe, Hosapete taluk, Bellary district, Karnataka, 583239, India",
            "longitude": "76.4606199",
            "latitude": "15.3359769",
            "blogLinks": [
                "http://www.hoparoundindia.com/state-guides/karnataka.aspx",
                "http://www.nivalink.com/destination/dandeli"
            ],
            "locType": "village"
        },
        "malnad": {
            "closest_to": "manipal",
            "address": "Malnad Hospital, Mudigere-Kadur Road, Chikkamagaluru, Chikkamagaluru taluku, Chikkamagaluru district, Karnataka, 577101, India",
            "longitude": "75.7715495",
            "latitude": "13.3160351",
            "blogLinks": [
                "http://manipalblog.com/2012/05/25/9-places-of-interest-around-mangalore-you-can-visit-this-weekend/"
            ],
            "locType": "hospital"
        },
        "shivagange": {
            "closest_to": "manipal",
            "address": "Shivagange, Tarikere taluku, Chikkamagaluru district, Karnataka, India",
            "longitude": "75.8053098",
            "latitude": "13.7124321",
            "blogLinks": [
                "http://www.hoparoundindia.com/state-guides/karnataka.aspx"
            ],
            "locType": "village"
        },
        "malpe": {
            "closest_to": "manipal",
            "address": "Malpe, Udupi taluku, Udupi district, Karnataka, India",
            "longitude": "74.7036914",
            "latitude": "13.3507423",
            "blogLinks": [
                "http://www.hoparoundindia.com/state-guides/karnataka.aspx"
            ],
            "locType": "village"
        },
        "kundapura": {
            "closest_to": "manipal",
            "address": "Kundapura, \u0c95\u0cc1\u0c82\u0ca6\u0cbe\u0caa\u0cc1\u0cb0 \u0ca4\u0cbe\u0cb2\u0cc2\u0c95\u0cc1, Udupi district, Karnataka, 576200, India",
            "longitude": "74.6915722",
            "latitude": "13.6250993",
            "blogLinks": [
                "http://www.nivalink.com/destination/manipal",
                "http://www.nivalink.com/destination/dandeli"
            ],
            "locType": "town"
        },
        "panaji": {
            "closest_to": "dandeli",
            "address": "Belgaum - Panaji Highway, Londa, Khanapura taluku, Belgaum district, Karnataka, India",
            "longitude": "74.4876784",
            "latitude": "15.4422981",
            "blogLinks": [
                "https://www.tripoto.com/weekend-getaways/from-manipal",
                "https://www.tripoto.com/weekend-getaways/from-dandeli"
            ],
            "locType": "trunk"
        },
        "om beach": {
            "closest_to": "manipal",
            "address": "Om Beach, Om beach road, Gokarna, Kumata taluk, Uttara Kannada, Karnataka, 581326, India",
            "longitude": "74.3254331800289",
            "latitude": "14.5190376",
            "blogLinks": [
                "https://www.quora.com/What-are-some-good-places-to-visit-on-the-Goa-Mangalore-route"
            ],
            "locType": "beach"
        },
        "kollur": {
            "closest_to": "manipal",
            "address": "Kollur, \u0c95\u0cc1\u0c82\u0ca6\u0cbe\u0caa\u0cc1\u0cb0 \u0ca4\u0cbe\u0cb2\u0cc2\u0c95\u0cc1, Udupi district, Karnataka, 576220, India",
            "longitude": "74.8137959",
            "latitude": "13.8634049",
            "blogLinks": [
                "http://www.hoparoundindia.com/state-guides/karnataka.aspx"
            ],
            "locType": "village"
        },
        "kali river": {
            "closest_to": "manipal",
            "address": "Kali, Joida taluk, Uttara Kannada, Karnataka, India",
            "longitude": "74.5802901",
            "latitude": "15.0145378",
            "blogLinks": [
                "http://travel.india.com/dandeli/",
                "https://www.tripoto.com/weekend-getaways/from-dandeli",
                "http://www.hoparoundindia.com/state-guides/karnataka.aspx",
                "http://www.nivalink.com/destination/dandeli"
            ],
            "locType": "river"
        },
        "south goa": {
            "closest_to": "dandeli",
            "address": "Karnataka bank, NH66, Aquem, Fatorda, Margao, South Goa, Goa, 403600, India",
            "longitude": "73.9583411",
            "latitude": "15.2740083",
            "blogLinks": [
                "https://www.tripoto.com/weekend-getaways/from-dandeli"
            ],
            "locType": "bank"
        },
        "hubli": {
            "closest_to": "dandeli",
            "address": "Hubballi - \u0cb9\u0cc1\u0cac\u0ccd\u0cac\u0cb3\u0ccd\u0cb3\u0cbf, Hubballi taluku, Dharwad district, Karnataka, 580020, India",
            "longitude": "75.1379848",
            "latitude": "15.3518378",
            "blogLinks": [
                "http://www.nivalink.com/destination/dandeli"
            ],
            "locType": "city"
        },
        "mangalore": {
            "closest_to": "manipal",
            "address": "Mangaluru, Mangaluru taluk, Dakshina Kannada, Karnataka, 575001, India",
            "longitude": "74.8430082",
            "latitude": "12.8698101",
            "blogLinks": [
                "https://www.quora.com/What-are-some-good-places-to-visit-on-the-Goa-Mangalore-route",
                "http://www.nivalink.com/destination/manipal",
                "http://manipalblog.com/2012/05/25/9-places-of-interest-around-mangalore-you-can-visit-this-weekend/"
            ],
            "locType": "city"
        },
        "mundgod": {
            "closest_to": "manipal",
            "address": "Mundgod, Mundagoda taluk, Uttara Kannada, Karnataka, 581349, India",
            "longitude": "75.0371451",
            "latitude": "14.9705105",
            "blogLinks": [
                "http://www.nivalink.com/destination/dandeli"
            ],
            "locType": "village"
        },
        "sahasralinga": {
            "closest_to": "manipal",
            "address": "Sahasralinga, Shirasi taluk, Uttara Kannada, Karnataka, India",
            "longitude": "74.8077293",
            "latitude": "14.7197633",
            "blogLinks": [
                "https://www.quora.com/What-are-some-good-places-to-visit-on-the-Goa-Mangalore-route"
            ],
            "locType": "hamlet"
        },
        "lakya dam": {
            "closest_to": "manipal",
            "address": "Lakya Dam, Mudigere taluk, Chikkamagaluru district, Karnataka, India",
            "longitude": "75.2271128",
            "latitude": "13.2189611",
            "blogLinks": [
                "http://www.beontheroad.com/2014/06/top-10-monsoon-holidays-in-karnataka.html",
                "http://manipalblog.com/2012/05/25/9-places-of-interest-around-mangalore-you-can-visit-this-weekend/"
            ],
            "locType": "dam"
        },
        "belur": {
            "closest_to": "manipal",
            "address": "Belur, Beluru taluk, Hassan district, Karnataka, 573115, India",
            "longitude": "75.8634851",
            "latitude": "13.1645671",
            "blogLinks": [
                "http://www.hoparoundindia.com/state-guides/karnataka.aspx"
            ],
            "locType": "town"
        },
        "gokarna": {
            "closest_to": "manipal",
            "address": "Gokarna, Kumata taluk, Uttara Kannada, Karnataka, 581326, India",
            "longitude": "74.3184418",
            "latitude": "14.5439629",
            "blogLinks": [
                "https://www.quora.com/What-are-some-good-places-to-visit-on-the-Goa-Mangalore-route"
            ],
            "locType": "town"
        },
        "hebbe falls": {
            "closest_to": "manipal",
            "address": "Hebbe falls, Kemmannagundi Road, Attigundi, Chikkamagaluru taluku, Chikkamagaluru district, Karnataka, India",
            "longitude": "75.7253701",
            "latitude": "13.5414025",
            "blogLinks": [
                "http://www.beontheroad.com/2014/06/top-10-monsoon-holidays-in-karnataka.html"
            ],
            "locType": "attraction"
        },
        "margao": {
            "closest_to": "dandeli",
            "address": "Karnataka bank, NH66, Aquem, Fatorda, Margao, South Goa, Goa, 403600, India",
            "longitude": "73.9583411",
            "latitude": "15.2740083",
            "blogLinks": [
                "https://www.tripoto.com/weekend-getaways/from-manipal",
                "https://www.tripoto.com/weekend-getaways/from-dandeli"
            ],
            "locType": "bank"
        },
        "kundadri": {
            "closest_to": "manipal",
            "address": "Kundadri, Tirthahalli taluk, Shimoga district, Karnataka, India",
            "longitude": "75.1689994",
            "latitude": "13.5580148",
            "blogLinks": [
                "http://www.beontheroad.com/2014/06/top-10-monsoon-holidays-in-karnataka.html"
            ],
            "locType": "peak"
        },
        "moodbidri": {
            "closest_to": "manipal",
            "address": "Corpus Christi Church, Moodbidri, Solapur-Mangalore Highway, Miyyar, Karkala taluk, Udupi district, Karnataka, 574107, India",
            "longitude": "74.9956313829407",
            "latitude": "13.0656537",
            "blogLinks": [
                "http://www.nivalink.com/destination/manipal"
            ],
            "locType": "place_of_worship"
        },
        "river kali": {
            "closest_to": "manipal",
            "address": "Kali, Joida taluk, Uttara Kannada, Karnataka, India",
            "longitude": "74.5802901",
            "latitude": "15.0145378",
            "blogLinks": [
                "http://travel.india.com/dandeli/",
                "http://www.nivalink.com/destination/dandeli"
            ],
            "locType": "river"
        },
        "karkala": {
            "closest_to": "manipal",
            "address": "Karkala, Karkala taluk, Udupi district, Karnataka, 574104, India",
            "longitude": "74.9959586",
            "latitude": "13.2112826",
            "blogLinks": [
                "http://www.ticketgoose.com/bus-tickets/dandeli-to-manipal"
            ],
            "locType": "town"
        },
        "mookambika temple": {
            "closest_to": "manipal",
            "address": "Mukambika Devasthana, NH766C;SH26, Halkal, \u0c95\u0cc1\u0c82\u0ca6\u0cbe\u0caa\u0cc1\u0cb0 \u0ca4\u0cbe\u0cb2\u0cc2\u0c95\u0cc1, Udupi district, Karnataka, 576220, India",
            "longitude": "74.8145296",
            "latitude": "13.8638043",
            "blogLinks": [
                "http://www.hoparoundindia.com/state-guides/karnataka.aspx"
            ],
            "locType": "place_of_worship"
        },
        "belgaum railway station": {
            "closest_to": "dandeli",
            "address": "Belgaum, Belgaum - Panaji Highway, Cantonment, Belagavi, Belagavi taluku, Belgaum district, Karnataka, 590001, India",
            "longitude": "74.509065",
            "latitude": "15.8489677",
            "blogLinks": [
                "http://www.nivalink.com/destination/dandeli"
            ],
            "locType": "station"
        },
        "lal bagh": {
            "closest_to": "manipal",
            "address": "Lal Bagh Bus Stop, Mahatma Gandhi Road, Lalbagh, Ladyhill, Mangaluru, Mangaluru taluk, Dakshina Kannada, Karnataka, 575001, India",
            "longitude": "74.8386152",
            "latitude": "12.8859223",
            "blogLinks": [
                "https://www.tripoto.com/weekend-getaways/from-manipal"
            ],
            "locType": "bus_stop"
        },
        "u.s.": {
            "closest_to": "manipal",
            "address": "Karnataka, India",
            "longitude": "75.7223521",
            "latitude": "14.5203896",
            "blogLinks": [
                "https://www.quora.com/What-are-some-good-places-to-visit-on-the-Goa-Mangalore-route",
                "http://manipalblog.com/2012/04/06/5-places-you-can-visit-on-weekends-in-manipal-tips-for-the-foreign-exchange-student/"
            ],
            "locType": "administrative"
        },
        "dandeli": {
            "closest_to": "manipal",
            "address": "Dandeli, Haliyala taluku, Uttara Kannada, Karnataka, 581325, India",
            "longitude": "74.6236037",
            "latitude": "15.2490284",
            "blogLinks": [
                "http://travel.india.com/dandeli/",
                "http://www.ticketgoose.com/bus-tickets/dandeli-to-manipal",
                "http://www.nivalink.com/destination/dandeli"
            ],
            "locType": "town"
        },
        "bahubali": {
            "closest_to": "manipal",
            "address": "Bahubali Statue, SH8, Shravanabelagola, Channarayapattana taluk, Hassan district, Karnataka, 573135, India",
            "longitude": "76.4846128",
            "latitude": "12.8540505",
            "blogLinks": [
                "http://www.nivalink.com/destination/manipal"
            ],
            "locType": "place_of_worship"
        },
        "gokarna beach": {
            "closest_to": "manipal",
            "address": "Gokarna Beach, Gokarna Road, Ganji Gadde, Kumata taluk, Uttara Kannada, Karnataka, 581326, India",
            "longitude": "74.3109489488919",
            "latitude": "14.5516537",
            "blogLinks": [
                "https://www.quora.com/What-are-some-good-places-to-visit-on-the-Goa-Mangalore-route"
            ],
            "locType": "beach"
        },
        "kannada": {
            "closest_to": "manipal",
            "address": "Dakshina Kannada, Karnataka, India",
            "longitude": "75.1008028650794",
            "latitude": "12.8114089",
            "blogLinks": [
                "http://www.ticketgoose.com/bus-tickets/dandeli-to-manipal"
            ],
            "locType": "administrative"
        },
        "south east of mangalore": {
            "closest_to": "manipal",
            "address": "Mangaluru, Mangaluru taluk, Dakshina Kannada, Karnataka, 575001, India",
            "longitude": "74.8430082",
            "latitude": "12.8698101",
            "blogLinks": [
                "http://manipalblog.com/2012/05/25/9-places-of-interest-around-mangalore-you-can-visit-this-weekend/"
            ],
            "locType": "city"
        },
        "india": {
            "closest_to": "manipal",
            "address": "Karnataka, India",
            "longitude": "75.7223521",
            "latitude": "14.5203896",
            "blogLinks": [
                "http://travel.india.com/dandeli/",
                "http://www.karnatakatourism.org/",
                "http://www.nivalink.com/destination/dandeli",
                "http://www.beontheroad.com/2014/06/top-10-monsoon-holidays-in-karnataka.html",
                "https://www.yatra.com/india-tourism/jabalpur-travel-guide",
                "https://www.tripoto.com/weekend-getaways/from-manipal",
                "https://www.tripoto.com/weekend-getaways/from-dandeli",
                "https://www.quora.com/What-are-some-good-places-to-visit-on-the-Goa-Mangalore-route",
                "https://www.yatra.com/travel/weekend/",
                "http://www.hoparoundindia.com/state-guides/karnataka.aspx"
            ],
            "locType": "administrative"
        },
        "mangalore-karkala": {
            "closest_to": "manipal",
            "address": "Solapur-Mangalore Highway, Miyyar, Karkala taluk, Udupi district, Karnataka, 574107, India",
            "longitude": "75.0478667",
            "latitude": "13.1933284",
            "blogLinks": [
                "http://manipalblog.com/2012/05/25/9-places-of-interest-around-mangalore-you-can-visit-this-weekend/"
            ],
            "locType": "trunk"
        }
    }
}