{
    "hampi": {
        "place_id": "2384737",
        "osm_id": "345110048",
        "icon": "https://nominatim.openstreetmap.org/images/mapicons/poi_place_village.p.20.png",
        "osm_type": "node",
        "licence": "Data \u00a9 OpenStreetMap contributors, ODbL 1.0. http://www.openstreetmap.org/copyright",
        "display_name": "Hampe, Hosapete taluk, Bellary district, Karnataka, 583239, India",
        "type": "village",
        "lon": "76.4606199",
        "boundingbox": [
            "15.3159769",
            "15.3559769",
            "76.4406199",
            "76.4806199"
        ],
        "importance": 0.375,
        "lat": "15.3359769",
        "class": "place"
    },
    "mentions": {
        "badami": {
            "closest_to": "hubli",
            "address": "Badami, Badami taluku, Bagalkote district, Karnataka, 587200, India",
            "longitude": "75.6807865",
            "latitude": "15.9203874",
            "blogLinks": [
                "https://www.onthegotours.com/India/Hampi-4-days",
                "http://hampi.in/hyderabad-to-hampi",
                "https://www.tripadvisor.in/ShowTopic-g297627-i2498-k6657230-Visiting_Hampi_Badami_Aihole_Pattadakal_Bijapur-Karnataka.html",
                "http://www.nivalink.com/destination/hampi",
                "http://www.nivalink.com/destination/hubli"
            ],
            "locType": "town"
        },
        "kittur": {
            "closest_to": "hubli",
            "address": "Kitturu, Bailahongala taluku, Belgaum district, Karnataka, 591115, India",
            "longitude": "74.7876971",
            "latitude": "15.5957166",
            "blogLinks": [
                "http://wikitravel.org/en/Hubli"
            ],
            "locType": "town"
        },
        "margao": {
            "closest_to": "hubli",
            "address": "Karnataka bank, NH66, Aquem, Fatorda, Margao, South Goa, Goa, 403600, India",
            "longitude": "73.9583411",
            "latitude": "15.2740083",
            "blogLinks": [
                "http://wikitravel.org/wiki/en/index.php?search=hampi"
            ],
            "locType": "bank"
        },
        "kurnool": {
            "closest_to": "hampi",
            "address": "Karnataka Guest House, Jadcherla - Hagari Road, Kurnool, Andhra Pradesh, India",
            "longitude": "77.4217916",
            "latitude": "15.9394081",
            "blogLinks": [
                "http://www.nivalink.com/destination/hampi"
            ],
            "locType": "hotel"
        },
        "belgaum": {
            "closest_to": "hubli",
            "address": "Belgaum, Belgaum district, Karnataka, India",
            "longitude": "74.75",
            "latitude": "16.333333",
            "blogLinks": [
                "http://hampi.in/how-to-reach-hampi"
            ],
            "locType": "county"
        },
        "gokul road": {
            "closest_to": "hubli",
            "address": "Gokul, Hubballi taluku, Dharwad district, Karnataka, India",
            "longitude": "75.0813826",
            "latitude": "15.3496233",
            "blogLinks": [
                "http://www.travelhaathi.com/hampi-travel-guide/"
            ],
            "locType": "village"
        },
        "tungabhadra river": {
            "closest_to": "hampi",
            "address": "Tungabhadra, Gangavati taluku, Koppal district, Karnataka, India",
            "longitude": "76.4931607",
            "latitude": "15.3446123",
            "blogLinks": [
                "https://www.tripoto.com/places-to-visit/india/hampi",
                "http://www.mapsofindia.com/karnataka/places-to-visit-in-hampi.html",
                "http://www.holidayiq.com/Hampi-Sightseeing-370.html",
                "http://www.mapsofindia.com/karnataka/hampi-travel.html",
                "http://www.nivalink.com/destination/hampi"
            ],
            "locType": "river"
        },
        "harsha": {
            "closest_to": "hampi",
            "address": "Harsha Ladies Corner, Hutti Main Road, Hutti Camp, Hatti, Lingasuguru taluku, Raichur district, Karnataka, 584115, India",
            "longitude": "76.661213",
            "latitude": "16.1927088",
            "blogLinks": [
                "http://wikitravel.org/en/Hubli"
            ],
            "locType": "variety_store"
        },
        "gejjala mantapa": {
            "closest_to": "hampi",
            "address": "Gejjala Mantapa, Way to Vitthala Temple, Hampe, Hosapete taluk, Bellary district, Karnataka, 583239, India",
            "longitude": "76.4848482044349",
            "latitude": "15.33976025",
            "blogLinks": [
                "http://www.holidayiq.com/Hampi-Sightseeing-370.html"
            ],
            "locType": "ruins"
        },
        "tungabadra dam": {
            "closest_to": "hampi",
            "address": "Tungabadra High Level Canal, Ballari, Bellary taluk, Bellary district, Karnataka, India",
            "longitude": "76.8686753",
            "latitude": "15.1764865",
            "blogLinks": [
                "http://wikitravel.org/wiki/en/index.php?search=hampi"
            ],
            "locType": "canal"
        },
        "hemakuta hill": {
            "closest_to": "hubli",
            "address": "Hemakuta Hill, Hosapete taluk, Bellary district, Karnataka, India",
            "longitude": "76.4602971",
            "latitude": "15.332915",
            "blogLinks": [
                "http://www.travelhaathi.com/hampi-travel-guide/",
                "http://wikitravel.org/wiki/en/index.php?search=hampi",
                "http://www.holidayiq.com/Hampi-Sightseeing-370.html",
                "https://www.tripoto.com/places-to-visit/india/hampi",
                "https://answers.yahoo.com/question/index?qid=20080712065152AA8yC7y"
            ],
            "locType": "peak"
        },
        "koppal": {
            "closest_to": "hubli",
            "address": "Koppala, Koppala taluku, Koppal district, Karnataka, 583231, India",
            "longitude": "76.1547421",
            "latitude": "15.3484144",
            "blogLinks": [
                "http://wikitravel.org/wiki/en/index.php?search=hampi"
            ],
            "locType": "town"
        },
        "iceland": {
            "closest_to": "hubli",
            "address": "Iceland, Sardar Patel Road, Hosapete, Hosapete taluk, Bellary district, Karnataka, 583200, India",
            "longitude": "76.3885296",
            "latitude": "15.2760556",
            "blogLinks": [
                "http://wikitravel.org/wiki/en/index.php?search=hampi"
            ],
            "locType": "restaurant"
        },
        "virupaksha temple": {
            "closest_to": "hubli",
            "address": "Virupaksha Temple, Hampi Bazaar, Hampe, Hosapete taluk, Bellary district, Karnataka, 583239, India",
            "longitude": "76.4587777156223",
            "latitude": "15.3351754",
            "blogLinks": [
                "http://wikitravel.org/wiki/en/index.php?search=hampi",
                "http://www.mapsofindia.com/karnataka/places-to-visit-in-hampi.html",
                "http://www.holidayiq.com/Hampi-Sightseeing-370.html",
                "https://answers.yahoo.com/question/index?qid=20080712065152AA8yC7y"
            ],
            "locType": "place_of_worship"
        },
        "malligi hotel": {
            "closest_to": "hubli",
            "address": "Hotel Malligi, 10/90, Hampi Road, Anantashayanagudi, Hosapete taluk, Bellary district, Karnataka, 583201, India",
            "longitude": "76.3929653074323",
            "latitude": "15.2730243",
            "blogLinks": [
                "http://www.mapsofindia.com/karnataka/hampi-travel.html"
            ],
            "locType": "hotel"
        },
        "hubli airport": {
            "closest_to": "hubli",
            "address": "Hubli Airport, \u0c97\u0ccb\u0c95\u0cc1\u0cb2 \u0cb0\u0ccb\u0ca1\u0ccd, Padmaraj Nagar, Gokul, Hubballi taluku, Dharwad district, Karnataka, 580030, India",
            "longitude": "75.0860974",
            "latitude": "15.3598315",
            "blogLinks": [
                "http://www.travelhaathi.com/hampi-travel-guide/",
                "http://www.nivalink.com/destination/hubli"
            ],
            "locType": "aerodrome"
        },
        "mundgod": {
            "closest_to": "hubli",
            "address": "Mundgod, Mundagoda taluk, Uttara Kannada, Karnataka, 581349, India",
            "longitude": "75.0371451",
            "latitude": "14.9705105",
            "blogLinks": [
                "http://www.nivalink.com/destination/hubli"
            ],
            "locType": "village"
        },
        "karwar": {
            "closest_to": "hubli",
            "address": "Karwar, Karavara taluk, Uttara Kannada, Karnataka, 581300, India",
            "longitude": "74.1319229",
            "latitude": "14.8120931",
            "blogLinks": [
                "http://wikitravel.org/en/Hubli"
            ],
            "locType": "town"
        },
        "jog falls": {
            "closest_to": "hubli",
            "address": "Jog Falls, Joga - Kargal, Sagara taluk, Shimoga district, Karnataka, India",
            "longitude": "74.8128715",
            "latitude": "14.2276106",
            "blogLinks": [
                "http://wikitravel.org/en/Hubli"
            ],
            "locType": "locality"
        },
        "p.b road": {
            "closest_to": "hubli",
            "address": "Pune Bangalore Road, Chanakya Puri, Old Hubli, Hubballi - \u0cb9\u0cc1\u0cac\u0ccd\u0cac\u0cb3\u0ccd\u0cb3\u0cbf, Hubballi taluku, Dharwad district, Karnataka, 580020, India",
            "longitude": "75.1368445",
            "latitude": "15.3416245",
            "blogLinks": [
                "http://wikitravel.org/en/Hubli"
            ],
            "locType": "primary"
        },
        "gadag": {
            "closest_to": "hubli",
            "address": "Gadag, Gadag taluk, Gadag district, Karnataka, 582101, India",
            "longitude": "75.6300786",
            "latitude": "15.4263647",
            "blogLinks": [
                "http://www.nivalink.com/destination/hubli"
            ],
            "locType": "town"
        },
        "hampi bazaar": {
            "closest_to": "hampi",
            "address": "Hampi Bazaar, Hampe, Hosapete taluk, Bellary district, Karnataka, 583239, India",
            "longitude": "76.4621571",
            "latitude": "15.3347585",
            "blogLinks": [
                "http://wikitravel.org/wiki/en/index.php?search=hampi",
                "http://www.mapsofindia.com/karnataka/places-to-visit-in-hampi.html",
                "https://answers.yahoo.com/question/index?qid=20080712065152AA8yC7y",
                "http://www.nivalink.com/destination/hampi",
                "https://www.onthegotours.com/India/Hampi-4-days"
            ],
            "locType": "unclassified"
        },
        "p.b rd": {
            "closest_to": "hubli",
            "address": "Pune Bangalore Road, Chanakya Puri, Old Hubli, Hubballi - \u0cb9\u0cc1\u0cac\u0ccd\u0cac\u0cb3\u0ccd\u0cb3\u0cbf, Hubballi taluku, Dharwad district, Karnataka, 580020, India",
            "longitude": "75.1368445",
            "latitude": "15.3416245",
            "blogLinks": [
                "http://wikitravel.org/en/Hubli"
            ],
            "locType": "primary"
        },
        "hubli": {
            "closest_to": "hubli",
            "address": "Hubballi - \u0cb9\u0cc1\u0cac\u0ccd\u0cac\u0cb3\u0ccd\u0cb3\u0cbf, Hubballi taluku, Dharwad district, Karnataka, 580020, India",
            "longitude": "75.1379848",
            "latitude": "15.3518378",
            "blogLinks": [
                "http://wikitravel.org/wiki/en/index.php?search=hampi",
                "http://hampi.in/hyderabad-to-hampi",
                "http://wikitravel.org/en/Hubli",
                "https://www.tripoto.com/travel-guide/hubli",
                "https://answers.yahoo.com/question/index?qid=20080712065152AA8yC7y",
                "http://www.mapsofindia.com/karnataka/hampi-travel.html",
                "http://www.nivalink.com/destination/hubli",
                "http://www.travelhaathi.com/hampi-travel-guide/",
                "http://hampi.in/how-to-reach-hampi",
                "http://www.nivalink.com/destination/hampi"
            ],
            "locType": "city"
        },
        "hospet": {
            "closest_to": "hubli",
            "address": "Hosapete, Hosapete taluk, Bellary district, Karnataka, 583200, India",
            "longitude": "76.3870527",
            "latitude": "15.266079",
            "blogLinks": [
                "http://wikitravel.org/wiki/en/index.php?search=hampi",
                "http://hampi.in/hyderabad-to-hampi",
                "http://hampi.in/how-to-reach-hampi",
                "http://www.mapsofindia.com/karnataka/hampi-travel.html"
            ],
            "locType": "town"
        },
        "hospet junction": {
            "closest_to": "hubli",
            "address": "Hospet Junction, Station Road, Basavanada, Hosapete taluk, Bellary district, Karnataka, 583201, India",
            "longitude": "76.3869935",
            "latitude": "15.2865104",
            "blogLinks": [
                "http://www.travelhaathi.com/hampi-travel-guide/",
                "http://wikitravel.org/wiki/en/index.php?search=hampi"
            ],
            "locType": "station"
        },
        "anegondi": {
            "closest_to": "hampi",
            "address": "Anegundi, Gangavati taluku, Koppal district, Karnataka, India",
            "longitude": "76.4924232",
            "latitude": "15.3509583",
            "blogLinks": [
                "http://wikitravel.org/wiki/en/index.php?search=hampi",
                "http://www.mapsofindia.com/karnataka/places-to-visit-in-hampi.html"
            ],
            "locType": "village"
        },
        "unkal": {
            "closest_to": "hubli",
            "address": "Unakal, Hubballi - \u0cb9\u0cc1\u0cac\u0ccd\u0cac\u0cb3\u0ccd\u0cb3\u0cbf, Hubballi taluku, Dharwad district, Karnataka, 580020, India",
            "longitude": "75.1152303",
            "latitude": "15.379556",
            "blogLinks": [
                "http://www.nivalink.com/destination/hubli"
            ],
            "locType": "suburb"
        },
        "aihole": {
            "closest_to": "hubli",
            "address": "Aihole, Hunagunda taluku, Bagalkote district, Karnataka, India",
            "longitude": "75.8819129",
            "latitude": "16.0192298",
            "blogLinks": [
                "http://hampi.in/hyderabad-to-hampi",
                "https://www.tripadvisor.in/ShowTopic-g297627-i2498-k6657230-Visiting_Hampi_Badami_Aihole_Pattadakal_Bijapur-Karnataka.html",
                "http://wikitravel.org/en/Hubli"
            ],
            "locType": "village"
        },
        "kamalapura": {
            "closest_to": "hubli",
            "address": "Kamalapura, Harihara taluku, Davanagere district, Karnataka, India",
            "longitude": "75.7316366",
            "latitude": "14.4449672",
            "blogLinks": [
                "https://answers.yahoo.com/question/index?qid=20080712065152AA8yC7y"
            ],
            "locType": "village"
        },
        "pattadakal": {
            "closest_to": "hubli",
            "address": "Pattadakal Temples, SH14, \u0cac\u0cbe\u0c9a\u0cbf\u0ca8\u0c97\u0cc1\u0ca1\u0ccd\u0ca1, Badami taluku, Bagalkote district, Karnataka, 587211, India",
            "longitude": "75.815884048161",
            "latitude": "15.9506349",
            "blogLinks": [
                "https://www.tripadvisor.in/ShowTopic-g297627-i2498-k6657230-Visiting_Hampi_Badami_Aihole_Pattadakal_Bijapur-Karnataka.html"
            ],
            "locType": "attraction"
        },
        "kalghatgi": {
            "closest_to": "hubli",
            "address": "Kalghatgi Road, Hindasageri, Kalaghatagi taluku, Dharwad district, Karnataka, 581204, India",
            "longitude": "75.0064745",
            "latitude": "15.1756059",
            "blogLinks": [
                "http://wikitravel.org/en/Hubli"
            ],
            "locType": "primary"
        },
        "tungabhadra": {
            "closest_to": "hampi",
            "address": "Tungabhadra, Gangavati taluku, Koppal district, Karnataka, India",
            "longitude": "76.4931607",
            "latitude": "15.3446123",
            "blogLinks": [
                "https://www.onthegotours.com/India/Hampi-4-days",
                "http://wikitravel.org/wiki/en/index.php?search=hampi",
                "http://hampi.in/how-to-reach-hampi",
                "http://www.mapsofindia.com/karnataka/hampi-travel.html",
                "http://www.nivalink.com/destination/hampi"
            ],
            "locType": "river"
        },
        "hampi": {
            "closest_to": "hubli",
            "address": "Hampe, Hosapete taluk, Bellary district, Karnataka, 583239, India",
            "longitude": "76.4606199",
            "latitude": "15.3359769",
            "blogLinks": [
                "http://wikitravel.org/wiki/en/index.php?search=hampi",
                "http://hampi.in/hyderabad-to-hampi",
                "http://wikitravel.org/en/Hubli",
                "http://www.mapsofindia.com/karnataka/places-to-visit-in-hampi.html",
                "http://www.dharwadhubli.com/places-to-visit-in-karnataka/",
                "http://www.mapsofindia.com/karnataka/hampi-travel.html",
                "https://www.tripoto.com/places-to-visit/india/hampi",
                "https://answers.yahoo.com/question/index?qid=20080712065152AA8yC7y",
                "http://www.travelhaathi.com/hampi-travel-guide/",
                "https://www.tripadvisor.in/ShowTopic-g297627-i2498-k6657230-Visiting_Hampi_Badami_Aihole_Pattadakal_Bijapur-Karnataka.html",
                "http://www.holidayiq.com/Hampi-Sightseeing-370.html",
                "http://hampi.in/how-to-reach-hampi",
                "http://www.nivalink.com/destination/hampi",
                "https://www.onthegotours.com/India/Hampi-4-days"
            ],
            "locType": "village"
        },
        "hazara rama temple": {
            "closest_to": "hampi",
            "address": "Hazara Rama Temple, Hampi Kamalapura Road, Kamalapura, Hosapete taluk, Bellary district, Karnataka, 583221, India",
            "longitude": "76.4687794",
            "latitude": "15.3178218",
            "blogLinks": [
                "http://wikitravel.org/wiki/en/index.php?search=hampi",
                "http://www.mapsofindia.com/karnataka/hampi-travel.html"
            ],
            "locType": "place_of_worship"
        },
        "west of hubli": {
            "closest_to": "hubli",
            "address": "Hubballi - \u0cb9\u0cc1\u0cac\u0ccd\u0cac\u0cb3\u0ccd\u0cb3\u0cbf, Hubballi taluku, Dharwad district, Karnataka, 580020, India",
            "longitude": "75.1379848",
            "latitude": "15.3518378",
            "blogLinks": [
                "http://www.travelhaathi.com/hampi-travel-guide/"
            ],
            "locType": "city"
        },
        "gokarn": {
            "closest_to": "hubli",
            "address": "Gokarna, Kumata taluk, Uttara Kannada, Karnataka, 581326, India",
            "longitude": "74.3184418",
            "latitude": "14.5439629",
            "blogLinks": [
                "http://wikitravel.org/en/Hubli"
            ],
            "locType": "town"
        },
        "hubli-dharwad road": {
            "closest_to": "hubli",
            "address": "Hubli Dharwad Road, Gandhinagar, Navalur, Dharawada taluku, Dharwad district, Karnataka, 580002, India",
            "longitude": "75.0366396",
            "latitude": "15.4231154",
            "blogLinks": [
                "http://wikitravel.org/en/Hubli"
            ],
            "locType": "primary"
        },
        "river tungabhadra": {
            "closest_to": "hampi",
            "address": "Tungabhadra, Gangavati taluku, Koppal district, Karnataka, India",
            "longitude": "76.4931607",
            "latitude": "15.3446123",
            "blogLinks": [
                "https://www.tripoto.com/places-to-visit/india/hampi"
            ],
            "locType": "river"
        },
        "laughing buddha": {
            "closest_to": "hubli",
            "address": "Laughing Buddha, Hampi - Monkey Temple, Virupapura Gaddi, Hosapete taluk, Bellary district, Karnataka, 583239, India",
            "longitude": "76.4563679",
            "latitude": "15.3387731",
            "blogLinks": [
                "http://wikitravel.org/wiki/en/index.php?search=hampi"
            ],
            "locType": "restaurant"
        },
        "hyatt place": {
            "closest_to": "hampi",
            "address": "Hyatt Place Hampi, Kudligi Road, Vaddu, Sanduru taluk, Bellary district, Karnataka, 583123, India",
            "longitude": "76.624310564536",
            "latitude": "15.1752269",
            "blogLinks": [
                "http://www.mapsofindia.com/karnataka/hampi-travel.html"
            ],
            "locType": "hotel"
        },
        "sanapur lake": {
            "closest_to": "hubli",
            "address": "Sanapura Kere, Sanapura, Gangavati taluku, Koppal district, Karnataka, India",
            "longitude": "76.4294274988777",
            "latitude": "15.35823095",
            "blogLinks": [
                "http://wikitravel.org/wiki/en/index.php?search=hampi"
            ],
            "locType": "reservoir"
        },
        "matanga hill": {
            "closest_to": "hampi",
            "address": "Matanga Hill, Hosapete taluk, Bellary district, Karnataka, India",
            "longitude": "76.4682314",
            "latitude": "15.3315267",
            "blogLinks": [
                "http://wikitravel.org/wiki/en/index.php?search=hampi"
            ],
            "locType": "peak"
        },
        "mantralaya": {
            "closest_to": "hampi",
            "address": "Mantralaya Road, Raichur, Rayachuru taluku, Raichur district, Karnataka, 584100, India",
            "longitude": "77.3610338",
            "latitude": "16.1912419",
            "blogLinks": [
                "http://www.nivalink.com/destination/hubli"
            ],
            "locType": "trunk"
        },
        "lakkundi": {
            "closest_to": "hampi",
            "address": "Lakkundi, Muddebihala taluku, Bijapur district, Karnataka, India",
            "longitude": "76.4084687",
            "latitude": "16.5255464",
            "blogLinks": [
                "http://wikitravel.org/en/Hubli"
            ],
            "locType": "village"
        },
        "gokak falls": {
            "closest_to": "hubli",
            "address": "Gokak Falls, Gokak taluku, Belgaum district, Karnataka, India",
            "longitude": "74.7775947",
            "latitude": "16.1918383",
            "blogLinks": [
                "http://wikitravel.org/en/Hubli"
            ],
            "locType": "waterfall"
        },
        "vijayanagara": {
            "closest_to": "hubli",
            "address": "Vijayanagara, Chikodi taluk, Belgaum district, Karnataka, India",
            "longitude": "74.7380455",
            "latitude": "16.3270486",
            "blogLinks": [
                "https://answers.yahoo.com/question/index?qid=20080712065152AA8yC7y",
                "http://www.nivalink.com/destination/hampi"
            ],
            "locType": "village"
        },
        "bellary": {
            "closest_to": "hampi",
            "address": "Bellary, Bellary district, Karnataka, India",
            "longitude": "76.8323648",
            "latitude": "15.2485413",
            "blogLinks": [
                "http://www.travelhaathi.com/hampi-travel-guide/",
                "http://wikitravel.org/wiki/en/index.php?search=hampi",
                "http://www.mapsofindia.com/karnataka/places-to-visit-in-hampi.html",
                "https://answers.yahoo.com/question/index?qid=20080712065152AA8yC7y"
            ],
            "locType": "county"
        },
        "anegundi": {
            "closest_to": "hampi",
            "address": "Anegundi, Gangavati taluku, Koppal district, Karnataka, India",
            "longitude": "76.4924232",
            "latitude": "15.3509583",
            "blogLinks": [
                "http://wikitravel.org/wiki/en/index.php?search=hampi",
                "http://www.mapsofindia.com/karnataka/hampi-travel.html"
            ],
            "locType": "village"
        },
        "anjenaya hill": {
            "closest_to": "hubli",
            "address": "Anjenaya temple, Jambunatha Traditional Temple Stairs, Rajapu, Hosapete taluk, Bellary district, Karnataka, 583200, India",
            "longitude": "76.4065341",
            "latitude": "15.2403311",
            "blogLinks": [
                "http://wikitravel.org/wiki/en/index.php?search=hampi"
            ],
            "locType": "place_of_worship"
        },
        "gokarna": {
            "closest_to": "hubli",
            "address": "Gokarna, Kumata taluk, Uttara Kannada, Karnataka, 581326, India",
            "longitude": "74.3184418",
            "latitude": "14.5439629",
            "blogLinks": [
                "http://wikitravel.org/wiki/en/index.php?search=hampi"
            ],
            "locType": "town"
        },
        "chennamma circle": {
            "closest_to": "hubli",
            "address": "Rani Chennamma Circle, Cantonment, Belagavi, Belagavi taluku, Belgaum district, Karnataka, 590001, India",
            "longitude": "74.511712864861",
            "latitude": "15.86722145",
            "blogLinks": [
                "http://wikitravel.org/en/Hubli"
            ],
            "locType": "trunk"
        },
        "vidhyanagar": {
            "closest_to": "hubli",
            "address": "Vidhyanagar Road, Nituvalli, Davanagere, Davanagere taluku, Davanagere district, Karnataka, 577000, India",
            "longitude": "75.9176086",
            "latitude": "14.4416416",
            "blogLinks": [
                "http://wikitravel.org/en/Hubli"
            ],
            "locType": "tertiary"
        },
        "kamalapur": {
            "closest_to": "hubli",
            "address": "Kamalapur Nursing Home, Station Road, Kalyana nagar, Gandhinagar, Dharwad, Dharawada taluku, Dharwad district, Karnataka, 580001, India",
            "longitude": "75.003629911571",
            "latitude": "15.4456282",
            "blogLinks": [
                "http://www.travelhaathi.com/hampi-travel-guide/",
                "http://wikitravel.org/wiki/en/index.php?search=hampi"
            ],
            "locType": "yes"
        },
        "hubli-dharwad": {
            "closest_to": "hubli",
            "address": "Hubballi - \u0cb9\u0cc1\u0cac\u0ccd\u0cac\u0cb3\u0ccd\u0cb3\u0cbf, Hubballi taluku, Dharwad district, Karnataka, 580020, India",
            "longitude": "75.1379848",
            "latitude": "15.3518378",
            "blogLinks": [
                "http://www.nivalink.com/destination/hubli"
            ],
            "locType": "city"
        },
        "banavasi": {
            "closest_to": "hubli",
            "address": "Banavasi, Shirasi taluk, Uttara Kannada, Karnataka, India",
            "longitude": "75.0129845",
            "latitude": "14.5389738",
            "blogLinks": [
                "http://wikitravel.org/en/Hubli"
            ],
            "locType": "town"
        },
        "hemakuta": {
            "closest_to": "hubli",
            "address": "Hemakuta Hill, Hosapete taluk, Bellary district, Karnataka, India",
            "longitude": "76.4602971",
            "latitude": "15.332915",
            "blogLinks": [
                "http://www.holidayiq.com/Hampi-Sightseeing-370.html"
            ],
            "locType": "peak"
        },
        "bagewadi": {
            "closest_to": "hubli",
            "address": "Bagewadi, Hukkeri taluku, Belgaum district, Karnataka, 591305, India",
            "longitude": "74.721498",
            "latitude": "16.300076",
            "blogLinks": [
                "http://wikitravel.org/en/Hubli"
            ],
            "locType": "village"
        },
        "airport road": {
            "closest_to": "hampi",
            "address": "Airport Road, Ballari, Bellary taluk, Bellary district, Karnataka, 583104, India",
            "longitude": "76.8995671",
            "latitude": "15.1581615",
            "blogLinks": [
                "http://wikitravel.org/en/Hubli"
            ],
            "locType": "secondary"
        },
        "prince restaurant": {
            "closest_to": "hubli",
            "address": "Prince, Hampi Bazaar, Hampe, Hosapete taluk, Bellary district, Karnataka, 583239, India",
            "longitude": "76.4602348",
            "latitude": "15.3355701",
            "blogLinks": [
                "https://www.tripoto.com/places-to-visit/india/hampi"
            ],
            "locType": "restaurant"
        },
        "hubli dharwad": {
            "closest_to": "hubli",
            "address": "Hubballi - \u0cb9\u0cc1\u0cac\u0ccd\u0cac\u0cb3\u0ccd\u0cb3\u0cbf, Hubballi taluku, Dharwad district, Karnataka, 580020, India",
            "longitude": "75.1379848",
            "latitude": "15.3518378",
            "blogLinks": [
                "http://www.nivalink.com/destination/hubli"
            ],
            "locType": "city"
        },
        "india": {
            "closest_to": "hubli",
            "address": "Karnataka, India",
            "longitude": "75.7223521",
            "latitude": "14.5203896",
            "blogLinks": [
                "http://wikitravel.org/wiki/en/index.php?search=hampi",
                "http://hampi.in/hyderabad-to-hampi",
                "http://wikitravel.org/en/Hubli",
                "http://www.mapsofindia.com/karnataka/places-to-visit-in-hampi.html",
                "https://answers.yahoo.com/question/index?qid=20080712065152AA8yC7y",
                "http://www.mapsofindia.com/karnataka/hampi-travel.html",
                "http://www.nivalink.com/destination/hubli",
                "http://www.travelhaathi.com/hampi-travel-guide/",
                "https://www.tripadvisor.in/ShowTopic-g297627-i2498-k6657230-Visiting_Hampi_Badami_Aihole_Pattadakal_Bijapur-Karnataka.html",
                "http://www.holidayiq.com/Hampi-Sightseeing-370.html",
                "http://hampi.in/how-to-reach-hampi",
                "http://www.nivalink.com/destination/hampi",
                "https://www.onthegotours.com/India/Hampi-4-days"
            ],
            "locType": "administrative"
        }
    },
    "hubli": {
        "place_id": "6298582",
        "osm_id": "670289984",
        "icon": "https://nominatim.openstreetmap.org/images/mapicons/poi_place_city.p.20.png",
        "osm_type": "node",
        "licence": "Data \u00a9 OpenStreetMap contributors, ODbL 1.0. http://www.openstreetmap.org/copyright",
        "display_name": "Hubballi - \u0cb9\u0cc1\u0cac\u0ccd\u0cac\u0cb3\u0ccd\u0cb3\u0cbf, Hubballi taluku, Dharwad district, Karnataka, 580020, India",
        "type": "city",
        "lon": "75.1379848",
        "boundingbox": [
            "15.1918378",
            "15.5118378",
            "74.9779848",
            "75.2979848"
        ],
        "importance": 0.45,
        "lat": "15.3518378",
        "class": "place"
    }
}