{
    "nandi hills": {
        "place_id": "146373589",
        "osm_id": "369233221",
        "icon": "https://nominatim.openstreetmap.org/images/mapicons/accommodation_hotel2.p.20.png",
        "osm_type": "way",
        "licence": "Data \u00a9 OpenStreetMap contributors, ODbL 1.0. http://www.openstreetmap.org/copyright",
        "display_name": "Nandi Upahara, Nandhi Hills Road, Kottige Thimmanahalli, Devanahalli taluk, Bangalore Rural, Karnataka, India",
        "type": "hotel",
        "lon": "77.7194741670394",
        "boundingbox": [
            "13.2675644",
            "13.2688204",
            "77.7191326",
            "77.7199363"
        ],
        "importance": 0.301,
        "lat": "13.268142",
        "class": "tourism"
    },
    "hampi": {
        "place_id": "2384737",
        "osm_id": "345110048",
        "icon": "https://nominatim.openstreetmap.org/images/mapicons/poi_place_village.p.20.png",
        "osm_type": "node",
        "licence": "Data \u00a9 OpenStreetMap contributors, ODbL 1.0. http://www.openstreetmap.org/copyright",
        "display_name": "Hampe, Hosapete taluk, Bellary district, Karnataka, 583239, India",
        "type": "village",
        "lon": "76.4606199",
        "boundingbox": [
            "15.3159769",
            "15.3559769",
            "76.4406199",
            "76.4806199"
        ],
        "importance": 0.375,
        "lat": "15.3359769",
        "class": "place"
    },
    "mentions": {
        "badami": {
            "closest_to": "hampi",
            "address": "Badami, Badami taluku, Bagalkote district, Karnataka, 587200, India",
            "longitude": "75.6807865",
            "latitude": "15.9203874",
            "blogLinks": [
                "https://www.tripoto.com/places-to-visit/india/karnataka"
            ],
            "locType": "town"
        },
        "island": {
            "closest_to": "hampi",
            "address": "Isa, Shirasi taluk, Uttara Kannada, Karnataka, India",
            "longitude": "74.8834637",
            "latitude": "14.6799543",
            "blogLinks": [
                "https://www.tripoto.com/places-to-visit/india/karnataka"
            ],
            "locType": "village"
        },
        "coimbatore": {
            "closest_to": "nandi hills",
            "address": "Gundlupet - Coimbatore Highway, Bandipur, Gundlupet taluk, Chamarajanagar district, Karnataka, India",
            "longitude": "76.6318246",
            "latitude": "11.6793976",
            "blogLinks": [
                "https://www.tripoto.com/places-to-visit/india/karnataka",
                "https://www.tripoto.com/weekend-getaways/from-nandi-hills"
            ],
            "locType": "trunk"
        },
        "hampi": {
            "closest_to": "hampi",
            "address": "Hampe, Hosapete taluk, Bellary district, Karnataka, 583239, India",
            "longitude": "76.4606199",
            "latitude": "15.3359769",
            "blogLinks": [
                "https://www.thrillophilia.com/places-to-visit-in-hampi",
                "http://www.idiscoverindia.com/Travel_Bangalore/Bangalore_side_trips.html",
                "https://www.tripoto.com/places-to-visit/india/karnataka",
                "http://karnatakatrip1.blogspot.com/",
                "http://www.mapsofindia.com/karnataka/hampi-travel.html",
                "https://www.quora.com/What-are-the-best-places-to-visit-on-a-4-day-road-trip-in-and-around-Bangalore-Karnataka",
                "http://www.myhappyjourney.com/Karnataka",
                "https://www.tripoto.com/weekend-getaways/from-nandi-hills"
            ],
            "locType": "village"
        },
        "badami cave": {
            "closest_to": "hampi",
            "address": "Badami Cave Temples, Bahanpur - Gadankeri Highway, Banashankari, Badami taluku, Bagalkote district, Karnataka, 587200, India",
            "longitude": "75.6842639478391",
            "latitude": "15.9184483",
            "blogLinks": [
                "https://www.tripoto.com/places-to-visit/india/karnataka"
            ],
            "locType": "attraction"
        },
        "river tungabhadra": {
            "closest_to": "nandi hills",
            "address": "Tungabhadra, Gangavati taluku, Koppal district, Karnataka, India",
            "longitude": "76.4931607",
            "latitude": "15.3446123",
            "blogLinks": [
                "https://www.tripoto.com/places-to-visit/india/karnataka"
            ],
            "locType": "river"
        },
        "gomateshwara": {
            "closest_to": "nandi hills",
            "address": "Bahubali Statue, SH8, Shravanabelagola, Channarayapattana taluk, Hassan district, Karnataka, 573135, India",
            "longitude": "76.4846128",
            "latitude": "12.8540505",
            "blogLinks": [
                "http://www.indiamike.com/india-articles/places-visit-near-bangalore"
            ],
            "locType": "place_of_worship"
        },
        "ramanagar district": {
            "closest_to": "nandi hills",
            "address": "Ramanagar-Kanakapura Road, Avverahalli, Ramanagara taluk, Ramanagara district, Karnataka, 562159, India",
            "longitude": "77.3418018",
            "latitude": "12.649356",
            "blogLinks": [
                "https://www.tripoto.com/places-to-visit/india/karnataka"
            ],
            "locType": "primary"
        },
        "madikeri fort": {
            "closest_to": "nandi hills",
            "address": "Madikeri Museum, Fort Internal Road, Madikeri, Madikeri taluku, Kodagu, Karnataka, India",
            "longitude": "75.7392494",
            "latitude": "12.4203606",
            "blogLinks": [
                "https://www.tripoto.com/places-to-visit/india/karnataka"
            ],
            "locType": "museum"
        },
        "chikmagalur": {
            "closest_to": "nandi hills",
            "address": "Chikmagalur, Chikkamagaluru district, Karnataka, India",
            "longitude": "75.5",
            "latitude": "13.5",
            "blogLinks": [
                "https://www.tripoto.com/places-to-visit/india/karnataka"
            ],
            "locType": "county"
        },
        "tibet": {
            "closest_to": "nandi hills",
            "address": "Tibet Bazaar, Brigade Road, Tasker Town, Ashok Nagar, Bengaluru, Bangalore Urban, Karnataka, 560001, India",
            "longitude": "77.6068828",
            "latitude": "12.9722398",
            "blogLinks": [
                "https://www.tripoto.com/places-to-visit/india/karnataka"
            ],
            "locType": "supermarket"
        },
        "chennakesava": {
            "closest_to": "nandi hills",
            "address": "Chennakesava Temple, NH73, Navilahalli, Beluru taluk, Hassan district, Karnataka, India",
            "longitude": "75.8603311",
            "latitude": "13.1629239",
            "blogLinks": [
                "https://www.tripoto.com/places-to-visit/india/karnataka"
            ],
            "locType": "place_of_worship"
        },
        "tadiandamol": {
            "closest_to": "nandi hills",
            "address": "Tadiandamol, Madikeri taluku, Kodagu, Karnataka, India",
            "longitude": "75.608815",
            "latitude": "12.2175641",
            "blogLinks": [
                "https://www.tripoto.com/places-to-visit/india/karnataka"
            ],
            "locType": "peak"
        },
        "mysore district of karnataka": {
            "closest_to": "nandi hills",
            "address": "Mysuru, Mysuru taluk, Mysuru district, Karnataka, 570001, India",
            "longitude": "76.6553609",
            "latitude": "12.3051828",
            "blogLinks": [
                "https://www.tripoto.com/places-to-visit/india/karnataka"
            ],
            "locType": "city"
        },
        "south": {
            "closest_to": "nandi hills",
            "address": "s, Vijayapura, Devanahalli taluk, Bangalore Rural, Karnataka, 562135, India",
            "longitude": "77.8040874",
            "latitude": "13.2942848",
            "blogLinks": [
                "https://www.tripoto.com/places-to-visit/india/karnataka",
                "http://www.myhappyjourney.com/Karnataka"
            ],
            "locType": "residential"
        },
        "goa karnataka": {
            "closest_to": "nandi hills",
            "address": "Carnival De Goa, Bhaskaran Road, Gupta Layout, Halasuru, Bengaluru, Bangalore Urban, Karnataka, 560001, India",
            "longitude": "77.6200027",
            "latitude": "12.9750047",
            "blogLinks": [
                "https://www.tripoto.com/places-to-visit/india/karnataka"
            ],
            "locType": "restaurant"
        },
        "karantaka": {
            "closest_to": "nandi hills",
            "address": "OBG & Paediatrics Block, Shamanur Road, K.T. Jambanna Nagara, Davanagere, Davanagere taluku, Davanagere district, Karnataka, 577004, India",
            "longitude": "75.9173315988071",
            "latitude": "14.45753495",
            "blogLinks": [
                "https://www.tripoto.com/places-to-visit/india/karnataka"
            ],
            "locType": "hospital"
        },
        "mysore palace": {
            "closest_to": "nandi hills",
            "address": "Mysore Palace, Sayyaji Rao Road, Vani Vilas, Mysuru, Mysuru taluk, Mysuru district, Karnataka, 570001, India",
            "longitude": "76.6539249338108",
            "latitude": "12.3052915",
            "blogLinks": [
                "https://www.tripoto.com/places-to-visit/india/karnataka"
            ],
            "locType": "yes"
        },
        "lokapavani river": {
            "closest_to": "nandi hills",
            "address": "Lokapavani, Mandya taluk, Mandya district, Karnataka, India",
            "longitude": "76.7301496",
            "latitude": "12.6108167",
            "blogLinks": [
                "https://www.tripoto.com/places-to-visit/india/karnataka"
            ],
            "locType": "river"
        },
        "rain-tree": {
            "closest_to": "nandi hills",
            "address": "Rain Tree, 3rd Main Road, Defence Colony, Hoysala Nagar, Bengaluru, Bangalore Urban, Karnataka, 560001, India",
            "longitude": "77.6414765",
            "latitude": "12.9757365",
            "blogLinks": [
                "https://www.tripoto.com/places-to-visit/india/karnataka"
            ],
            "locType": "tree"
        },
        "tungabadhra river": {
            "closest_to": "hampi",
            "address": "Tungabadhra Dam, Hosapete taluk, Bellary district, Karnataka, India",
            "longitude": "76.3337165",
            "latitude": "15.2635742",
            "blogLinks": [
                "https://www.tripoto.com/places-to-visit/india/karnataka"
            ],
            "locType": "dam"
        },
        "ramadevara betta": {
            "closest_to": "nandi hills",
            "address": "Ramadevara Betta, Tumakuru, Tumkur taluk, Tumkur district, Karnataka, 572101, India",
            "longitude": "77.1655609",
            "latitude": "13.3236493",
            "blogLinks": [
                "https://www.tripoto.com/places-to-visit/india/karnataka"
            ],
            "locType": "peak"
        },
        "kolkata": {
            "closest_to": "nandi hills",
            "address": "Kolkata Biryani And Rolls, 1st Main Basaveshwaranagar, Rajajinagar 3rd Block, Dasarahalli, Bengaluru, Bangalore Urban, Karnataka, 560010, India",
            "longitude": "77.5478044",
            "latitude": "12.9845159",
            "blogLinks": [
                "http://karnatakatrip1.blogspot.com/"
            ],
            "locType": "restaurant"
        },
        "iruppu waterfalls": {
            "closest_to": "nandi hills",
            "address": "Iruppu Falls, Virajpet taluk, Kodagu, Karnataka, India",
            "longitude": "75.9839484",
            "latitude": "11.9667954",
            "blogLinks": [
                "https://www.tripoto.com/places-to-visit/india/karnataka"
            ],
            "locType": "waterfall"
        },
        "bagalkot district": {
            "closest_to": "hampi",
            "address": "Bagalakote, Bagalakote taluk, Bagalkote district, Karnataka, India",
            "longitude": "75.6967919",
            "latitude": "16.1853166",
            "blogLinks": [
                "https://www.tripoto.com/places-to-visit/india/karnataka"
            ],
            "locType": "city"
        },
        "bijapur": {
            "closest_to": "hampi",
            "address": "Vijayapura, Vijayapura taluk, Bijapur district, Karnataka, 586101, India",
            "longitude": "75.7175387",
            "latitude": "16.8269911",
            "blogLinks": [
                "https://www.thrillophilia.com/places-to-visit-in-hampi",
                "https://www.tripoto.com/places-to-visit/india/karnataka",
                "http://www.myhappyjourney.com/Karnataka"
            ],
            "locType": "city"
        },
        "talakaveri": {
            "closest_to": "nandi hills",
            "address": "Talakaveri, Madikeri taluku, Kodagu, Karnataka, India",
            "longitude": "75.4930074",
            "latitude": "12.3858456",
            "blogLinks": [
                "https://www.tripoto.com/places-to-visit/india/karnataka"
            ],
            "locType": "hamlet"
        },
        "southern india": {
            "closest_to": "nandi hills",
            "address": "Survey Of India - Southern Zone, Madivala, Bengaluru, Bangalore Urban, Karnataka, 560001, India",
            "longitude": "77.6227757667762",
            "latitude": "12.92588785",
            "blogLinks": [
                "https://en.wikipedia.org/wiki/Nandi_Hills,_India"
            ],
            "locType": "commercial"
        },
        "mullayanagiri": {
            "closest_to": "nandi hills",
            "address": "Mullayyanagiri, Chikkamagaluru, Chikkamagaluru taluku, Chikkamagaluru district, Karnataka, 577101, India",
            "longitude": "75.7214034",
            "latitude": "13.3909217",
            "blogLinks": [
                "https://www.tripoto.com/places-to-visit/india/karnataka"
            ],
            "locType": "peak"
        },
        "nandi hill": {
            "closest_to": "nandi hills",
            "address": "Nandi Hill, Chikkaballapura taluk, Chikkaballapura district, Karnataka, India",
            "longitude": "77.6847849",
            "latitude": "13.3700061",
            "blogLinks": [
                "https://en.wikipedia.org/wiki/Nandi_Hills,_India",
                "http://www.mapsofindia.com/karnataka/hampi-travel.html"
            ],
            "locType": "peak"
        },
        "kabini river": {
            "closest_to": "nandi hills",
            "address": "Kabini right bank canal, Nanjanagudu taluk, Mysuru district, Karnataka, India",
            "longitude": "76.6477184",
            "latitude": "12.0780998",
            "blogLinks": [
                "https://www.tripoto.com/places-to-visit/india/karnataka",
                "https://www.tripoto.com/weekend-getaways/from-nandi-hills"
            ],
            "locType": "canal"
        },
        "mandya district": {
            "closest_to": "nandi hills",
            "address": "Mandya district, Karnataka, India",
            "longitude": "76.7302318329607",
            "latitude": "12.6336348",
            "blogLinks": [
                "https://www.tripoto.com/places-to-visit/india/karnataka",
                "http://www.indiamike.com/india-articles/places-visit-near-bangalore"
            ],
            "locType": "administrative"
        },
        "vittalapura": {
            "closest_to": "hampi",
            "address": "Vittalapura, Gangavati taluku, Koppal district, Karnataka, India",
            "longitude": "76.4095029",
            "latitude": "15.4917365",
            "blogLinks": [
                "https://www.thrillophilia.com/places-to-visit-in-hampi"
            ],
            "locType": "village"
        },
        "rose garden": {
            "closest_to": "nandi hills",
            "address": "Rose Garden, Dr B R Ambedkar Veedhi, Shantala Nagar, Gandhinagar, Bengaluru, Bangalore Urban, Karnataka, 560001, India",
            "longitude": "77.590382853852",
            "latitude": "12.97371325",
            "blogLinks": [
                "https://www.tripoto.com/places-to-visit/india/karnataka"
            ],
            "locType": "garden"
        },
        "rock garden": {
            "closest_to": "nandi hills",
            "address": "Waterfalls by the Rock site, Madikeri taluku, Kodagu, Karnataka, India",
            "longitude": "75.6142269",
            "latitude": "12.2248591",
            "blogLinks": [
                "https://www.tripoto.com/places-to-visit/india/karnataka"
            ],
            "locType": "waterfall"
        },
        "bangalore": {
            "closest_to": "nandi hills",
            "address": "Bengaluru, Bangalore Urban, Karnataka, 560001, India",
            "longitude": "77.5912997",
            "latitude": "12.9791198",
            "blogLinks": [
                "https://www.thrillophilia.com/places-to-visit-in-hampi",
                "http://www.indianholiday.com/tourist-attraction/karnataka/hill-stations-in-karnataka/nandi-hills.html",
                "https://distancetravelling.wordpress.com/2015/02/07/sunrise-at-nandi-hill/",
                "http://www.idiscoverindia.com/Travel_Bangalore/Bangalore_side_trips.html",
                "http://www.indiamike.com/india-articles/places-visit-near-bangalore",
                "https://www.tripoto.com/places-to-visit/india/karnataka",
                "http://karnatakatrip1.blogspot.com/",
                "https://en.wikipedia.org/wiki/Nandi_Hills,_India",
                "http://www.mapsofindia.com/karnataka/hampi-travel.html",
                "https://www.quora.com/What-are-the-best-places-to-visit-on-a-4-day-road-trip-in-and-around-Bangalore-Karnataka",
                "https://www.quora.com/What-are-the-must-visit-places-in-Bangalore-for-a-teenager",
                "http://www.mapsofindia.com/bangalore/places-of-interest/nandi-hills.html",
                "https://www.tripoto.com/weekend-getaways/from-nandi-hills"
            ],
            "locType": "city"
        },
        "dubare elephant camp": {
            "closest_to": "nandi hills",
            "address": "Dubare Elephant Camp, SH91, Dodda Bettageri, Somawarpet taluk, Kodagu, Karnataka, India",
            "longitude": "75.9066719",
            "latitude": "12.3716865",
            "blogLinks": [
                "https://www.tripoto.com/weekend-getaways/from-nandi-hills"
            ],
            "locType": "attraction"
        },
        "orissa": {
            "closest_to": "nandi hills",
            "address": "Little Orissa, 18th Main Road, Babasaheb Colony, Kodihalli, Bengaluru, Bangalore Urban, Karnataka, 560001, India",
            "longitude": "77.6448007",
            "latitude": "12.9622425",
            "blogLinks": [
                "https://www.tripoto.com/places-to-visit/india/karnataka"
            ],
            "locType": "restaurant"
        },
        "england": {
            "closest_to": "nandi hills",
            "address": "Peter England Factory, Bommanahalli, Bengaluru, Bangalore Urban, Karnataka, 560001, India",
            "longitude": "77.6219969678622",
            "latitude": "12.90120185",
            "blogLinks": [
                "https://www.tripoto.com/places-to-visit/india/karnataka"
            ],
            "locType": "industrial"
        },
        "dattatreya temple": {
            "closest_to": "nandi hills",
            "address": "Dattatreya Temple, 7th Main Road, Seven Hills Layout, Ittamadu, Bengaluru, Bangalore Urban, Karnataka, 560001, India",
            "longitude": "77.5401435953887",
            "latitude": "12.92479825",
            "blogLinks": [
                "https://www.tripoto.com/places-to-visit/india/karnataka"
            ],
            "locType": "place_of_worship"
        },
        "kempegowda": {
            "closest_to": "nandi hills",
            "address": "Kempegowda Nagara, Bhadravati taluk, Shimoga district, Karnataka, India",
            "longitude": "75.736347",
            "latitude": "13.7911055",
            "blogLinks": [
                "http://www.mapsofindia.com/bangalore/places-of-interest/nandi-hills.html"
            ],
            "locType": "village"
        },
        "brahma": {
            "closest_to": "nandi hills",
            "address": "Sadguru Brahma Chaitanya Mandira, Ring Road, Vinobanagara, Davanagere, Davanagere taluku, Davanagere district, Karnataka, 577004, India",
            "longitude": "75.9026723908286",
            "latitude": "14.4564816",
            "blogLinks": [
                "https://www.tripoto.com/places-to-visit/india/karnataka"
            ],
            "locType": "place_of_worship"
        },
        "hemakuta hill": {
            "closest_to": "nandi hills",
            "address": "Hemakuta Hill, Hosapete taluk, Bellary district, Karnataka, India",
            "longitude": "76.4602971",
            "latitude": "15.332915",
            "blogLinks": [
                "https://www.thrillophilia.com/places-to-visit-in-hampi",
                "https://www.tripoto.com/places-to-visit/india/karnataka",
                "https://www.tripoto.com/weekend-getaways/from-nandi-hills"
            ],
            "locType": "peak"
        },
        "ooty": {
            "closest_to": "nandi hills",
            "address": "Ooty Road, Vidyaranyapuram, Mysuru, Mysuru taluk, Mysuru district, Karnataka, 570001, India",
            "longitude": "76.6586807",
            "latitude": "12.2774807",
            "blogLinks": [
                "https://www.tripoto.com/places-to-visit/india/karnataka",
                "https://www.tripoto.com/weekend-getaways/from-nandi-hills"
            ],
            "locType": "primary"
        },
        "melkote": {
            "closest_to": "nandi hills",
            "address": "Melukote, Pandavapura taluk, Mandya district, Karnataka, India",
            "longitude": "76.649649",
            "latitude": "12.6624052",
            "blogLinks": [
                "http://www.indiamike.com/india-articles/places-visit-near-bangalore"
            ],
            "locType": "village"
        },
        "brindaban gardens": {
            "closest_to": "nandi hills",
            "address": "Brindaban Apartments, Hosur Road, Sadgunte Palya, Adugodi, Bengaluru, Bangalore Urban, Karnataka, 560030, India",
            "longitude": "77.6097138932437",
            "latitude": "12.9384553",
            "blogLinks": [
                "https://www.tripoto.com/places-to-visit/india/karnataka"
            ],
            "locType": "yes"
        },
        "siddapur": {
            "closest_to": "hampi",
            "address": "Siddapur, \u0c95\u0cc1\u0c82\u0ca6\u0cbe\u0caa\u0cc1\u0cb0 \u0ca4\u0cbe\u0cb2\u0cc2\u0c95\u0cc1, Udupi district, Karnataka, 576229, India",
            "longitude": "74.911019",
            "latitude": "13.6626885",
            "blogLinks": [
                "https://www.tripoto.com/places-to-visit/india/karnataka"
            ],
            "locType": "village"
        },
        "manchanabele": {
            "closest_to": "nandi hills",
            "address": "Manchanabele, Magadi taluku, Ramanagara district, Karnataka, India",
            "longitude": "77.3344212",
            "latitude": "12.8668921",
            "blogLinks": [
                "http://www.indiamike.com/india-articles/places-visit-near-bangalore"
            ],
            "locType": "village"
        },
        "tungabhadra river": {
            "closest_to": "nandi hills",
            "address": "Tungabhadra, Gangavati taluku, Koppal district, Karnataka, India",
            "longitude": "76.4931607",
            "latitude": "15.3446123",
            "blogLinks": [
                "https://www.thrillophilia.com/places-to-visit-in-hampi",
                "https://www.tripoto.com/places-to-visit/india/karnataka",
                "http://www.mapsofindia.com/karnataka/hampi-travel.html",
                "https://www.tripoto.com/weekend-getaways/from-nandi-hills"
            ],
            "locType": "river"
        },
        "mowgli": {
            "closest_to": "hampi",
            "address": "Mowgli Guest House, SH130, Basapura, Koppala taluku, Koppal district, Karnataka, India",
            "longitude": "76.4532005",
            "latitude": "15.3413499",
            "blogLinks": [
                "https://www.tripoto.com/places-to-visit/india/karnataka"
            ],
            "locType": "hostel"
        },
        "malgudi": {
            "closest_to": "nandi hills",
            "address": "Malgudi Southern Cuisine, 3, Outer Ring Road, Ananda Nagara, Doddanekundi, Garudacharpalya, Bangalore Urban, Karnataka, 560037, India",
            "longitude": "77.7017267",
            "latitude": "12.9651193",
            "blogLinks": [
                "https://www.tripoto.com/places-to-visit/india/karnataka"
            ],
            "locType": "restaurant"
        },
        "chunchi falls": {
            "closest_to": "nandi hills",
            "address": "Chunchi Falls, Kanakapura taluk, Ramanagara district, Karnataka, India",
            "longitude": "77.4459464",
            "latitude": "12.3515083",
            "blogLinks": [
                "https://www.tripoto.com/places-to-visit/india/karnataka"
            ],
            "locType": "waterfall"
        },
        "sanapur lake": {
            "closest_to": "hampi",
            "address": "Sanapura Kere, Sanapura, Gangavati taluku, Koppal district, Karnataka, India",
            "longitude": "76.4294274988777",
            "latitude": "15.35823095",
            "blogLinks": [
                "https://www.tripoto.com/places-to-visit/india/karnataka"
            ],
            "locType": "reservoir"
        },
        "panaji": {
            "closest_to": "hampi",
            "address": "Belgaum - Panaji Highway, Londa, Khanapura taluku, Belgaum district, Karnataka, India",
            "longitude": "74.4876784",
            "latitude": "15.4422981",
            "blogLinks": [
                "https://www.tripoto.com/places-to-visit/india/karnataka"
            ],
            "locType": "trunk"
        },
        "kukke": {
            "closest_to": "hampi",
            "address": "Kukke, Tirthahalli taluk, Shimoga district, Karnataka, India",
            "longitude": "75.3076538",
            "latitude": "13.7523964",
            "blogLinks": [
                "https://www.tripoto.com/places-to-visit/india/karnataka"
            ],
            "locType": "village"
        },
        "palace gardens": {
            "closest_to": "nandi hills",
            "address": "Bangalore Palace, Jayamahal Road, Jayamahal Extension, Jayamahal, Bengaluru, Bangalore Urban, Karnataka, 560001, India",
            "longitude": "77.5920094892276",
            "latitude": "12.9985963",
            "blogLinks": [
                "https://www.tripoto.com/places-to-visit/india/karnataka"
            ],
            "locType": "attraction"
        },
        "sharavathi valley": {
            "closest_to": "nandi hills",
            "address": "Sharavathi Block, National Games Village Road, Ambedkar Nagar, Ejipura, Bengaluru, Bangalore Urban, Karnataka, 560001, India",
            "longitude": "77.6216184337102",
            "latitude": "12.9464709",
            "blogLinks": [
                "https://www.tripoto.com/places-to-visit/india/karnataka"
            ],
            "locType": "yes"
        },
        "nagarahole national park": {
            "closest_to": "nandi hills",
            "address": "Nagarahole National Park, Virajpet taluk, Kodagu, Karnataka, India",
            "longitude": "76.1537073415874",
            "latitude": "12.0600362",
            "blogLinks": [
                "https://www.tripoto.com/places-to-visit/india/karnataka"
            ],
            "locType": "national_park"
        },
        "shivanasamudra": {
            "closest_to": "nandi hills",
            "address": "Shivanasamudra, Kollegala taluk, Chamarajanagar district, Karnataka, India",
            "longitude": "77.1703215",
            "latitude": "12.2719056",
            "blogLinks": [
                "http://www.indiamike.com/india-articles/places-visit-near-bangalore"
            ],
            "locType": "village"
        },
        "new delhi": {
            "closest_to": "nandi hills",
            "address": "Regional Institute of Education, Chaduranga Road, Jayalakshmipuram, Mysuru, Mysuru taluk, Mysuru district, Karnataka, 570001, India",
            "longitude": "76.6142178649055",
            "latitude": "12.30911465",
            "blogLinks": [
                "https://www.makemytrip.com/holidays-india/places-to-visit-nandi_hills.html"
            ],
            "locType": "college"
        },
        "bababudan range": {
            "closest_to": "nandi hills",
            "address": "Baba Budangiri, Chikkamagaluru, Chikkamagaluru taluku, Chikkamagaluru district, Karnataka, 577101, India",
            "longitude": "75.7606996",
            "latitude": "13.4210884",
            "blogLinks": [
                "https://www.tripoto.com/places-to-visit/india/karnataka"
            ],
            "locType": "peak"
        },
        "bandipur": {
            "closest_to": "nandi hills",
            "address": "Bandipur, Gundlupet taluk, Chamarajanagar district, Karnataka, India",
            "longitude": "76.6285739",
            "latitude": "11.6662708",
            "blogLinks": [
                "https://www.tripoto.com/places-to-visit/india/karnataka",
                "http://www.idiscoverindia.com/Travel_Bangalore/Bangalore_side_trips.html"
            ],
            "locType": "village"
        },
        "kalyani": {
            "closest_to": "nandi hills",
            "address": "Kalyani, Neeladri Road, Electronics City Phase 1, Bettadasana Pura, Bangalore Urban, Karnataka, 560100, India",
            "longitude": "77.6286090192686",
            "latitude": "12.8406466",
            "blogLinks": [
                "https://www.tripoto.com/places-to-visit/india/karnataka"
            ],
            "locType": "water"
        },
        "bandipur national park": {
            "closest_to": "nandi hills",
            "address": "Bandipur National Park, Kozhikode - Kollegal Highway, Gundlupet taluk, Chamarajanagar district, Karnataka, India",
            "longitude": "76.4314968740264",
            "latitude": "11.76682425",
            "blogLinks": [
                "https://www.tripoto.com/places-to-visit/india/karnataka"
            ],
            "locType": "national_park"
        },
        "madras": {
            "closest_to": "nandi hills",
            "address": "Swami Vivekananda Road, Swamy Vivekananda Road (Old Madras Road), Sudgunte Palya, Baiyyappanahalli, Benniganahalli, Bangalore Urban, Karnataka, 560016, India",
            "longitude": "77.6449595",
            "latitude": "12.9859442",
            "blogLinks": [
                "https://en.wikipedia.org/wiki/Nandi_Hills,_India",
                "https://www.tripoto.com/weekend-getaways/from-nandi-hills"
            ],
            "locType": "station"
        },
        "shiva temple": {
            "closest_to": "nandi hills",
            "address": "Shiva Temple, Mangammanapalaya Main Road, Sector 2, HSR Layout, Bengaluru, Bangalore Urban, Karnataka, 560001, India",
            "longitude": "77.6406296",
            "latitude": "12.9046749",
            "blogLinks": [
                "https://www.tripoto.com/places-to-visit/india/karnataka"
            ],
            "locType": "place_of_worship"
        },
        "kodagu district of karnataka": {
            "closest_to": "nandi hills",
            "address": "Kodagu Kaloni, Hunasuru taluk, Mysuru district, Karnataka, India",
            "longitude": "76.2818865",
            "latitude": "12.2335192",
            "blogLinks": [
                "https://www.tripoto.com/places-to-visit/india/karnataka"
            ],
            "locType": "village"
        },
        "bylakuppe": {
            "closest_to": "nandi hills",
            "address": "Bylakuppe, Piriyapattana taluk, Mysuru district, Karnataka, India",
            "longitude": "75.9953435",
            "latitude": "12.4292508",
            "blogLinks": [
                "https://www.tripoto.com/places-to-visit/india/karnataka"
            ],
            "locType": "village"
        },
        "omkareshwara temple": {
            "closest_to": "nandi hills",
            "address": "Omkareshwara Temple, Main Road, Madikeri, Madikeri taluku, Kodagu, Karnataka, India",
            "longitude": "75.741304",
            "latitude": "12.420546",
            "blogLinks": [
                "https://www.tripoto.com/places-to-visit/india/karnataka"
            ],
            "locType": "place_of_worship"
        },
        "kollegala": {
            "closest_to": "nandi hills",
            "address": "Kollegal, Kollegala taluk, Chamarajanagar district, Karnataka, 571440, India",
            "longitude": "77.1114856",
            "latitude": "12.1548275",
            "blogLinks": [
                "http://www.indiamike.com/india-articles/places-visit-near-bangalore"
            ],
            "locType": "town"
        },
        "murudeshwara": {
            "closest_to": "hampi",
            "address": "Murudeshwara, Bhatkala taluk, Uttara Kannada, Karnataka, 581350, India",
            "longitude": "74.4883354",
            "latitude": "14.0959549",
            "blogLinks": [
                "https://www.tripoto.com/places-to-visit/india/karnataka"
            ],
            "locType": "town"
        },
        "baker street": {
            "closest_to": "nandi hills",
            "address": "Donut Baker, 24th Main, K R Layout, Puttenahalli, Bengaluru, Bangalore Urban, Karnataka, 560001, India",
            "longitude": "77.5859336",
            "latitude": "12.899527",
            "blogLinks": [
                "https://www.tripoto.com/weekend-getaways/from-nandi-hills"
            ],
            "locType": "bakery"
        },
        "sasivekalu": {
            "closest_to": "nandi hills",
            "address": "Sasivekalu Ganesha, Hampi Kamalapura Road, Hampe, Hosapete taluk, Bellary district, Karnataka, 583239, India",
            "longitude": "76.4604025",
            "latitude": "15.3322644",
            "blogLinks": [
                "https://www.thrillophilia.com/places-to-visit-in-hampi"
            ],
            "locType": "place_of_worship"
        },
        "gundlupet": {
            "closest_to": "nandi hills",
            "address": "Gundlupet, Gundlupet taluk, Chamarajanagar district, Karnataka, 571111, India",
            "longitude": "76.6916141",
            "latitude": "11.808496",
            "blogLinks": [
                "https://www.tripoto.com/places-to-visit/india/karnataka"
            ],
            "locType": "town"
        },
        "hotel saravana bhavan": {
            "closest_to": "nandi hills",
            "address": "Hotel Toms, Hosur Road, Gajendra Nagara, Shanti Nagar, Bengaluru, Bangalore Urban, Karnataka, 560001, India",
            "longitude": "77.6070169",
            "latitude": "12.9649325",
            "blogLinks": [
                "https://www.tripoto.com/weekend-getaways/from-nandi-hills"
            ],
            "locType": "hotel"
        },
        "nilgiris": {
            "closest_to": "nandi hills",
            "address": "Nilgiris, Brigade Road, Tasker Town, Ashok Nagar, Bengaluru, Bangalore Urban, Karnataka, 560001, India",
            "longitude": "77.6069792",
            "latitude": "12.9725052",
            "blogLinks": [
                "https://www.tripoto.com/weekend-getaways/from-nandi-hills"
            ],
            "locType": "supermarket"
        },
        "manhattan": {
            "closest_to": "nandi hills",
            "address": "Manhattan Associates India Development Center, 2nd Road, Export Promotion Industrial Park, Whitefied, Brookefields, Sitaramapalya, Bangalore Urban, Karnataka, 560066, India",
            "longitude": "77.7186057320043",
            "latitude": "12.9728661",
            "blogLinks": [
                "http://www.myhappyjourney.com/Karnataka"
            ],
            "locType": "company"
        },
        "brahmagiri range": {
            "closest_to": "nandi hills",
            "address": "Brahmagiri Betta, Molakalmuru taluku, Chitradurga district, Karnataka, India",
            "longitude": "76.8122474",
            "latitude": "14.8001586",
            "blogLinks": [
                "https://www.tripoto.com/places-to-visit/india/karnataka"
            ],
            "locType": "peak"
        },
        "vittala": {
            "closest_to": "nandi hills",
            "address": "Vijaya Vittala PU College, Sahukar Chennaiah Road, Sarasvatipuram, Mysuru, Mysuru taluk, Mysuru district, Karnataka, 570001, India",
            "longitude": "76.6237847175927",
            "latitude": "12.30129655",
            "blogLinks": [
                "https://www.tripoto.com/places-to-visit/india/karnataka",
                "https://www.tripoto.com/weekend-getaways/from-nandi-hills"
            ],
            "locType": "yes"
        },
        "silk town of karnataka": {
            "closest_to": "nandi hills",
            "address": "Sara: The Silk Store, Museum Road, Shantala Nagar, Ashok Nagar, Bengaluru, Bangalore Urban, Karnataka, 560001, India",
            "longitude": "77.6026229",
            "latitude": "12.975886",
            "blogLinks": [
                "https://www.tripoto.com/places-to-visit/india/karnataka"
            ],
            "locType": "fabric"
        },
        "amruth sarovar lake": {
            "closest_to": "nandi hills",
            "address": "Amruth Sarovar, Sultanapete, Chikkaballapura taluk, Chikkaballapura district, Karnataka, India",
            "longitude": "77.6809602980907",
            "latitude": "13.3711828",
            "blogLinks": [
                "https://www.tripoto.com/places-to-visit/india/karnataka",
                "https://www.tripoto.com/weekend-getaways/from-nandi-hills"
            ],
            "locType": "reservoir"
        },
        "kaveri river": {
            "closest_to": "nandi hills",
            "address": "Kaveri, Malavalli taluk, Mandya district, Karnataka, India",
            "longitude": "77.1600751",
            "latitude": "12.2873835",
            "blogLinks": [
                "https://www.tripoto.com/places-to-visit/india/karnataka"
            ],
            "locType": "river"
        },
        "bhoga nandeeshwara temple": {
            "closest_to": "nandi hills",
            "address": "Bhoga Nandeeshwara Temple, SH74, Sultanapete, Chikkaballapura taluk, Chikkaballapura district, Karnataka, India",
            "longitude": "77.6981219363524",
            "latitude": "13.3867543",
            "blogLinks": [
                "https://en.wikipedia.org/wiki/Nandi_Hills,_India"
            ],
            "locType": "place_of_worship"
        },
        "chamundi": {
            "closest_to": "nandi hills",
            "address": "Chamundi Hill, Mysuru, Mysuru taluk, Mysuru district, Karnataka, 570001, India",
            "longitude": "76.6703937",
            "latitude": "12.2724017",
            "blogLinks": [
                "https://www.tripoto.com/places-to-visit/india/karnataka"
            ],
            "locType": "peak"
        },
        "vishnu": {
            "closest_to": "nandi hills",
            "address": "Vishnu Residency Apartments, Thubarahalli, Siddapura, Bangalore Urban, Karnataka, 560066, India",
            "longitude": "77.7198022157059",
            "latitude": "12.95388635",
            "blogLinks": [
                "https://www.makemytrip.com/holidays-india/places-to-visit-nandi_hills.html"
            ],
            "locType": "residential"
        },
        "madikeri": {
            "closest_to": "nandi hills",
            "address": "Madikeri, Madikeri taluku, Kodagu, Karnataka, India",
            "longitude": "75.740031",
            "latitude": "12.4204003",
            "blogLinks": [
                "https://www.tripoto.com/places-to-visit/india/karnataka"
            ],
            "locType": "town"
        },
        "kaveri": {
            "closest_to": "nandi hills",
            "address": "Kaveri, Kollegala taluk, Chamarajanagar district, Karnataka, India",
            "longitude": "77.0635531",
            "latitude": "12.1687878",
            "blogLinks": [
                "https://www.tripoto.com/places-to-visit/india/karnataka"
            ],
            "locType": "river"
        },
        "nanjangud": {
            "closest_to": "nandi hills",
            "address": "Nanjangud, Nanjanagudu Bypass, Hejjige, Nanjanagudu taluk, Mysuru district, Karnataka, 571300, India",
            "longitude": "76.683164",
            "latitude": "12.1229725",
            "blogLinks": [
                "https://www.tripoto.com/places-to-visit/india/karnataka"
            ],
            "locType": "station"
        },
        "hindostan": {
            "closest_to": "nandi hills",
            "address": "Karnataka, India",
            "longitude": "75.7223521",
            "latitude": "14.5203896",
            "blogLinks": [
                "https://en.wikipedia.org/wiki/Nandi_Hills,_India"
            ],
            "locType": "administrative"
        },
        "paradise beach": {
            "closest_to": "hampi",
            "address": "Paradise Beach, Om beach road, Gokarna, Kumata taluk, Uttara Kannada, Karnataka, 581326, India",
            "longitude": "74.3375798576938",
            "latitude": "14.5181133",
            "blogLinks": [
                "https://www.tripoto.com/places-to-visit/india/karnataka"
            ],
            "locType": "beach"
        },
        "wonderla": {
            "closest_to": "nandi hills",
            "address": "Wonderla, Wonder La Road, Manchanayakanahalli, Ramanagara taluk, Ramanagara district, Karnataka, India",
            "longitude": "77.4026822",
            "latitude": "12.8382986",
            "blogLinks": [
                "https://www.tripoto.com/places-to-visit/india/karnataka"
            ],
            "locType": "bus_stop"
        },
        "kozhikode": {
            "closest_to": "nandi hills",
            "address": "Kozhikode - Kollegal Highway, Ittigegudu, Mysuru, Mysuru taluk, Mysuru district, Karnataka, 570001, India",
            "longitude": "76.6598864",
            "latitude": "12.2926117",
            "blogLinks": [
                "https://www.tripoto.com/places-to-visit/india/karnataka"
            ],
            "locType": "primary"
        },
        "district of chikmagalur": {
            "closest_to": "nandi hills",
            "address": "District Treasury Office, SH57, Palu mane, Santaveri, Tarikere taluku, Chikkamagaluru district, Karnataka, 577137, India",
            "longitude": "75.7739538645039",
            "latitude": "13.3260288",
            "blogLinks": [
                "https://www.tripoto.com/places-to-visit/india/karnataka"
            ],
            "locType": "government"
        },
        "mysore lake": {
            "closest_to": "nandi hills",
            "address": "Mysuru, Mysuru taluk, Mysuru district, Karnataka, 570001, India",
            "longitude": "76.6553609",
            "latitude": "12.3051828",
            "blogLinks": [
                "https://www.tripoto.com/places-to-visit/india/karnataka"
            ],
            "locType": "city"
        },
        "bangalore-tumkur road": {
            "closest_to": "nandi hills",
            "address": "Tumkur Road, Goragunte Palya, Peenya, Bengaluru, Bangalore Urban, Karnataka, 560001, India",
            "longitude": "77.5360458",
            "latitude": "13.0311896",
            "blogLinks": [
                "https://distancetravelling.wordpress.com/2015/02/07/sunrise-at-nandi-hill/"
            ],
            "locType": "trunk"
        },
        "nandi village": {
            "closest_to": "nandi hills",
            "address": "Nandi, Chikkaballapura taluk, Chikkaballapura district, Karnataka, India",
            "longitude": "77.6983878",
            "latitude": "13.385523",
            "blogLinks": [
                "http://www.indiamike.com/india-articles/places-visit-near-bangalore"
            ],
            "locType": "village"
        },
        "anjanadri hill": {
            "closest_to": "hampi",
            "address": "Anjanadri Hill, Gangavati taluku, Koppal district, Karnataka, India",
            "longitude": "76.4691482",
            "latitude": "15.3550046",
            "blogLinks": [
                "https://www.thrillophilia.com/places-to-visit-in-hampi"
            ],
            "locType": "peak"
        },
        "garden": {
            "closest_to": "nandi hills",
            "address": "garden, N Hosahalli, Hosakote taluk, Bangalore Rural, Karnataka, India",
            "longitude": "77.9285817637065",
            "latitude": "13.19253335",
            "blogLinks": [
                "http://www.myhappyjourney.com/Karnataka"
            ],
            "locType": "orchard"
        },
        "north east": {
            "closest_to": "nandi hills",
            "address": "Karnataka, India",
            "longitude": "75.7223521",
            "latitude": "14.5203896",
            "blogLinks": [
                "https://www.tripoto.com/places-to-visit/india/karnataka"
            ],
            "locType": "administrative"
        },
        "parvati": {
            "closest_to": "hampi",
            "address": "Parvati, Badami taluku, Bagalkote district, Karnataka, India",
            "longitude": "75.7898501",
            "latitude": "16.0395701",
            "blogLinks": [
                "https://en.wikipedia.org/wiki/Nandi_Hills,_India"
            ],
            "locType": "village"
        },
        "kodagu taluk": {
            "closest_to": "nandi hills",
            "address": "Kodagu Kaloni, Hunasuru taluk, Mysuru district, Karnataka, India",
            "longitude": "76.2818865",
            "latitude": "12.2335192",
            "blogLinks": [
                "https://www.tripoto.com/places-to-visit/india/karnataka"
            ],
            "locType": "village"
        },
        "lakshmi": {
            "closest_to": "nandi hills",
            "address": "Lakshmi, Tavarekere Main Road, Sadgunte Palya, Madivala, Bengaluru, Bangalore Urban, Karnataka, 560001, India",
            "longitude": "77.6075298044091",
            "latitude": "12.9251835",
            "blogLinks": [
                "https://www.tripoto.com/places-to-visit/india/karnataka"
            ],
            "locType": "cinema"
        },
        "nandi bull": {
            "closest_to": "nandi hills",
            "address": "Monolithic Bull, Way to Vitthala Temple, Hampe, Hosapete taluk, Bellary district, Karnataka, 583239, India",
            "longitude": "76.4671825",
            "latitude": "15.3337944",
            "blogLinks": [
                "https://www.tripoto.com/places-to-visit/india/karnataka",
                "http://www.indiamike.com/india-articles/places-visit-near-bangalore"
            ],
            "locType": "attraction"
        },
        "lalbagh botanical garden": {
            "closest_to": "nandi hills",
            "address": "Lalbagh Botanical Gardens, Siddapura Road, Mavalli, Someshwaranagar, Bengaluru, Bangalore Urban, Karnataka, 560001, India",
            "longitude": "77.5869868789796",
            "latitude": "12.9489367",
            "blogLinks": [
                "https://www.tripoto.com/places-to-visit/india/karnataka"
            ],
            "locType": "attraction"
        },
        "kukkarahalli lake": {
            "closest_to": "nandi hills",
            "address": "Kukkarahalli Kere, Bogadi Road, Sarasvatipuram, Mysuru, Mysuru taluk, Mysuru district, Karnataka, 570001, India",
            "longitude": "76.6304982433348",
            "latitude": "12.3103805",
            "blogLinks": [
                "https://www.tripoto.com/places-to-visit/india/karnataka"
            ],
            "locType": "water"
        },
        "hospet": {
            "closest_to": "nandi hills",
            "address": "Hosapete, Hosapete taluk, Bellary district, Karnataka, 583200, India",
            "longitude": "76.3870527",
            "latitude": "15.266079",
            "blogLinks": [
                "https://www.tripoto.com/places-to-visit/india/karnataka",
                "http://www.mapsofindia.com/karnataka/hampi-travel.html"
            ],
            "locType": "town"
        },
        "outer ring road": {
            "closest_to": "nandi hills",
            "address": "Outer Ring Road, Green Glen Layout, Iblur, Bengaluru, Bangalore Urban, Karnataka, 560001, India",
            "longitude": "77.6632088",
            "latitude": "12.9210769",
            "blogLinks": [
                "https://www.tripoto.com/places-to-visit/india/karnataka"
            ],
            "locType": "trunk"
        },
        "swaswara": {
            "closest_to": "hampi",
            "address": "Swaswara, Om beach road, Gokarna, Kumata taluk, Uttara Kannada, Karnataka, 581326, India",
            "longitude": "74.3201237772373",
            "latitude": "14.5212941",
            "blogLinks": [
                "https://www.tripoto.com/places-to-visit/india/karnataka"
            ],
            "locType": "hotel"
        },
        "bangalore highway": {
            "closest_to": "nandi hills",
            "address": "Bengaluru, Bangalore Urban, Karnataka, 560001, India",
            "longitude": "77.5912997",
            "latitude": "12.9791198",
            "blogLinks": [
                "https://www.tripoto.com/places-to-visit/india/karnataka"
            ],
            "locType": "city"
        },
        "tumkur road": {
            "closest_to": "nandi hills",
            "address": "Tumkur Road, Goragunte Palya, Peenya, Bengaluru, Bangalore Urban, Karnataka, 560001, India",
            "longitude": "77.5360458",
            "latitude": "13.0311896",
            "blogLinks": [
                "https://www.tripoto.com/places-to-visit/india/karnataka"
            ],
            "locType": "trunk"
        },
        "bannerghatta road": {
            "closest_to": "nandi hills",
            "address": "Bannerghatta Road, MICO Layout, BTM Layout, Bengaluru, Bangalore Urban, Karnataka, 560001, India",
            "longitude": "77.6003196",
            "latitude": "12.9088191",
            "blogLinks": [
                "https://www.tripoto.com/places-to-visit/india/karnataka"
            ],
            "locType": "trunk"
        },
        "summer palace": {
            "closest_to": "nandi hills",
            "address": "Tippu's Summer Palace, A V Road, Ranasingpet, Kalasipalya, Bengaluru, Bangalore Urban, Karnataka, 560 002, India",
            "longitude": "77.5736841970666",
            "latitude": "12.95964655",
            "blogLinks": [
                "https://www.tripoto.com/places-to-visit/india/karnataka"
            ],
            "locType": "attraction"
        },
        "cubbon park": {
            "closest_to": "nandi hills",
            "address": "Cubbon Park, Cubbon Road, Tasker Town, Shivajinagar, Bengaluru, Bangalore Urban, Karnataka, 560001, India",
            "longitude": "77.5977565",
            "latitude": "12.9808487",
            "blogLinks": [
                "https://www.tripoto.com/places-to-visit/india/karnataka",
                "http://www.indiamike.com/india-articles/places-visit-near-bangalore"
            ],
            "locType": "station"
        },
        "kaveri nisargadhama": {
            "closest_to": "nandi hills",
            "address": "Kaveri Nisargadhama, NH275, 7th Hosakote, Somawarpet taluk, Kodagu, Karnataka, India",
            "longitude": "75.93356075",
            "latitude": "12.4416008",
            "blogLinks": [
                "https://www.tripoto.com/places-to-visit/india/karnataka"
            ],
            "locType": "park"
        },
        "cauvery river": {
            "closest_to": "nandi hills",
            "address": "Temple Trees Rd, Cauvery Colony, ST Bed Layout, Koramangala, Bengaluru, Bangalore Urban, Karnataka, 560001, India",
            "longitude": "77.635647",
            "latitude": "12.9327668",
            "blogLinks": [
                "https://www.tripoto.com/places-to-visit/india/karnataka"
            ],
            "locType": "unclassified"
        },
        "karavalli": {
            "closest_to": "nandi hills",
            "address": "Karavalli, FM Cariappa Road (Residency Road), Tasker Town, Ashok Nagar, Bengaluru, Bangalore Urban, Karnataka, 560001, India",
            "longitude": "77.608763",
            "latitude": "12.9724724",
            "blogLinks": [
                "https://www.tripoto.com/places-to-visit/india/karnataka"
            ],
            "locType": "restaurant"
        },
        "north karnataka": {
            "closest_to": "nandi hills",
            "address": "N, Chaithanya Samarpan, Kadugodi, Kannamangala, Bangalore Urban, Karnataka, 560066, India",
            "longitude": "77.7660547",
            "latitude": "13.0217151",
            "blogLinks": [
                "https://www.tripoto.com/places-to-visit/india/karnataka",
                "https://www.quora.com/What-are-the-best-places-to-visit-on-a-4-day-road-trip-in-and-around-Bangalore-Karnataka"
            ],
            "locType": "service"
        },
        "mysore city": {
            "closest_to": "nandi hills",
            "address": "Mysuru, Mysuru taluk, Mysuru district, Karnataka, 570001, India",
            "longitude": "76.6553609",
            "latitude": "12.3051828",
            "blogLinks": [
                "https://www.tripoto.com/places-to-visit/india/karnataka",
                "http://karnatakatrip1.blogspot.com/"
            ],
            "locType": "city"
        },
        "chamundeshwari temple": {
            "closest_to": "nandi hills",
            "address": "Chamundeshwari Temple, Nagarathpet Main Road, Ganigarpet, Chickpet, Bengaluru, Bangalore Urban, Karnataka, 560001, India",
            "longitude": "77.5793319839087",
            "latitude": "12.96746475",
            "blogLinks": [
                "https://www.tripoto.com/places-to-visit/india/karnataka"
            ],
            "locType": "place_of_worship"
        },
        "kushalanagara": {
            "closest_to": "nandi hills",
            "address": "Kushalanagara, Somawarpet taluk, Kodagu, Karnataka, 571234, India",
            "longitude": "75.961437",
            "latitude": "12.4585525",
            "blogLinks": [
                "https://www.tripoto.com/places-to-visit/india/karnataka"
            ],
            "locType": "town"
        },
        "bombay": {
            "closest_to": "nandi hills",
            "address": "Bombay tea hotel, Hosahalli Main Road, Rajajinagar 6th Block, Goripalya, Bengaluru, Bangalore Urban, Karnataka, 560001, India",
            "longitude": "77.5500256",
            "latitude": "12.9632318",
            "blogLinks": [
                "https://www.tripoto.com/places-to-visit/india/karnataka"
            ],
            "locType": "cafe"
        },
        "nandi hills": {
            "closest_to": "nandi hills",
            "address": "Nandi Upahara, Nandhi Hills Road, Kottige Thimmanahalli, Devanahalli taluk, Bangalore Rural, Karnataka, India",
            "longitude": "77.7194741670394",
            "latitude": "13.268142",
            "blogLinks": [
                "https://distancetravelling.wordpress.com/2015/02/07/sunrise-at-nandi-hill/",
                "http://www.indianholiday.com/tourist-attraction/karnataka/hill-stations-in-karnataka/nandi-hills.html",
                "http://www.indiamike.com/india-articles/places-visit-near-bangalore",
                "https://www.tripoto.com/places-to-visit/india/karnataka",
                "http://karnatakatrip1.blogspot.com/",
                "https://en.wikipedia.org/wiki/Nandi_Hills,_India",
                "http://www.buzzntravel.com/nandi-hills",
                "https://www.makemytrip.com/holidays-india/places-to-visit-nandi_hills.html",
                "http://www.myhappyjourney.com/Karnataka",
                "https://www.quora.com/What-are-the-must-visit-places-in-Bangalore-for-a-teenager",
                "http://www.mapsofindia.com/bangalore/places-of-interest/nandi-hills.html",
                "https://www.tripoto.com/weekend-getaways/from-nandi-hills"
            ],
            "locType": "hotel"
        },
        "periyar lake": {
            "closest_to": "nandi hills",
            "address": "Periyar Nagara Circle, Arabic College Main Road, Shampura, Lingarajapuram, Bengaluru, Bangalore Urban, Karnataka, 560001, India",
            "longitude": "77.6132559",
            "latitude": "13.0086948",
            "blogLinks": [
                "https://www.makemytrip.com/holidays-india/places-to-visit-nandi_hills.html"
            ],
            "locType": "roundabout"
        },
        "tunga river": {
            "closest_to": "nandi hills",
            "address": "Tunga, Tirthahalli taluk, Shimoga district, Karnataka, India",
            "longitude": "75.3221835",
            "latitude": "13.6632221",
            "blogLinks": [
                "https://www.tripoto.com/places-to-visit/india/karnataka"
            ],
            "locType": "river"
        },
        "nagarahole": {
            "closest_to": "nandi hills",
            "address": "Nagarahole, Heggadadevanakote taluk, Mysuru district, Karnataka, India",
            "longitude": "76.2286805",
            "latitude": "12.0229466",
            "blogLinks": [
                "https://www.tripoto.com/places-to-visit/india/karnataka"
            ],
            "locType": "river"
        },
        "pampa": {
            "closest_to": "nandi hills",
            "address": "Pampa Mahakavi Road, Ranasingpet, Kalasipalya, Bengaluru, Bangalore Urban, Karnataka, 560001, India",
            "longitude": "77.5719518",
            "latitude": "12.9581179",
            "blogLinks": [
                "https://www.tripoto.com/weekend-getaways/from-nandi-hills"
            ],
            "locType": "secondary"
        },
        "mercara": {
            "closest_to": "nandi hills",
            "address": "Madikeri, Madikeri taluku, Kodagu, Karnataka, India",
            "longitude": "75.740031",
            "latitude": "12.4204003",
            "blogLinks": [
                "https://www.tripoto.com/places-to-visit/india/karnataka"
            ],
            "locType": "town"
        },
        "agumbe": {
            "closest_to": "hampi",
            "address": "Agumbe, Tirthahalli taluk, Shimoga district, Karnataka, 577411, India",
            "longitude": "75.0965525",
            "latitude": "13.5094998",
            "blogLinks": [
                "https://www.tripoto.com/places-to-visit/india/karnataka"
            ],
            "locType": "village"
        },
        "belur": {
            "closest_to": "nandi hills",
            "address": "Belur, Beluru taluk, Hassan district, Karnataka, 573115, India",
            "longitude": "75.8634851",
            "latitude": "13.1645671",
            "blogLinks": [
                "https://www.tripoto.com/places-to-visit/india/karnataka"
            ],
            "locType": "town"
        },
        "mumbai": {
            "closest_to": "nandi hills",
            "address": "Mumbai Spice, 18/2, 10th Cross, Malleswaram, Vyalikaval, Malleswaram, Bengaluru, Bangalore Urban, Karnataka, 560003, India",
            "longitude": "77.5718472",
            "latitude": "13.0002869",
            "blogLinks": [
                "https://www.tripoto.com/places-to-visit/india/karnataka",
                "http://www.mapsofindia.com/karnataka/hampi-travel.html"
            ],
            "locType": "restaurant"
        },
        "arkavati river": {
            "closest_to": "nandi hills",
            "address": "Arkavati, Kanakapura taluk, Ramanagara district, Karnataka, India",
            "longitude": "77.3595883",
            "latitude": "12.6444026",
            "blogLinks": [
                "https://www.tripoto.com/places-to-visit/india/karnataka"
            ],
            "locType": "river"
        },
        "nandi": {
            "closest_to": "nandi hills",
            "address": "Nandi, Tarikere taluku, Chikkamagaluru district, Karnataka, India",
            "longitude": "75.8556266",
            "latitude": "13.6434094",
            "blogLinks": [
                "https://www.tripoto.com/places-to-visit/india/karnataka",
                "https://www.quora.com/What-are-the-best-places-to-visit-on-a-4-day-road-trip-in-and-around-Bangalore-Karnataka",
                "https://en.wikipedia.org/wiki/Nandi_Hills,_India",
                "https://distancetravelling.wordpress.com/2015/02/07/sunrise-at-nandi-hill/"
            ],
            "locType": "village"
        },
        "maharashtra": {
            "closest_to": "nandi hills",
            "address": "Bank of Maharashtra, 24th Main, K R Layout, Puttenahalli, Bengaluru, Bangalore Urban, Karnataka, 560001, India",
            "longitude": "77.5856013",
            "latitude": "12.9049455",
            "blogLinks": [
                "https://www.tripoto.com/places-to-visit/india/karnataka"
            ],
            "locType": "bank"
        },
        "south-west": {
            "closest_to": "nandi hills",
            "address": "Karnataka, India",
            "longitude": "75.7223521",
            "latitude": "14.5203896",
            "blogLinks": [
                "https://www.thrillophilia.com/places-to-visit-in-hampi"
            ],
            "locType": "administrative"
        },
        "kadalekalu ganesha": {
            "closest_to": "nandi hills",
            "address": "Kadalekalu Ganesha, Hampi Kamalapura Road, Hampe, Hosapete taluk, Bellary district, Karnataka, 583239, India",
            "longitude": "76.4611816490679",
            "latitude": "15.3328686",
            "blogLinks": [
                "https://www.thrillophilia.com/places-to-visit-in-hampi"
            ],
            "locType": "place_of_worship"
        },
        "anegundi": {
            "closest_to": "nandi hills",
            "address": "Anegundi, Gangavati taluku, Koppal district, Karnataka, India",
            "longitude": "76.4924232",
            "latitude": "15.3509583",
            "blogLinks": [
                "https://www.thrillophilia.com/places-to-visit-in-hampi",
                "http://www.mapsofindia.com/karnataka/hampi-travel.html"
            ],
            "locType": "village"
        },
        "sharadamba temple": {
            "closest_to": "nandi hills",
            "address": "Sharadamba Temple, 7th Main Road, Yediyur, Thyagaraja Nagar, Bengaluru, Bangalore Urban, Karnataka, 560001, India",
            "longitude": "77.5656194",
            "latitude": "12.9321898",
            "blogLinks": [
                "https://www.tripoto.com/places-to-visit/india/karnataka"
            ],
            "locType": "place_of_worship"
        },
        "kigga": {
            "closest_to": "hampi",
            "address": "Kigga, Sringeri taluku, Chikkamagaluru district, Karnataka, 577139, India",
            "longitude": "75.1903656777356",
            "latitude": "13.41691525",
            "blogLinks": [
                "https://www.tripoto.com/places-to-visit/india/karnataka"
            ],
            "locType": "village"
        },
        "sri krishna temple": {
            "closest_to": "nandi hills",
            "address": "Sri Krishna Temple Road, Old Binnamangala, Hoysala Nagar, Bengaluru, Bangalore Urban, Karnataka, 560001, India",
            "longitude": "77.6437236",
            "latitude": "12.9791699",
            "blogLinks": [
                "https://www.tripoto.com/places-to-visit/india/karnataka"
            ],
            "locType": "unclassified"
        },
        "vijaynagara": {
            "closest_to": "nandi hills",
            "address": "Vijaynagara, Chord Road, Marenahalli, Vijaya Nagar, Binny Layout, Bangalore Urban, Karnataka, 560040, India",
            "longitude": "77.5383681",
            "latitude": "12.9726377",
            "blogLinks": [
                "https://www.thrillophilia.com/places-to-visit-in-hampi"
            ],
            "locType": "bus_stop"
        },
        "om beach": {
            "closest_to": "hampi",
            "address": "Om Beach, Om beach road, Gokarna, Kumata taluk, Uttara Kannada, Karnataka, 581326, India",
            "longitude": "74.3254331800289",
            "latitude": "14.5190376",
            "blogLinks": [
                "https://www.tripoto.com/places-to-visit/india/karnataka"
            ],
            "locType": "beach"
        },
        "chennakesava temple": {
            "closest_to": "nandi hills",
            "address": "Chennakesava Temple, NH73, Navilahalli, Beluru taluk, Hassan district, Karnataka, India",
            "longitude": "75.8603311",
            "latitude": "13.1629239",
            "blogLinks": [
                "https://www.tripoto.com/places-to-visit/india/karnataka"
            ],
            "locType": "place_of_worship"
        },
        "anantapur": {
            "closest_to": "nandi hills",
            "address": "RTO Karnataka, Srinagar - Kanyakumari Highway, Paragodu, Bagepalli taluk, Chikkaballapura district, Karnataka, 561207, India",
            "longitude": "77.7596024",
            "latitude": "13.7972948",
            "blogLinks": [
                "http://www.indiamike.com/india-articles/places-visit-near-bangalore"
            ],
            "locType": "yes"
        },
        "sharavathi river": {
            "closest_to": "nandi hills",
            "address": "Sharavathi Block, National Games Village Road, Ambedkar Nagar, Ejipura, Bengaluru, Bangalore Urban, Karnataka, 560001, India",
            "longitude": "77.6216184337102",
            "latitude": "12.9464709",
            "blogLinks": [
                "https://www.tripoto.com/places-to-visit/india/karnataka"
            ],
            "locType": "yes"
        },
        "hubli": {
            "closest_to": "hampi",
            "address": "Hubballi - \u0cb9\u0cc1\u0cac\u0ccd\u0cac\u0cb3\u0ccd\u0cb3\u0cbf, Hubballi taluku, Dharwad district, Karnataka, 580020, India",
            "longitude": "75.1379848",
            "latitude": "15.3518378",
            "blogLinks": [
                "http://www.mapsofindia.com/karnataka/hampi-travel.html"
            ],
            "locType": "city"
        },
        "maravanthe": {
            "closest_to": "hampi",
            "address": "Nethaji Subhash Chandra Bose Government High School, Maravanthe, NH66, Navunda, \u0c95\u0cc1\u0c82\u0ca6\u0cbe\u0caa\u0cc1\u0cb0 \u0ca4\u0cbe\u0cb2\u0cc2\u0c95\u0cc1, Udupi district, Karnataka, 576224, India",
            "longitude": "74.6480358",
            "latitude": "13.7316626",
            "blogLinks": [
                "https://www.tripoto.com/places-to-visit/india/karnataka"
            ],
            "locType": "school"
        },
        "nugu": {
            "closest_to": "nandi hills",
            "address": "Nugu, Heggadadevanakote taluk, Mysuru district, Karnataka, India",
            "longitude": "76.4213276",
            "latitude": "11.8823658",
            "blogLinks": [
                "https://www.tripoto.com/places-to-visit/india/karnataka"
            ],
            "locType": "river"
        },
        "avalabetta": {
            "closest_to": "nandi hills",
            "address": "Avalabetta, Chikkaballapura taluk, Chikkaballapura district, Karnataka, India",
            "longitude": "77.6730413",
            "latitude": "13.5775096",
            "blogLinks": [
                "https://www.quora.com/What-are-the-best-places-to-visit-on-a-4-day-road-trip-in-and-around-Bangalore-Karnataka"
            ],
            "locType": "peak"
        },
        "vijaynagar": {
            "closest_to": "nandi hills",
            "address": "Vijaynagar, Chord Road, Marenahalli, Vijaya Nagar, Binny Layout, Bangalore Urban, Karnataka, 560040, India",
            "longitude": "77.5376657",
            "latitude": "12.9720356",
            "blogLinks": [
                "https://www.tripoto.com/places-to-visit/india/karnataka"
            ],
            "locType": "bus_stop"
        },
        "somwarpet": {
            "closest_to": "nandi hills",
            "address": "Somwarpet, Somawarpet taluk, Kodagu, Karnataka, 571236, India",
            "longitude": "75.8457638",
            "latitude": "12.6004446",
            "blogLinks": [
                "https://www.tripoto.com/places-to-visit/india/karnataka"
            ],
            "locType": "town"
        },
        "bellary road": {
            "closest_to": "nandi hills",
            "address": "Bellary Road, Kanaka Nagar, Hebbal, Bengaluru, Bangalore Urban, Karnataka, 560001, India",
            "longitude": "77.5915237",
            "latitude": "13.0465345",
            "blogLinks": [
                "https://www.tripoto.com/places-to-visit/india/karnataka",
                "https://en.wikipedia.org/wiki/Nandi_Hills,_India"
            ],
            "locType": "trunk"
        },
        "bellary": {
            "closest_to": "nandi hills",
            "address": "Bellary, Bellary district, Karnataka, India",
            "longitude": "76.8323648",
            "latitude": "15.2485413",
            "blogLinks": [
                "https://www.tripoto.com/places-to-visit/india/karnataka",
                "https://www.quora.com/What-are-the-best-places-to-visit-on-a-4-day-road-trip-in-and-around-Bangalore-Karnataka"
            ],
            "locType": "county"
        },
        "central bangalore": {
            "closest_to": "nandi hills",
            "address": "Central, UG07, UG08, Dr. Rajkumar Road, Rajajinagar 1st Block, Subrahmanya Nagar, Bengaluru, Bangalore Urban, Karnataka, 560001, India",
            "longitude": "77.5548006",
            "latitude": "13.0101286",
            "blogLinks": [
                "https://www.tripoto.com/places-to-visit/india/karnataka"
            ],
            "locType": "clothes"
        },
        "nilgiri range": {
            "closest_to": "nandi hills",
            "address": "Bangalore Nilgiri Road, Ittigegudu, Mysuru, Mysuru taluk, Mysuru district, Karnataka, 570001, India",
            "longitude": "76.658639",
            "latitude": "12.304105",
            "blogLinks": [
                "https://www.tripoto.com/weekend-getaways/from-nandi-hills"
            ],
            "locType": "primary"
        },
        "bandipur valley": {
            "closest_to": "nandi hills",
            "address": "Bandipur, Gundlupet taluk, Chamarajanagar district, Karnataka, India",
            "longitude": "76.6285739",
            "latitude": "11.6662708",
            "blogLinks": [
                "https://www.tripoto.com/places-to-visit/india/karnataka"
            ],
            "locType": "village"
        },
        "bengal": {
            "closest_to": "nandi hills",
            "address": "Bengal Lamps, Konadasapura, Bangalore Urban, Karnataka, 560066, India",
            "longitude": "77.7517038151245",
            "latitude": "13.0492646",
            "blogLinks": [
                "http://www.indiamike.com/india-articles/places-visit-near-bangalore",
                "https://www.tripoto.com/places-to-visit/india/karnataka",
                "https://en.wikipedia.org/wiki/Nandi_Hills,_India",
                "https://www.tripoto.com/weekend-getaways/from-nandi-hills"
            ],
            "locType": "industrial"
        },
        "lalbagh rock": {
            "closest_to": "nandi hills",
            "address": "Lalbagh Rock, Siddapura Road, Mavalli, Someshwaranagar, Bengaluru, Bangalore Urban, Karnataka, 560001, India",
            "longitude": "77.5892075522266",
            "latitude": "12.94871895",
            "blogLinks": [
                "https://www.tripoto.com/places-to-visit/india/karnataka"
            ],
            "locType": "bare_rock"
        },
        "goa": {
            "closest_to": "nandi hills",
            "address": "Carnival De Goa, Bhaskaran Road, Gupta Layout, Halasuru, Bengaluru, Bangalore Urban, Karnataka, 560001, India",
            "longitude": "77.6200027",
            "latitude": "12.9750047",
            "blogLinks": [
                "https://www.tripoto.com/places-to-visit/india/karnataka",
                "https://www.quora.com/What-are-the-best-places-to-visit-on-a-4-day-road-trip-in-and-around-Bangalore-Karnataka",
                "http://www.mapsofindia.com/karnataka/hampi-travel.html"
            ],
            "locType": "restaurant"
        },
        "taluk": {
            "closest_to": "nandi hills",
            "address": "Karnataka, Shalivahana Road, Nazarbad, Mysuru, Mysuru taluk, Mysuru district, Karnataka, 570001, India",
            "longitude": "76.6639936",
            "latitude": "12.3084901",
            "blogLinks": [
                "https://www.tripoto.com/places-to-visit/india/karnataka"
            ],
            "locType": "atm"
        },
        "malavalli": {
            "closest_to": "nandi hills",
            "address": "Malavalli, Malavalli taluk, Mandya district, Karnataka, 571430, India",
            "longitude": "77.0589464",
            "latitude": "12.3864073",
            "blogLinks": [
                "http://www.indiamike.com/india-articles/places-visit-near-bangalore"
            ],
            "locType": "town"
        },
        "mallikarjuna temple": {
            "closest_to": "hampi",
            "address": "Mallikarjuna Temple, SH135, Nelavagi, Badami taluku, Bagalkote district, Karnataka, India",
            "longitude": "75.7213492",
            "latitude": "15.9321101",
            "blogLinks": [
                "https://www.tripoto.com/places-to-visit/india/karnataka"
            ],
            "locType": "place_of_worship"
        },
        "doddaballapur road": {
            "closest_to": "nandi hills",
            "address": "Doddaballapur Road, 4th Phase, Yelahanka New Town, Anantapura, Bangalore Urban, Karnataka, 560065, India",
            "longitude": "77.5794292",
            "latitude": "13.113328",
            "blogLinks": [
                "http://www.indiamike.com/india-articles/places-visit-near-bangalore"
            ],
            "locType": "primary"
        },
        "east": {
            "closest_to": "nandi hills",
            "address": "East, 43, Velankani Drive, Electronics City Phase 1, Doddathoguru, Bangalore Urban, Karnataka, 560100, India",
            "longitude": "77.6601401",
            "latitude": "12.8504319",
            "blogLinks": [
                "https://www.quora.com/What-are-the-best-places-to-visit-on-a-4-day-road-trip-in-and-around-Bangalore-Karnataka"
            ],
            "locType": "restaurant"
        },
        "gaganachukki": {
            "closest_to": "nandi hills",
            "address": "Gaganachukki Falls, Malavalli taluk, Mandya district, Karnataka, India",
            "longitude": "77.1684763",
            "latitude": "12.2933696",
            "blogLinks": [
                "https://www.tripoto.com/places-to-visit/india/karnataka"
            ],
            "locType": "waterfall"
        },
        "pyramid valley": {
            "closest_to": "nandi hills",
            "address": "Pyramid Valley International, Kanakapura Road, Vaderahalli, Kanakapura taluk, Ramanagara district, Karnataka, India",
            "longitude": "77.4934813",
            "latitude": "12.7001678",
            "blogLinks": [
                "https://www.tripoto.com/places-to-visit/india/karnataka"
            ],
            "locType": "attraction"
        },
        "srirangapatna": {
            "closest_to": "nandi hills",
            "address": "Srirangapatna, Srirangapattana taluk, Mandya district, Karnataka, 571438, India",
            "longitude": "76.6850743",
            "latitude": "12.4225604",
            "blogLinks": [
                "https://www.tripoto.com/places-to-visit/india/karnataka"
            ],
            "locType": "town"
        },
        "gokarna": {
            "closest_to": "hampi",
            "address": "Gokarna, Kumata taluk, Uttara Kannada, Karnataka, 581326, India",
            "longitude": "74.3184418",
            "latitude": "14.5439629",
            "blogLinks": [
                "https://www.tripoto.com/places-to-visit/india/karnataka"
            ],
            "locType": "town"
        },
        "somanathapura": {
            "closest_to": "nandi hills",
            "address": "Somanathapura, Bagepalli taluk, Chikkaballapura district, Karnataka, India",
            "longitude": "77.9957587",
            "latitude": "13.75905",
            "blogLinks": [
                "https://www.tripoto.com/places-to-visit/india/karnataka"
            ],
            "locType": "village"
        },
        "golden temple": {
            "closest_to": "nandi hills",
            "address": "Padmasambhava Buddhist Vihara (Golden Temple), MDR21, Koppa, Piriyapattana taluk, Mysuru district, Karnataka, India",
            "longitude": "75.9674656",
            "latitude": "12.430821",
            "blogLinks": [
                "https://www.tripoto.com/places-to-visit/india/karnataka"
            ],
            "locType": "place_of_worship"
        },
        "kutta": {
            "closest_to": "nandi hills",
            "address": "Kutta, Virajpet taluk, Kodagu, Karnataka, India",
            "longitude": "76.0491296",
            "latitude": "11.9696155",
            "blogLinks": [
                "https://www.tripoto.com/places-to-visit/india/karnataka"
            ],
            "locType": "village"
        },
        "subramanya": {
            "closest_to": "nandi hills",
            "address": "Subramanya Arcade, Marenahalli, Bengaluru, Bangalore Urban, Karnataka, 560001, India",
            "longitude": "77.6015800913134",
            "latitude": "12.9251206",
            "blogLinks": [
                "https://www.tripoto.com/places-to-visit/india/karnataka"
            ],
            "locType": "commercial"
        },
        "north west mysore": {
            "closest_to": "nandi hills",
            "address": "Mysuru, Mysuru taluk, Mysuru district, Karnataka, 570001, India",
            "longitude": "76.6553609",
            "latitude": "12.3051828",
            "blogLinks": [
                "https://www.tripoto.com/places-to-visit/india/karnataka"
            ],
            "locType": "city"
        },
        "uttarahalli": {
            "closest_to": "nandi hills",
            "address": "Uttarahalli, Bengaluru, Bangalore Urban, Karnataka, 560001, India",
            "longitude": "77.5455438",
            "latitude": "12.9055682",
            "blogLinks": [
                "https://www.tripoto.com/places-to-visit/india/karnataka"
            ],
            "locType": "suburb"
        },
        "london": {
            "closest_to": "nandi hills",
            "address": "Karnataka, India",
            "longitude": "75.7223521",
            "latitude": "14.5203896",
            "blogLinks": [
                "https://www.tripoto.com/places-to-visit/india/karnataka",
                "https://en.wikipedia.org/wiki/Nandi_Hills,_India"
            ],
            "locType": "administrative"
        },
        "river arkavati": {
            "closest_to": "nandi hills",
            "address": "Arkavati, Kanakapura taluk, Ramanagara district, Karnataka, India",
            "longitude": "77.3595883",
            "latitude": "12.6444026",
            "blogLinks": [
                "http://www.mapsofindia.com/bangalore/places-of-interest/nandi-hills.html"
            ],
            "locType": "river"
        },
        "vitthala": {
            "closest_to": "nandi hills",
            "address": "Way to Vitthala Temple, Hampe, Hosapete taluk, Bellary district, Karnataka, 583239, India",
            "longitude": "76.4705005",
            "latitude": "15.3376716",
            "blogLinks": [
                "https://www.tripoto.com/places-to-visit/india/karnataka"
            ],
            "locType": "footway"
        },
        "sri chamarajendra zoological gardens": {
            "closest_to": "nandi hills",
            "address": "Sri Chamarajendra Zoological Garden, Kozhikode - Kollegal Highway, Race Course, Mysuru, Mysuru taluk, Mysuru district, Karnataka, 570001, India",
            "longitude": "76.6682662743162",
            "latitude": "12.3006384",
            "blogLinks": [
                "https://www.tripoto.com/places-to-visit/india/karnataka"
            ],
            "locType": "zoo"
        },
        "varanasi": {
            "closest_to": "nandi hills",
            "address": "Varanasi, Bangalore Urban, Karnataka, India",
            "longitude": "77.6860657",
            "latitude": "13.0304962",
            "blogLinks": [
                "https://www.tripoto.com/places-to-visit/india/karnataka"
            ],
            "locType": "village"
        },
        "river kaveri": {
            "closest_to": "nandi hills",
            "address": "Kaveri, Kollegala taluk, Chamarajanagar district, Karnataka, India",
            "longitude": "77.0635531",
            "latitude": "12.1687878",
            "blogLinks": [
                "https://www.tripoto.com/places-to-visit/india/karnataka",
                "http://www.indiamike.com/india-articles/places-visit-near-bangalore"
            ],
            "locType": "river"
        },
        "chamundeshwari": {
            "closest_to": "nandi hills",
            "address": "Chamundeshwari, Chidananda Maharashi Ashram Road, Sampangi Rama Nagara, MacIvor Town, Bengaluru, Bangalore Urban, Karnataka, 560027, India",
            "longitude": "77.5924927",
            "latitude": "12.9658588",
            "blogLinks": [
                "https://www.tripoto.com/places-to-visit/india/karnataka"
            ],
            "locType": "clothes"
        },
        "ibaco": {
            "closest_to": "nandi hills",
            "address": "ibaco, 12, Wood Street, Shantala Nagar, Ashok Nagar, Bengaluru, Bangalore Urban, Karnataka, 560051, India",
            "longitude": "77.6066202",
            "latitude": "12.9675888",
            "blogLinks": [
                "https://www.tripoto.com/weekend-getaways/from-nandi-hills"
            ],
            "locType": "fast_food"
        },
        "chandragupta maurya": {
            "closest_to": "nandi hills",
            "address": "Chandragupta Maurya playground, 11 Main (Sri Aurobindo Marg), Jayanagar 4th Block, Jayanagar, Bengaluru, Bangalore Urban, Karnataka, 560001, India",
            "longitude": "77.585340318101",
            "latitude": "12.92084805",
            "blogLinks": [
                "https://www.tripoto.com/places-to-visit/india/karnataka"
            ],
            "locType": "pitch"
        },
        "karnatka": {
            "closest_to": "nandi hills",
            "address": "Karnatka Rajya Kaigarika Sahakari Bank, Bull Temple Road, Mavalli, Chamarajapete, Bengaluru, Bangalore Urban, Karnataka, 560001, India",
            "longitude": "77.5679508",
            "latitude": "12.9500847",
            "blogLinks": [
                "https://www.tripoto.com/places-to-visit/india/karnataka"
            ],
            "locType": "bank"
        },
        "narasipura": {
            "closest_to": "nandi hills",
            "address": "Narasipura, Kaduru taluk, Chikkamagaluru district, Karnataka, India",
            "longitude": "76.0371725",
            "latitude": "13.6494023",
            "blogLinks": [
                "https://www.tripoto.com/places-to-visit/india/karnataka"
            ],
            "locType": "village"
        },
        "iruppu falls": {
            "closest_to": "nandi hills",
            "address": "Iruppu Falls, SH89, Taila, Virajpet taluk, Kodagu, Karnataka, 571217, India",
            "longitude": "75.9839484",
            "latitude": "11.9667954",
            "blogLinks": [
                "https://www.tripoto.com/places-to-visit/india/karnataka"
            ],
            "locType": "attraction"
        },
        "castle rock": {
            "closest_to": "hampi",
            "address": "Castle Rock, Joida taluk, Uttara Kannada, Karnataka, India",
            "longitude": "74.3347387",
            "latitude": "15.3942582",
            "blogLinks": [
                "https://www.tripoto.com/places-to-visit/india/karnataka"
            ],
            "locType": "village"
        },
        "mysuru": {
            "closest_to": "nandi hills",
            "address": "Mysuru, Mysuru taluk, Mysuru district, Karnataka, 570001, India",
            "longitude": "76.6553609",
            "latitude": "12.3051828",
            "blogLinks": [
                "https://www.tripoto.com/places-to-visit/india/karnataka"
            ],
            "locType": "city"
        },
        "kanva reservoir": {
            "closest_to": "nandi hills",
            "address": "Kanva Reservoir, Chamanahalli, Ramanagara taluk, Ramanagara district, Karnataka, India",
            "longitude": "77.2039784730662",
            "latitude": "12.73575",
            "blogLinks": [
                "https://www.tripoto.com/places-to-visit/india/karnataka"
            ],
            "locType": "reservoir"
        },
        "windsor": {
            "closest_to": "nandi hills",
            "address": "Windsor, 12th Main Road, HAL 2nd Stage, Indiranagar, Bengaluru, Bangalore Urban, Karnataka, 560001, India",
            "longitude": "77.6392137",
            "latitude": "12.9698614",
            "blogLinks": [
                "https://www.tripoto.com/places-to-visit/india/karnataka"
            ],
            "locType": "pub"
        },
        "bangalore international airport": {
            "closest_to": "nandi hills",
            "address": "Bangalore International Airport Road, Yartiganahalli, Devanahalli taluk, Bangalore Rural, Karnataka, 560300, India",
            "longitude": "77.6770396",
            "latitude": "13.1980694",
            "blogLinks": [
                "https://en.wikipedia.org/wiki/Nandi_Hills,_India",
                "http://www.mapsofindia.com/bangalore/places-of-interest/nandi-hills.html"
            ],
            "locType": "secondary"
        },
        "north western": {
            "closest_to": "hampi",
            "address": "South Western Railways Offices, Kamaripet, Hubballi - \u0cb9\u0cc1\u0cac\u0ccd\u0cac\u0cb3\u0ccd\u0cb3\u0cbf, Hubballi taluku, Dharwad district, Karnataka, 580020, India",
            "longitude": "75.1458521440593",
            "latitude": "15.35527435",
            "blogLinks": [
                "https://www.tripoto.com/places-to-visit/india/karnataka"
            ],
            "locType": "commercial"
        },
        "half moon beach": {
            "closest_to": "hampi",
            "address": "Half Moon Beach, Om beach road, Gokarna, Kumata taluk, Uttara Kannada, Karnataka, 581326, India",
            "longitude": "74.3310971256284",
            "latitude": "14.5179028",
            "blogLinks": [
                "https://www.tripoto.com/places-to-visit/india/karnataka"
            ],
            "locType": "beach"
        },
        "durga temple": {
            "closest_to": "nandi hills",
            "address": "Durga Temple, 29th Main, Mahadeshwara Nagara, BTM Layout, Bengaluru, Bangalore Urban, Karnataka, 560001, India",
            "longitude": "77.6125928",
            "latitude": "12.9057731",
            "blogLinks": [
                "https://www.tripoto.com/places-to-visit/india/karnataka"
            ],
            "locType": "place_of_worship"
        },
        "vaderahalli lake": {
            "closest_to": "nandi hills",
            "address": "Ujjappa Vaderahalli, Jagaluru taluku, Davanagere district, Karnataka, India",
            "longitude": "76.1593344",
            "latitude": "14.6149749",
            "blogLinks": [
                "https://www.tripoto.com/places-to-visit/india/karnataka"
            ],
            "locType": "village"
        },
        "ranganathaswamy temple": {
            "closest_to": "nandi hills",
            "address": "Ranganathaswamy Temple, Steps to Ranganathaswami Temple, Halekote, Hole Narasipura taluk, Hassan district, Karnataka, 573211, India",
            "longitude": "76.1812411",
            "latitude": "12.854149",
            "blogLinks": [
                "https://www.tripoto.com/places-to-visit/india/karnataka"
            ],
            "locType": "place_of_worship"
        },
        "brahmagiri peak": {
            "closest_to": "nandi hills",
            "address": "Brahmagiri, Madikeri taluku, Kodagu, Karnataka, India",
            "longitude": "75.490746",
            "latitude": "12.3868578",
            "blogLinks": [
                "https://www.tripoto.com/weekend-getaways/from-nandi-hills"
            ],
            "locType": "peak"
        },
        "bangalore city station": {
            "closest_to": "nandi hills",
            "address": "Bangalore City Junction, Okalipura, Bengaluru, Bangalore Urban, Karnataka, 560001, India",
            "longitude": "77.5681002127154",
            "latitude": "12.97578575",
            "blogLinks": [
                "http://www.indiamike.com/india-articles/places-visit-near-bangalore"
            ],
            "locType": "industrial"
        },
        "hoysala": {
            "closest_to": "nandi hills",
            "address": "Hoysala Nagar, Bengaluru, Bangalore Urban, Karnataka, 560001, India",
            "longitude": "77.6375990817051",
            "latitude": "12.97813815",
            "blogLinks": [
                "https://www.tripoto.com/places-to-visit/india/karnataka"
            ],
            "locType": "administrative"
        },
        "karnataka state": {
            "closest_to": "nandi hills",
            "address": "Karnataka State Open University, \u0cb9\u0cc1\u0ca3\u0cb8\u0cc2\u0cb0\u0cc1 \u0cb0\u0cb8\u0ccd\u0ca4\u0cc6, Gokulam, Mysuru, Mysuru taluk, Mysuru district, Karnataka, 570001, India",
            "longitude": "76.6236231",
            "latitude": "12.315382",
            "blogLinks": [
                "https://www.tripoto.com/places-to-visit/india/karnataka"
            ],
            "locType": "university"
        },
        "emerald lake": {
            "closest_to": "nandi hills",
            "address": "Emerald Isle Resort, NH75, Lakshmisagara, Kolar taluk, Kolar district, Karnataka, 563133, India",
            "longitude": "77.8188013",
            "latitude": "13.0833534",
            "blogLinks": [
                "https://www.tripoto.com/weekend-getaways/from-nandi-hills"
            ],
            "locType": "hotel"
        },
        "lakshmana tirtha falls": {
            "closest_to": "nandi hills",
            "address": "Iruppu Falls, SH89, Taila, Virajpet taluk, Kodagu, Karnataka, 571217, India",
            "longitude": "75.9839484",
            "latitude": "11.9667954",
            "blogLinks": [
                "https://www.tripoto.com/places-to-visit/india/karnataka"
            ],
            "locType": "attraction"
        },
        "kabini": {
            "closest_to": "nandi hills",
            "address": "Kabini, Heggadadevanakote taluk, Mysuru district, Karnataka, India",
            "longitude": "76.4152088",
            "latitude": "12.0140065",
            "blogLinks": [
                "https://www.tripoto.com/places-to-visit/india/karnataka"
            ],
            "locType": "river"
        },
        "sangam": {
            "closest_to": "nandi hills",
            "address": "Sangam, FM Cariappa Road (Residency Road), Shantala Nagar, MacIvor Town, Bengaluru, Bangalore Urban, Karnataka, 560001, India",
            "longitude": "77.6065672",
            "latitude": "12.9718928",
            "blogLinks": [
                "https://www.tripoto.com/places-to-visit/india/karnataka"
            ],
            "locType": "restaurant"
        },
        "kanakpura road": {
            "closest_to": "nandi hills",
            "address": "H 902, Mantri Tranquil, Gubbalala, Off Kanakpura Road, Bengaluru - 61, Subramanyapura Main Road, Singapore Gardens, Uttarahalli, Gubbalala, Bangalore Urban, Karnataka, 560086, India",
            "longitude": "77.5438085908703",
            "latitude": "12.8866679",
            "blogLinks": [
                "https://www.tripoto.com/weekend-getaways/from-nandi-hills"
            ],
            "locType": "yes"
        },
        "butterfly park": {
            "closest_to": "nandi hills",
            "address": "Butterfly Park, Anekal Road, Begihalli, Bangalore Urban, Karnataka, 560076, India",
            "longitude": "77.5764115869651",
            "latitude": "12.7969443",
            "blogLinks": [
                "http://www.indiamike.com/india-articles/places-visit-near-bangalore"
            ],
            "locType": "attraction"
        },
        "londa": {
            "closest_to": "hampi",
            "address": "Londa, Khanapura taluku, Belgaum district, Karnataka, India",
            "longitude": "74.4932422",
            "latitude": "15.4524311",
            "blogLinks": [
                "https://www.tripoto.com/places-to-visit/india/karnataka"
            ],
            "locType": "village"
        },
        "lakkundi": {
            "closest_to": "hampi",
            "address": "Lakkundi, Muddebihala taluku, Bijapur district, Karnataka, India",
            "longitude": "76.4084687",
            "latitude": "16.5255464",
            "blogLinks": [
                "https://www.tripoto.com/places-to-visit/india/karnataka"
            ],
            "locType": "village"
        },
        "tumkur": {
            "closest_to": "nandi hills",
            "address": "Tumakuru, Tumkur district, Karnataka, India",
            "longitude": "77.0002445",
            "latitude": "13.4999406",
            "blogLinks": [
                "https://www.tripoto.com/places-to-visit/india/karnataka"
            ],
            "locType": "county"
        },
        "malayalam": {
            "closest_to": "nandi hills",
            "address": "Lowry Adventist Malayalam Church, A Narayanapura Main Road, Darga Mohalla, Udaya Nagar, A Narayanapura, Bangalore Urban, Karnataka, 560016, India",
            "longitude": "77.6774283",
            "latitude": "12.9985726",
            "blogLinks": [
                "https://www.makemytrip.com/holidays-india/places-to-visit-nandi_hills.html"
            ],
            "locType": "place_of_worship"
        },
        "mahishasura": {
            "closest_to": "nandi hills",
            "address": "Mahishasura, Chamundi Hill Road, Race Course, Mysuru, Mysuru taluk, Mysuru district, Karnataka, 570001, India",
            "longitude": "76.6709592",
            "latitude": "12.2750725",
            "blogLinks": [
                "https://www.tripoto.com/places-to-visit/india/karnataka"
            ],
            "locType": "artwork"
        },
        "nandi hills of karnataka": {
            "closest_to": "nandi hills",
            "address": "Nandi Hills Playground, Nandi Hill Road, Kuduvati, Chikkaballapura taluk, Chikkaballapura district, Karnataka, India",
            "longitude": "77.6841533",
            "latitude": "13.3701322",
            "blogLinks": [
                "http://www.indianholiday.com/tourist-attraction/karnataka/hill-stations-in-karnataka/nandi-hills.html"
            ],
            "locType": "playground"
        },
        "kenya": {
            "closest_to": "nandi hills",
            "address": "Kenya, Sulya taluk, Dakshina Kannada, Karnataka, India",
            "longitude": "75.5001151",
            "latitude": "12.6920464",
            "blogLinks": [
                "https://en.wikipedia.org/wiki/Nandi_Hills,_India"
            ],
            "locType": "hamlet"
        },
        "india bengaluru": {
            "closest_to": "nandi hills",
            "address": "Karnataka High Court, Dr B R Ambedkar Veedhi, Shantala Nagar, Gandhinagar, Bengaluru, Bangalore Urban, Karnataka, 560001, India",
            "longitude": "77.5925914",
            "latitude": "12.977944",
            "blogLinks": [
                "https://www.quora.com/What-are-the-must-visit-places-in-Bangalore-for-a-teenager"
            ],
            "locType": "courthouse"
        },
        "lalbagh botanical gardens": {
            "closest_to": "nandi hills",
            "address": "Lalbagh Botanical Gardens, Siddapura Road, Mavalli, Someshwaranagar, Bengaluru, Bangalore Urban, Karnataka, 560001, India",
            "longitude": "77.5869868789796",
            "latitude": "12.9489367",
            "blogLinks": [
                "https://www.tripoto.com/places-to-visit/india/karnataka"
            ],
            "locType": "attraction"
        },
        "kamalapura": {
            "closest_to": "nandi hills",
            "address": "Kamalapura, Harihara taluku, Davanagere district, Karnataka, India",
            "longitude": "75.7316366",
            "latitude": "14.4449672",
            "blogLinks": [
                "https://www.tripoto.com/weekend-getaways/from-nandi-hills"
            ],
            "locType": "village"
        },
        "sringeri": {
            "closest_to": "hampi",
            "address": "Sringeri, Sringeri taluku, Chikkamagaluru district, Karnataka, 577592, India",
            "longitude": "75.2553718",
            "latitude": "13.4261724",
            "blogLinks": [
                "https://www.tripoto.com/places-to-visit/india/karnataka"
            ],
            "locType": "town"
        },
        "bhadra": {
            "closest_to": "nandi hills",
            "address": "Bhadra, Chikkamagaluru taluku, Chikkamagaluru district, Karnataka, India",
            "longitude": "75.527118",
            "latitude": "13.4888356",
            "blogLinks": [
                "https://www.tripoto.com/places-to-visit/india/karnataka"
            ],
            "locType": "river"
        },
        "kerala": {
            "closest_to": "nandi hills",
            "address": "New Life Kerala Mess, Sai Baba Mandira Road, Mottappanapalaya, Indiranagar, Bengaluru, Bangalore Urban, Karnataka, 560001, India",
            "longitude": "77.6382683",
            "latitude": "12.9726449",
            "blogLinks": [
                "https://www.tripoto.com/places-to-visit/india/karnataka",
                "https://www.makemytrip.com/holidays-india/places-to-visit-nandi_hills.html",
                "https://www.tripoto.com/weekend-getaways/from-nandi-hills"
            ],
            "locType": "restaurant"
        },
        "kudle": {
            "closest_to": "hampi",
            "address": "Kudle Ocean Front resort, Om beach road, Gokarna, Kumata taluk, Uttara Kannada, Karnataka, 581326, India",
            "longitude": "74.3178853",
            "latitude": "14.5290707",
            "blogLinks": [
                "https://www.tripoto.com/places-to-visit/india/karnataka"
            ],
            "locType": "hotel"
        },