{
    "shravanabelagola": {
        "place_id": "624171",
        "osm_id": "245612228",
        "icon": "https://nominatim.openstreetmap.org/images/mapicons/poi_place_town.p.20.png",
        "osm_type": "node",
        "licence": "Data \u00a9 OpenStreetMap contributors, ODbL 1.0. http://www.openstreetmap.org/copyright",
        "display_name": "Shravanabelagola, Channarayapattana taluk, Hassan district, Karnataka, 573135, India",
        "type": "town",
        "lon": "76.4869997",
        "boundingbox": [
            "12.8181305",
            "12.8981305",
            "76.4469997",
            "76.5269997"
        ],
        "importance": 0.54025131828771,
        "lat": "12.8581305",
        "class": "place"
    },
    "mentions": {
        "badami": {
            "closest_to": "hubli",
            "address": "Badami, Badami taluku, Bagalkote district, Karnataka, 587200, India",
            "longitude": "75.6807865",
            "latitude": "15.9203874",
            "blogLinks": [
                "http://www.nivalink.com/destination/hubli"
            ],
            "locType": "town"
        },
        "kaveri": {
            "closest_to": "shravanabelagola",
            "address": "Kaveri, Kollegala taluk, Chamarajanagar district, Karnataka, India",
            "longitude": "77.0635531",
            "latitude": "12.1687878",
            "blogLinks": [
                "http://www.bookcab.in/hubli-to-mysore-car-rental"
            ],
            "locType": "river"
        },
        "coimbatore": {
            "closest_to": "shravanabelagola",
            "address": "Gundlupet - Coimbatore Highway, Bandipur, Gundlupet taluk, Chamarajanagar district, Karnataka, India",
            "longitude": "76.6318246",
            "latitude": "11.6793976",
            "blogLinks": [
                "https://www.tripoto.com/weekend-getaways/from-belur",
                "http://praja.in/en/blog/kbsyed61/2009/02/16/karnataka-and-railways-game-praja-initiative"
            ],
            "locType": "trunk"
        },
        "u.k.": {
            "closest_to": "shravanabelagola",
            "address": "Karnataka, India",
            "longitude": "75.7223521",
            "latitude": "14.5203896",
            "blogLinks": [
                "http://praja.in/en/blog/kbsyed61/2009/02/16/karnataka-and-railways-game-praja-initiative"
            ],
            "locType": "administrative"
        },
        "gomateshwara": {
            "closest_to": "shravanabelagola",
            "address": "Bahubali Statue, SH8, Shravanabelagola, Channarayapattana taluk, Hassan district, Karnataka, 573135, India",
            "longitude": "76.4846128",
            "latitude": "12.8540505",
            "blogLinks": [
                "http://timesofindia.indiatimes.com/city/mysuru/Mahamastakabhisheka-at-Shravanabelagola-in-2018/articleshow/47410714.cms"
            ],
            "locType": "place_of_worship"
        },
        "madikeri fort": {
            "closest_to": "shravanabelagola",
            "address": "Madikeri Museum, Fort Internal Road, Madikeri, Madikeri taluku, Kodagu, Karnataka, India",
            "longitude": "75.7392494",
            "latitude": "12.4203606",
            "blogLinks": [
                "https://www.tripoto.com/weekend-getaways/from-belur"
            ],
            "locType": "museum"
        },
        "chikmagalur": {
            "closest_to": "shravanabelagola",
            "address": "Chikmagalur, Chikkamagaluru district, Karnataka, India",
            "longitude": "75.5",
            "latitude": "13.5",
            "blogLinks": [
                "http://thinkingparticle.com/articles/kemmangundi-and-hebbe-falls-trek"
            ],
            "locType": "county"
        },
        "tungabhadra river": {
            "closest_to": "shravanabelagola",
            "address": "Tungabhadra, Gangavati taluku, Koppal district, Karnataka, India",
            "longitude": "76.4931607",
            "latitude": "15.3446123",
            "blogLinks": [
                "https://www.tripoto.com/weekend-getaways/from-belur"
            ],
            "locType": "river"
        },
        "chennakesava": {
            "closest_to": "shravanabelagola",
            "address": "Chennakesava Temple, NH73, Navilahalli, Beluru taluk, Hassan district, Karnataka, India",
            "longitude": "75.8603311",
            "latitude": "13.1629239",
            "blogLinks": [
                "https://www.tripoto.com/weekend-getaways/from-belur"
            ],
            "locType": "place_of_worship"
        },
        "tarikere": {
            "closest_to": "shravanabelagola",
            "address": "Tarikere, Madduru taluk, Mandya district, Karnataka, India",
            "longitude": "76.9606245",
            "latitude": "12.7569125",
            "blogLinks": [
                "http://thinkingparticle.com/articles/kemmangundi-and-hebbe-falls-trek"
            ],
            "locType": "village"
        },
        "kundapura": {
            "closest_to": "shravanabelagola",
            "address": "Kundapura, \u0c95\u0cc1\u0c82\u0ca6\u0cbe\u0caa\u0cc1\u0cb0 \u0ca4\u0cbe\u0cb2\u0cc2\u0c95\u0cc1, Udupi district, Karnataka, 576200, India",
            "longitude": "74.6915722",
            "latitude": "13.6250993",
            "blogLinks": [
                "http://www.nivalink.com/destination/hubli"
            ],
            "locType": "town"
        },
        "jog falls": {
            "closest_to": "shravanabelagola",
            "address": "Jog Falls, Joga - Kargal, Sagara taluk, Shimoga district, Karnataka, India",
            "longitude": "74.8128715",
            "latitude": "14.2276106",
            "blogLinks": [
                "http://wikitravel.org/en/Hubli"
            ],
            "locType": "locality"
        },
        "dharwad": {
            "closest_to": "hubli",
            "address": "Dharwad, Dharawada taluku, Dharwad district, Karnataka, 580001, India",
            "longitude": "75.0066516",
            "latitude": "15.4540505",
            "blogLinks": [
                "http://wikitravel.org/en/Hubli"
            ],
            "locType": "city"
        },
        "mantralaya": {
            "closest_to": "hubli",
            "address": "Mantralaya Road, Raichur, Rayachuru taluku, Raichur district, Karnataka, 584100, India",
            "longitude": "77.3610338",
            "latitude": "16.1912419",
            "blogLinks": [
                "http://www.mapsofindia.com/maps/karnataka/karnataka-travel-map.html"
            ],
            "locType": "trunk"
        },
        "prince restaurant": {
            "closest_to": "shravanabelagola",
            "address": "Prince, Hampi Bazaar, Hampe, Hosapete taluk, Bellary district, Karnataka, 583239, India",
            "longitude": "76.4602348",
            "latitude": "15.3355701",
            "blogLinks": [
                "https://www.tripoto.com/weekend-getaways/from-belur"
            ],
            "locType": "restaurant"
        },
        "rain-tree": {
            "closest_to": "shravanabelagola",
            "address": "Rain Tree, 3rd Main Road, Defence Colony, Hoysala Nagar, Bengaluru, Bangalore Urban, Karnataka, 560001, India",
            "longitude": "77.6414765",
            "latitude": "12.9757365",
            "blogLinks": [
                "https://www.tripoto.com/weekend-getaways/from-belur"
            ],
            "locType": "tree"
        },
        "kalhatti": {
            "closest_to": "shravanabelagola",
            "address": "Kallathgiri falls, Tarikere taluku, Chikkamagaluru district, Karnataka, India",
            "longitude": "75.7889882",
            "latitude": "13.5499877",
            "blogLinks": [
                "http://thinkingparticle.com/articles/kemmangundi-and-hebbe-falls-trek"
            ],
            "locType": "waterfall"
        },
        "karwar": {
            "closest_to": "hubli",
            "address": "Karwar, Karavara taluk, Uttara Kannada, Karnataka, 581300, India",
            "longitude": "74.1319229",
            "latitude": "14.8120931",
            "blogLinks": [
                "http://wikitravel.org/en/Hubli",
                "http://praja.in/en/blog/kbsyed61/2009/02/16/karnataka-and-railways-game-praja-initiative"
            ],
            "locType": "town"
        },
        "brahmagiri peak": {
            "closest_to": "shravanabelagola",
            "address": "Brahmagiri, Madikeri taluku, Kodagu, Karnataka, India",
            "longitude": "75.490746",
            "latitude": "12.3868578",
            "blogLinks": [
                "https://www.tripoto.com/weekend-getaways/from-belur"
            ],
            "locType": "peak"
        },
        "moyar": {
            "closest_to": "shravanabelagola",
            "address": "Moyar Gorge, Gundlupet - Coimbatore Highway, Bandipur, Gundlupet taluk, Chamarajanagar district, Karnataka, India",
            "longitude": "76.631118",
            "latitude": "11.6161121",
            "blogLinks": [
                "https://www.tripoto.com/weekend-getaways/from-belur"
            ],
            "locType": "viewpoint"
        },
        "hoysala": {
            "closest_to": "shravanabelagola",
            "address": "Hoysala Nagar, Bengaluru, Bangalore Urban, Karnataka, 560001, India",
            "longitude": "77.6375990817051",
            "latitude": "12.97813815",
            "blogLinks": [
                "http://www.holidayiq.com/destinations/halebid-and-belur/photos/p2.html"
            ],
            "locType": "administrative"
        },
        "bijapur": {
            "closest_to": "hubli",
            "address": "Vijayapura, Vijayapura taluk, Bijapur district, Karnataka, 586101, India",
            "longitude": "75.7175387",
            "latitude": "16.8269911",
            "blogLinks": [
                "http://www.nivalink.com/destination/hubli",
                "http://wikitravel.org/en/Hubli",
                "https://www.tripoto.com/weekend-getaways/from-belur",
                "http://praja.in/en/blog/kbsyed61/2009/02/16/karnataka-and-railways-game-praja-initiative"
            ],
            "locType": "city"
        },
        "hubli-dharwad road": {
            "closest_to": "hubli",
            "address": "Hubli Dharwad Road, Gandhinagar, Navalur, Dharawada taluku, Dharwad district, Karnataka, 580002, India",
            "longitude": "75.0366396",
            "latitude": "15.4231154",
            "blogLinks": [
                "http://wikitravel.org/en/Hubli"
            ],
            "locType": "primary"
        },
        "gulbarga": {
            "closest_to": "hubli",
            "address": "Kalaburgi, Kalaburagi district, Karnataka, India",
            "longitude": "77.083333",
            "latitude": "17.166667",
            "blogLinks": [
                "http://www.ticketgoose.com/bus-tickets/hubli-to-channarayapatana"
            ],
            "locType": "county"
        },
        "giriyas": {
            "closest_to": "shravanabelagola",
            "address": "Giriyas Electronics, Karnad Sadashiva Rao Road, Dongerkeri, Attavar, Mangaluru, Mangaluru taluk, Dakshina Kannada, Karnataka, 575001, India",
            "longitude": "74.8422606",
            "latitude": "12.8694149",
            "blogLinks": [
                "http://wikitravel.org/en/Hubli"
            ],
            "locType": "supermarket"
        },
        "kabini": {
            "closest_to": "shravanabelagola",
            "address": "Kabini, Heggadadevanakote taluk, Mysuru district, Karnataka, India",
            "longitude": "76.4152088",
            "latitude": "12.0140065",
            "blogLinks": [
                "https://www.scribd.com/doc/298112023/Karnataka-Tourism-Policy-2014",
                "http://www.mapsofindia.com/maps/karnataka/karnataka-travel-map.html"
            ],
            "locType": "river"
        },
        "north goa": {
            "closest_to": "shravanabelagola",
            "address": "Carnival De Goa, Bhaskaran Road, Gupta Layout, Halasuru, Bengaluru, Bangalore Urban, Karnataka, 560001, India",
            "longitude": "77.6200027",
            "latitude": "12.9750047",
            "blogLinks": [
                "https://www.tripoto.com/weekend-getaways/from-hubli"
            ],
            "locType": "restaurant"
        },
        "p.b rd": {
            "closest_to": "shravanabelagola",
            "address": "Pune Bangalore Road, Chanakya Puri, Old Hubli, Hubballi - \u0cb9\u0cc1\u0cac\u0ccd\u0cac\u0cb3\u0ccd\u0cb3\u0cbf, Hubballi taluku, Dharwad district, Karnataka, 580020, India",
            "longitude": "75.1368445",
            "latitude": "15.3416245",
            "blogLinks": [
                "http://wikitravel.org/en/Hubli"
            ],
            "locType": "primary"
        },
        "green garden": {
            "closest_to": "shravanabelagola",
            "address": "garden, N Hosahalli, Hosakote taluk, Bangalore Rural, Karnataka, India",
            "longitude": "77.9285817637065",
            "latitude": "13.19253335",
            "blogLinks": [
                "http://wikitravel.org/en/Hubli"
            ],
            "locType": "orchard"
        },
        "hubli": {
            "closest_to": "hubli",
            "address": "Hubballi - \u0cb9\u0cc1\u0cac\u0ccd\u0cac\u0cb3\u0ccd\u0cb3\u0cbf, Hubballi taluku, Dharwad district, Karnataka, 580020, India",
            "longitude": "75.1379848",
            "latitude": "15.3518378",
            "blogLinks": [
                "http://www.bookcab.in/hubli-to-mysore-car-rental",
                "https://www.tripoto.com/weekend-getaways/from-belur",
                "https://www.scribd.com/doc/298112023/Karnataka-Tourism-Policy-2014",
                "http://wikitravel.org/en/Hubli",
                "http://praja.in/en/blog/kbsyed61/2009/02/16/karnataka-and-railways-game-praja-initiative",
                "http://www.ticketgoose.com/bus-tickets/hubli-to-channarayapatana",
                "http://www.nivalink.com/destination/hubli"
            ],
            "locType": "city"
        },
        "tumkur": {
            "closest_to": "shravanabelagola",
            "address": "Tumakuru, Tumkur district, Karnataka, India",
            "longitude": "77.0002445",
            "latitude": "13.4999406",
            "blogLinks": [
                "http://praja.in/en/blog/kbsyed61/2009/02/16/karnataka-and-railways-game-praja-initiative"
            ],
            "locType": "county"
        },
        "lingadahalli": {
            "closest_to": "shravanabelagola",
            "address": "Lingadahalli, Pavagada taluk, Tumkur district, Karnataka, India",
            "longitude": "77.0452806",
            "latitude": "14.1882016",
            "blogLinks": [
                "http://thinkingparticle.com/articles/kemmangundi-and-hebbe-falls-trek"
            ],
            "locType": "village"
        },
        "palani": {
            "closest_to": "shravanabelagola",
            "address": "Palani, Neelasandra Bazaar Street, Austin Town BDA Layout, Neelasandra, Bengaluru, Bangalore Urban, Karnataka, 560001, India",
            "longitude": "77.6168951",
            "latitude": "12.9537341",
            "blogLinks": [
                "https://www.tripoto.com/weekend-getaways/from-belur"
            ],
            "locType": "recycling"
        },
        "yeshwantpur": {
            "closest_to": "shravanabelagola",
            "address": "Yeshwantpur, Deewanarapalya, Bangalore Urban, Karnataka, India",
            "longitude": "77.5566302",
            "latitude": "13.0236062",
            "blogLinks": [
                "http://praja.in/en/blog/kbsyed61/2009/02/16/karnataka-and-railways-game-praja-initiative"
            ],
            "locType": "suburb"
        },
        "lucknow": {
            "closest_to": "shravanabelagola",
            "address": "Via Lucknow, New BEL Road, Dollar Colony, Raj Mahal Vilas, Jaladarshini Layout, Bangalore Urban, Karnataka, 560094, India",
            "longitude": "77.5660503",
            "latitude": "13.0367811",
            "blogLinks": [
                "http://praja.in/en/blog/kbsyed61/2009/02/16/karnataka-and-railways-game-praja-initiative"
            ],
            "locType": "restaurant"
        },
        "pampa": {
            "closest_to": "shravanabelagola",
            "address": "Pampa Mahakavi Road, Ranasingpet, Kalasipalya, Bengaluru, Bangalore Urban, Karnataka, 560001, India",
            "longitude": "77.5719518",
            "latitude": "12.9581179",
            "blogLinks": [
                "https://www.tripoto.com/weekend-getaways/from-belur"
            ],
            "locType": "secondary"
        },
        "kunigal": {
            "closest_to": "shravanabelagola",
            "address": "Kunigal, Kunigal taluk, Tumkur district, Karnataka, 572130, India",
            "longitude": "77.0236705",
            "latitude": "13.0238782",
            "blogLinks": [
                "http://timesofindia.indiatimes.com/City/Mangaluru/Shorter-travel-time-for-Mangalureans-after-Shravanabelagola-Nelamangala-stretch-completion-in-2016-17/articleshow/52095263.cms"
            ],
            "locType": "town"
        },
        "bengaluru international airport": {
            "closest_to": "shravanabelagola",
            "address": "Kempegowda International Airport (KIA), Bengaluru, Restricted Lane, Anneshvara, Devanahalli taluk, Bangalore Rural, Karnataka, 560300, India",
            "longitude": "77.7065674158539",
            "latitude": "13.2042586",
            "blogLinks": [
                "http://www.mapsofindia.com/maps/karnataka/karnataka-travel-map.html"
            ],
            "locType": "aerodrome"
        },
        "puttur": {
            "closest_to": "shravanabelagola",
            "address": "Putturu, Putturu taluk, Dakshina Kannada, Karnataka, 574200, India",
            "longitude": "75.2018421",
            "latitude": "12.7632858",
            "blogLinks": [
                "http://timesofindia.indiatimes.com/City/Mangaluru/Shorter-travel-time-for-Mangalureans-after-Shravanabelagola-Nelamangala-stretch-completion-in-2016-17/articleshow/52095263.cms"
            ],
            "locType": "town"
        },
        "ulavi": {
            "closest_to": "shravanabelagola",
            "address": "Ulavi, Soraba taluk, Shimoga district, Karnataka, 577434, India",
            "longitude": "75.109001",
            "latitude": "14.2716118",
            "blogLinks": [
                "http://wikitravel.org/en/Hubli"
            ],
            "locType": "village"
        },
        "raja seat": {
            "closest_to": "shravanabelagola",
            "address": "Raja Seat, Mahatma Gandhi Road, Madikeri, Madikeri taluku, Kodagu, Karnataka, India",
            "longitude": "75.7369653316478",
            "latitude": "12.41421975",
            "blogLinks": [
                "https://www.tripoto.com/weekend-getaways/from-belur"
            ],
            "locType": "park"
        },
        "hampi": {
            "closest_to": "shravanabelagola",
            "address": "Hampe, Hosapete taluk, Bellary district, Karnataka, 583239, India",
            "longitude": "76.4606199",
            "latitude": "15.3359769",
            "blogLinks": [
                "http://wikitravel.org/en/Hubli",
                "https://www.tripoto.com/weekend-getaways/from-belur",
                "http://www.mapsofindia.com/maps/karnataka/karnataka-travel-map.html",
                "http://www.nivalink.com/destination/hubli"
            ],
            "locType": "village"
        },
        "kemmangundi": {
            "closest_to": "shravanabelagola",
            "address": "Kemmannagundi, Tarikere taluku, Chikkamagaluru district, Karnataka, India",
            "longitude": "75.7520082",
            "latitude": "13.5463048",
            "blogLinks": [
                "http://thinkingparticle.com/articles/kemmangundi-and-hebbe-falls-trek"
            ],
            "locType": "village"
        },
        "mundgod": {
            "closest_to": "shravanabelagola",
            "address": "Mundgod, Mundagoda taluk, Uttara Kannada, Karnataka, 581349, India",
            "longitude": "75.0371451",
            "latitude": "14.9705105",
            "blogLinks": [
                "http://www.nivalink.com/destination/hubli"
            ],
            "locType": "village"
        },
        "kamalapura": {
            "closest_to": "shravanabelagola",
            "address": "Kamalapura, Harihara taluku, Davanagere district, Karnataka, India",
            "longitude": "75.7316366",
            "latitude": "14.4449672",
            "blogLinks": [
                "https://www.tripoto.com/weekend-getaways/from-belur"
            ],
            "locType": "village"
        },
        "maharashtra": {
            "closest_to": "shravanabelagola",
            "address": "Bank of Maharashtra, 24th Main, K R Layout, Puttenahalli, Bengaluru, Bangalore Urban, Karnataka, 560001, India",
            "longitude": "77.5856013",
            "latitude": "12.9049455",
            "blogLinks": [
                "http://www.mapsofindia.com/maps/karnataka/karnataka-travel-map.html"
            ],
            "locType": "bank"
        },
        "hassan district of karnataka": {
            "closest_to": "shravanabelagola",
            "address": "Hassan district, Karnataka, India",
            "longitude": "76.1745460751981",
            "latitude": "13.0315068",
            "blogLinks": [
                "http://www.holidayiq.com/destinations/halebid-and-belur/photos/p2.html"
            ],
            "locType": "administrative"
        },
        "hassan": {
            "closest_to": "shravanabelagola",
            "address": "Hassan, Hasana taluk, Hassan district, Karnataka, 573201, India",
            "longitude": "76.0992703",
            "latitude": "13.0070817",
            "blogLinks": [
                "http://timesofindia.indiatimes.com/City/Mangaluru/Shorter-travel-time-for-Mangalureans-after-Shravanabelagola-Nelamangala-stretch-completion-in-2016-17/articleshow/52095263.cms",
                "http://www.ticketgoose.com/bus-tickets/hubli-to-channarayapatana"
            ],
            "locType": "town"
        },
        "golden chariot": {
            "closest_to": "shravanabelagola",
            "address": "Golden Chariot Public School, Thanisandra Main Road, Thanisandra, Hegdenagara, Bangalore Urban, Karnataka, 560045, India",
            "longitude": "77.6350463",
            "latitude": "13.0989262",
            "blogLinks": [
                "http://www.mapsofindia.com/maps/karnataka/karnataka-travel-map.html"
            ],
            "locType": "school"
        },
        "kadamba": {
            "closest_to": "shravanabelagola",
            "address": "Kadamba Avenue, R. Narayanapura, Brookefields, Dodsworth Enclave, Bangalore Urban, Karnataka, 560066, India",
            "longitude": "77.7436954",
            "latitude": "12.9703178",
            "blogLinks": [
                "http://wikitravel.org/en/Hubli"
            ],
            "locType": "residential"
        },
        "panaji": {
            "closest_to": "hubli",
            "address": "Belgaum - Panaji Highway, Londa, Khanapura taluku, Belgaum district, Karnataka, India",
            "longitude": "74.4876784",
            "latitude": "15.4422981",
            "blogLinks": [
                "https://www.tripoto.com/weekend-getaways/from-hubli"
            ],
            "locType": "trunk"
        },
        "unkal": {
            "closest_to": "hubli",
            "address": "Unakal, Hubballi - \u0cb9\u0cc1\u0cac\u0ccd\u0cac\u0cb3\u0ccd\u0cb3\u0cbf, Hubballi taluku, Dharwad district, Karnataka, 580020, India",
            "longitude": "75.1152303",
            "latitude": "15.379556",
            "blogLinks": [
                "http://www.nivalink.com/destination/hubli"
            ],
            "locType": "suburb"
        },
        "tungabhadra dam": {
            "closest_to": "shravanabelagola",
            "address": "Tungabhadra Dam, Hosapete taluk, Bellary district, Karnataka, India",
            "longitude": "76.3339514796436",
            "latitude": "15.2639032",
            "blogLinks": [
                "http://wikitravel.org/en/Hubli"
            ],
            "locType": "dam"
        },
        "mandya": {
            "closest_to": "shravanabelagola",
            "address": "Mandya, Mandya taluk, Mandya district, Karnataka, 571401, India",
            "longitude": "76.8937392",
            "latitude": "12.5217836",
            "blogLinks": [
                "https://www.tripoto.com/weekend-getaways/from-belur"
            ],
            "locType": "town"
        },
        "delhi": {
            "closest_to": "shravanabelagola",
            "address": "Outer Ring Road, Green Glen Layout, Iblur, Bengaluru, Bangalore Urban, Karnataka, 560001, India",
            "longitude": "77.6666062",
            "latitude": "12.9212473",
            "blogLinks": [
                "http://timesofindia.indiatimes.com/City/Mangaluru/Shorter-travel-time-for-Mangalureans-after-Shravanabelagola-Nelamangala-stretch-completion-in-2016-17/articleshow/52095263.cms",
                "http://timesofindia.indiatimes.com/city/mysuru/Mahamastakabhisheka-at-Shravanabelagola-in-2018/articleshow/47410714.cms",
                "http://praja.in/en/blog/kbsyed61/2009/02/16/karnataka-and-railways-game-praja-initiative"
            ],
            "locType": "trunk"
        },
        "dubare elephant camp": {
            "closest_to": "shravanabelagola",
            "address": "Dubare Elephant Camp, SH91, Dodda Bettageri, Somawarpet taluk, Kodagu, Karnataka, India",
            "longitude": "75.9066719",
            "latitude": "12.3716865",
            "blogLinks": [
                "https://www.tripoto.com/weekend-getaways/from-belur"
            ],
            "locType": "attraction"
        },
        "gokak falls": {
            "closest_to": "hubli",
            "address": "Gokak Falls, Gokak taluku, Belgaum district, Karnataka, India",
            "longitude": "74.7775947",
            "latitude": "16.1918383",
            "blogLinks": [
                "http://wikitravel.org/en/Hubli"
            ],
            "locType": "waterfall"
        },
        "bandipur": {
            "closest_to": "shravanabelagola",
            "address": "Bandipur, Gundlupet taluk, Chamarajanagar district, Karnataka, India",
            "longitude": "76.6285739",
            "latitude": "11.6662708",
            "blogLinks": [
                "http://www.mapsofindia.com/maps/karnataka/karnataka-travel-map.html"
            ],
            "locType": "village"
        },
        "kerala": {
            "closest_to": "shravanabelagola",
            "address": "New Life Kerala Mess, Sai Baba Mandira Road, Mottappanapalaya, Indiranagar, Bengaluru, Bangalore Urban, Karnataka, 560001, India",
            "longitude": "77.6382683",
            "latitude": "12.9726449",
            "blogLinks": [
                "http://www.mapsofindia.com/maps/karnataka/karnataka-travel-map.html"
            ],
            "locType": "restaurant"
        },
        "ratnagiri highway": {
            "closest_to": "shravanabelagola",
            "address": "Ratnagiri Road, Basavannahalli, Chikkamagaluru, Chikkamagaluru taluku, Chikkamagaluru district, Karnataka, 577101, India",
            "longitude": "75.7727724",
            "latitude": "13.3292344",
            "blogLinks": [
                "http://www.nivalink.com/destination/hubli"
            ],
            "locType": "secondary"
        },
        "madras": {
            "closest_to": "shravanabelagola",
            "address": "Swami Vivekananda Road, Swamy Vivekananda Road (Old Madras Road), Sudgunte Palya, Baiyyappanahalli, Benniganahalli, Bangalore Urban, Karnataka, 560016, India",
            "longitude": "77.6449595",
            "latitude": "12.9859442",
            "blogLinks": [
                "https://www.tripoto.com/weekend-getaways/from-belur",
                "http://praja.in/en/blog/kbsyed61/2009/02/16/karnataka-and-railways-game-praja-initiative"
            ],
            "locType": "station"
        },
        "vidhyanagar": {
            "closest_to": "shravanabelagola",
            "address": "Vidhyanagar Road, Nituvalli, Davanagere, Davanagere taluku, Davanagere district, Karnataka, 577000, India",
            "longitude": "75.9176086",
            "latitude": "14.4416416",
            "blogLinks": [
                "http://wikitravel.org/en/Hubli"
            ],
            "locType": "tertiary"
        },
        "kalghatgi": {
            "closest_to": "shravanabelagola",
            "address": "Kalghatgi Road, Hindasageri, Kalaghatagi taluku, Dharwad district, Karnataka, 581204, India",
            "longitude": "75.0064745",
            "latitude": "15.1756059",
            "blogLinks": [
                "http://wikitravel.org/en/Hubli"
            ],
            "locType": "primary"
        },
        "kannur": {
            "closest_to": "shravanabelagola",
            "address": "Netravati bridge - Kannur Bypass Road (Proposed), Padil, Bajal, Mangaluru taluk, Dakshina Kannada, Karnataka, 575007, India",
            "longitude": "74.8858161",
            "latitude": "12.8487602",
            "blogLinks": [
                "https://www.tripoto.com/weekend-getaways/from-belur",
                "http://praja.in/en/blog/kbsyed61/2009/02/16/karnataka-and-railways-game-praja-initiative"
            ],
            "locType": "construction"
        },
        "cauvery valley": {
            "closest_to": "shravanabelagola",
            "address": "Temple Trees Rd, Cauvery Colony, ST Bed Layout, Koramangala, Bengaluru, Bangalore Urban, Karnataka, 560001, India",
            "longitude": "77.635647",
            "latitude": "12.9327668",
            "blogLinks": [
                "https://www.scribd.com/doc/298112023/Karnataka-Tourism-Policy-2014"
            ],
            "locType": "unclassified"
        },
        "honnavar": {
            "closest_to": "shravanabelagola",
            "address": "Honnavar, Honnavara taluku, Uttara Kannada, Karnataka, 581334, India",
            "longitude": "74.4446716",
            "latitude": "14.2810827",
            "blogLinks": [
                "http://praja.in/en/blog/kbsyed61/2009/02/16/karnataka-and-railways-game-praja-initiative"
            ],
            "locType": "town"
        },
        "banavasi": {
            "closest_to": "shravanabelagola",
            "address": "Banavasi, Shirasi taluk, Uttara Kannada, Karnataka, India",
            "longitude": "75.0129845",
            "latitude": "14.5389738",
            "blogLinks": [
                "http://wikitravel.org/en/Hubli"
            ],
            "locType": "town"
        },
        "p.b road": {
            "closest_to": "shravanabelagola",
            "address": "Pune Bangalore Road, Chanakya Puri, Old Hubli, Hubballi - \u0cb9\u0cc1\u0cac\u0ccd\u0cac\u0cb3\u0ccd\u0cb3\u0cbf, Hubballi taluku, Dharwad district, Karnataka, 580020, India",
            "longitude": "75.1368445",
            "latitude": "15.3416245",
            "blogLinks": [
                "http://wikitravel.org/en/Hubli"
            ],
            "locType": "primary"
        },
        "nilgiris": {
            "closest_to": "shravanabelagola",
            "address": "Nilgiris, Brigade Road, Tasker Town, Ashok Nagar, Bengaluru, Bangalore Urban, Karnataka, 560001, India",
            "longitude": "77.6069792",
            "latitude": "12.9725052",
            "blogLinks": [
                "https://www.tripoto.com/weekend-getaways/from-belur"
            ],
            "locType": "supermarket"
        },
        "chalukya": {
            "closest_to": "shravanabelagola",
            "address": "Chalukya Nagar, Chandra Layout, GKW Layout, Bangalore Urban, Karnataka, 560072, India",
            "longitude": "77.5192989605445",
            "latitude": "12.9617207",
            "blogLinks": [
                "http://www.nivalink.com/destination/hubli"
            ],
            "locType": "residential"
        },
        "vittala": {
            "closest_to": "shravanabelagola",
            "address": "Vijaya Vittala PU College, Sahukar Chennaiah Road, Sarasvatipuram, Mysuru, Mysuru taluk, Mysuru district, Karnataka, 570001, India",
            "longitude": "76.6237847175927",
            "latitude": "12.30129655",
            "blogLinks": [
                "https://www.tripoto.com/weekend-getaways/from-belur"
            ],
            "locType": "yes"
        },
        "gavi": {
            "closest_to": "shravanabelagola",
            "address": "Gavi Gangadhareshwara Temple, 3rd Main Road, Yediyur, Hanumantha Nagar, Bengaluru, Bangalore Urban, Karnataka, 560001, India",
            "longitude": "77.5628973",
            "latitude": "12.9481567",
            "blogLinks": [
                "https://www.scribd.com/doc/298112023/Karnataka-Tourism-Policy-2014"
            ],
            "locType": "place_of_worship"
        },
        "bahubali": {
            "closest_to": "shravanabelagola",
            "address": "Bahubali Statue, SH8, Shravanabelagola, Channarayapattana taluk, Hassan district, Karnataka, 573135, India",
            "longitude": "76.4846128",
            "latitude": "12.8540505",
            "blogLinks": [
                "http://www.ticketgoose.com/bus-tickets/hubli-to-channarayapatana",
                "http://www.mouthshut.com/review/Shravanbelagola-review-mqnsnuqln"
            ],
            "locType": "place_of_worship"
        },
        "tamil nadu": {
            "closest_to": "shravanabelagola",
            "address": "KARNATAKA BANK, Diwan Bhadur Road, Five Corner, RS Puram, Coimbatore, Coimbatore district, Tamil Nadu, 641001, India",
            "longitude": "76.9514152",
            "latitude": "11.0025894",
            "blogLinks": [
                "https://www.tripoto.com/weekend-getaways/from-belur",
                "http://www.mapsofindia.com/maps/karnataka/karnataka-travel-map.html"
            ],
            "locType": "bank"
        },
        "gadag": {
            "closest_to": "shravanabelagola",
            "address": "Gadag, Gadag taluk, Gadag district, Karnataka, 582101, India",
            "longitude": "75.6300786",
            "latitude": "15.4263647",
            "blogLinks": [
                "http://www.nivalink.com/destination/hubli",
                "http://praja.in/en/blog/kbsyed61/2009/02/16/karnataka-and-railways-game-praja-initiative"
            ],
            "locType": "town"
        },
        "chennamma circle": {
            "closest_to": "hubli",
            "address": "Rani Chennamma Circle, Cantonment, Belagavi, Belagavi taluku, Belgaum district, Karnataka, 590001, India",
            "longitude": "74.511712864861",
            "latitude": "15.86722145",
            "blogLinks": [
                "http://wikitravel.org/en/Hubli"
            ],
            "locType": "trunk"
        },
        "mangalore international airport": {
            "closest_to": "shravanabelagola",
            "address": "Mangalore International Airport, Airport Entry Road, Gandhinagar, Kenjar, Mangaluru taluk, Dakshina Kannada, Karnataka, 575015, India",
            "longitude": "74.887492668144",
            "latitude": "12.95518575",
            "blogLinks": [
                "https://www.tripoto.com/weekend-getaways/from-belur"
            ],
            "locType": "aerodrome"
        },
        "kittur": {
            "closest_to": "hubli",
            "address": "Kitturu, Bailahongala taluku, Belgaum district, Karnataka, 591115, India",
            "longitude": "74.7876971",
            "latitude": "15.5957166",
            "blogLinks": [
                "http://wikitravel.org/en/Hubli"
            ],
            "locType": "town"
        },
        "haveri": {
            "closest_to": "shravanabelagola",
            "address": "Haveri, Haveri taluku, Haveri district, Karnataka, 581110, India",
            "longitude": "75.3996731",
            "latitude": "14.7874825",
            "blogLinks": [
                "http://praja.in/en/blog/kbsyed61/2009/02/16/karnataka-and-railways-game-praja-initiative"
            ],
            "locType": "town"
        },
        "earth": {
            "closest_to": "shravanabelagola",
            "address": "Bharat Earth Movers Limited - BEML, GM Palya, Bengaluru, Bangalore Urban, Karnataka, 560001, India",
            "longitude": "77.659986649248",
            "latitude": "12.9740596",
            "blogLinks": [
                "https://www.tripoto.com/weekend-getaways/from-belur"
            ],
            "locType": "industrial"
        },
        "bababudangiri": {
            "closest_to": "shravanabelagola",
            "address": "Bababudangiri Road, Inam Dattatreya Pitha, Chikkamagaluru taluku, Chikkamagaluru district, Karnataka, India",
            "longitude": "75.7486618",
            "latitude": "13.4297401",
            "blogLinks": [
                "http://thinkingparticle.com/articles/kemmangundi-and-hebbe-falls-trek"
            ],
            "locType": "tertiary"
        },
        "kempegowda international airport": {
            "closest_to": "shravanabelagola",
            "address": "Kempegowda International Airport, Cargo Road, Doddasanne, Devanahalli taluk, Bangalore Rural, Karnataka, 560300, India",
            "longitude": "77.7026949",
            "latitude": "13.2069862",
            "blogLinks": [
                "http://www.ticketgoose.com/bus-tickets/hubli-to-channarayapatana"
            ],
            "locType": "runway"
        },
        "emerald lake": {
            "closest_to": "shravanabelagola",
            "address": "Emerald Isle Resort, NH75, Lakshmisagara, Kolar taluk, Kolar district, Karnataka, 563133, India",
            "longitude": "77.8188013",
            "latitude": "13.0833534",
            "blogLinks": [
                "https://www.tripoto.com/weekend-getaways/from-belur"
            ],
            "locType": "hotel"
        },
        "kanakpura road": {
            "closest_to": "shravanabelagola",
            "address": "H 902, Mantri Tranquil, Gubbalala, Off Kanakpura Road, Bengaluru - 61, Subramanyapura Main Road, Singapore Gardens, Uttarahalli, Gubbalala, Bangalore Urban, Karnataka, 560086, India",
            "longitude": "77.5438085908703",
            "latitude": "12.8866679",
            "blogLinks": [
                "https://www.tripoto.com/weekend-getaways/from-belur"
            ],
            "locType": "yes"
        },
        "udipi": {
            "closest_to": "shravanabelagola",
            "address": "Udipi Park, 2nd Cross Road, Muniyappa Layout, Murugeshpalaya, Belure Ambedkar Nagar, Bangalore Urban, Karnataka, 560067, India",
            "longitude": "77.652888",
            "latitude": "12.9530588",
            "blogLinks": [
                "http://www.nivalink.com/destination/hubli"
            ],
            "locType": "restaurant"
        },
        "kanakapura": {
            "closest_to": "shravanabelagola",
            "address": "Kanakapura, Kanakapura taluk, Ramanagara district, Karnataka, 562117, India",
            "longitude": "77.4199095",
            "latitude": "12.5450268",
            "blogLinks": [
                "https://www.scribd.com/doc/298112023/Karnataka-Tourism-Policy-2014"
            ],
            "locType": "town"
        },
        "coorg": {
            "closest_to": "shravanabelagola",
            "address": "Madikeri, Madikeri taluku, Kodagu, Karnataka, India",
            "longitude": "75.740031",
            "latitude": "12.4204003",
            "blogLinks": [
                "https://www.tripoto.com/weekend-getaways/from-belur"
            ],
            "locType": "town"
        },
        "nilgiri range": {
            "closest_to": "shravanabelagola",
            "address": "Bangalore Nilgiri Road, Ittigegudu, Mysuru, Mysuru taluk, Mysuru district, Karnataka, 570001, India",
            "longitude": "76.658639",
            "latitude": "12.304105",
            "blogLinks": [
                "https://www.tripoto.com/weekend-getaways/from-belur"
            ],
            "locType": "primary"
        },
        "urdu": {
            "closest_to": "shravanabelagola",
            "address": "Urdu Ground, Ranebennur, Ranebennuru taluk, Haveri district, Karnataka, 581115, India",
            "longitude": "75.636575371858",
            "latitude": "14.6180369",
            "blogLinks": [
                "http://www.ticketgoose.com/bus-tickets/hubli-to-channarayapatana"
            ],
            "locType": "recreation_ground"
        },
        "national park": {
            "closest_to": "shravanabelagola",
            "address": "Bannerghatta National Park, Anekal Road, Begihalli, Bangalore Urban, Karnataka, 560076, India",
            "longitude": "77.5722783830694",
            "latitude": "12.77900335",
            "blogLinks": [
                "https://www.tripoto.com/weekend-getaways/from-belur"
            ],
            "locType": "national_park"
        },
        "harsha": {
            "closest_to": "hubli",
            "address": "Harsha Ladies Corner, Hutti Main Road, Hutti Camp, Hatti, Lingasuguru taluku, Raichur district, Karnataka, 584115, India",
            "longitude": "76.661213",
            "latitude": "16.1927088",
            "blogLinks": [
                "http://wikitravel.org/en/Hubli"
            ],
            "locType": "variety_store"
        },
        "iruppu falls": {
            "closest_to": "shravanabelagola",
            "address": "Iruppu Falls, SH89, Taila, Virajpet taluk, Kodagu, Karnataka, 571217, India",
            "longitude": "75.9839484",
            "latitude": "11.9667954",
            "blogLinks": [
                "https://www.tripoto.com/weekend-getaways/from-belur"
            ],
            "locType": "attraction"
        },
        "tungabhadra": {
            "closest_to": "shravanabelagola",
            "address": "Tungabhadra, Gangavati taluku, Koppal district, Karnataka, India",
            "longitude": "76.4931607",
            "latitude": "15.3446123",
            "blogLinks": [
                "https://www.tripoto.com/weekend-getaways/from-belur"
            ],
            "locType": "river"
        },
        "chennama circle": {
            "closest_to": "shravanabelagola",
            "address": "Kittur Rani Chennama Statue, Jayachamaraja Wodeyar Road, Ganigarpet, Kalasipalya, Bengaluru, Bangalore Urban, Karnataka, 560001, India",
            "longitude": "77.5855103",
            "latitude": "12.963396",
            "blogLinks": [
                "http://wikitravel.org/en/Hubli"
            ],
            "locType": "artwork"
        },
        "hemakuta hill": {
            "closest_to": "shravanabelagola",
            "address": "Hemakuta Hill, Hosapete taluk, Bellary district, Karnataka, India",
            "longitude": "76.4602971",
            "latitude": "15.332915",
            "blogLinks": [
                "https://www.tripoto.com/weekend-getaways/from-belur"
            ],
            "locType": "peak"
        },
        "bombay": {
            "closest_to": "shravanabelagola",
            "address": "Bombay tea hotel, Hosahalli Main Road, Rajajinagar 6th Block, Goripalya, Bengaluru, Bangalore Urban, Karnataka, 560001, India",
            "longitude": "77.5500256",
            "latitude": "12.9632318",
            "blogLinks": [
                "http://timesofindia.indiatimes.com/City/Mangaluru/Shorter-travel-time-for-Mangalureans-after-Shravanabelagola-Nelamangala-stretch-completion-in-2016-17/articleshow/52095263.cms",
                "http://timesofindia.indiatimes.com/city/mysuru/Mahamastakabhisheka-at-Shravanabelagola-in-2018/articleshow/47410714.cms"
            ],
            "locType": "cafe"
        },
        "bangalore": {
            "closest_to": "shravanabelagola",
            "address": "Bengaluru, Bangalore Urban, Karnataka, 560001, India",
            "longitude": "77.5912997",
            "latitude": "12.9791198",
            "blogLinks": [
                "https://www.tripoto.com/weekend-getaways/from-belur",
                "https://www.scribd.com/doc/298112023/Karnataka-Tourism-Policy-2014",
                "http://www.mouthshut.com/review/Shravanbelagola-review-mqnsnuqln",
                "http://praja.in/en/blog/kbsyed61/2009/02/16/karnataka-and-railways-game-praja-initiative",
                "http://www.ticketgoose.com/bus-tickets/hubli-to-channarayapatana",
                "http://thinkingparticle.com/articles/kemmangundi-and-hebbe-falls-trek",
                "http://www.nivalink.com/destination/hubli",
                "http://www.bangaloretrips.info/shravanabelagola",
                "http://www.mapsofindia.com/maps/karnataka/karnataka-travel-map.html"
            ],
            "locType": "city"
        },
        "attigundi": {
            "closest_to": "shravanabelagola",
            "address": "Attigundi, Chikkamagaluru taluku, Chikkamagaluru district, Karnataka, India",
            "longitude": "75.7415646",
            "latitude": "13.428683",
            "blogLinks": [
                "http://thinkingparticle.com/articles/kemmangundi-and-hebbe-falls-trek"
            ],
            "locType": "village"
        },
        "kappe chennigaraya": {
            "closest_to": "shravanabelagola",
            "address": "Kappe Chennigaraya Temple, NH73, Navilahalli, Beluru taluk, Hassan district, Karnataka, India",
            "longitude": "75.8603867",
            "latitude": "13.1624691",
            "blogLinks": [
                "https://www.tripoto.com/weekend-getaways/from-belur"
            ],
            "locType": "archaeological_site"
        },
        "virupaksha temple": {
            "closest_to": "shravanabelagola",
            "address": "Virupaksha Temple, Hampi Bazaar, Hampe, Hosapete taluk, Bellary district, Karnataka, 583239, India",
            "longitude": "76.4587777156223",
            "latitude": "15.3351754",
            "blogLinks": [
                "https://www.tripoto.com/weekend-getaways/from-belur"
            ],
            "locType": "place_of_worship"
        },
        "hubli airport": {
            "closest_to": "hubli",
            "address": "Hubli Airport, \u0c97\u0ccb\u0c95\u0cc1\u0cb2 \u0cb0\u0ccb\u0ca1\u0ccd, Padmaraj Nagar, Gokul, Hubballi taluku, Dharwad district, Karnataka, 580030, India",
            "longitude": "75.0860974",
            "latitude": "15.3598315",
            "blogLinks": [
                "http://www.ticketgoose.com/bus-tickets/hubli-to-channarayapatana",
                "http://www.nivalink.com/destination/hubli"
            ],
            "locType": "aerodrome"
        },
        "omkareshwara temple": {
            "closest_to": "shravanabelagola",
            "address": "Omkareshwara Temple, Main Road, Madikeri, Madikeri taluku, Kodagu, Karnataka, India",
            "longitude": "75.741304",
            "latitude": "12.420546",
            "blogLinks": [
                "https://www.tripoto.com/weekend-getaways/from-belur"
            ],
            "locType": "place_of_worship"
        },
        "hebbe": {
            "closest_to": "shravanabelagola",
            "address": "Hebbe falls, Kemmannagundi Road, Attigundi, Chikkamagaluru taluku, Chikkamagaluru district, Karnataka, India",
            "longitude": "75.7253701",
            "latitude": "13.5414025",
            "blogLinks": [
                "http://thinkingparticle.com/articles/kemmangundi-and-hebbe-falls-trek"
            ],
            "locType": "attraction"
        },
        "yelahanka": {
            "closest_to": "shravanabelagola",
            "address": "Yelahanka, Jakkur, Bangalore Urban, Karnataka, India",
            "longitude": "77.5963454",
            "latitude": "13.1006982",
            "blogLinks": [
                "http://praja.in/en/blog/kbsyed61/2009/02/16/karnataka-and-railways-game-praja-initiative"
            ],
            "locType": "suburb"
        },
        "botanical gardens": {
            "closest_to": "shravanabelagola",
            "address": "Botanical Garden, Cart road, Judicial Layout, Jakkur, Bangalore Urban, Karnataka, 560065, India",
            "longitude": "77.5744817798899",
            "latitude": "13.08099125",
            "blogLinks": [
                "https://www.tripoto.com/weekend-getaways/from-belur"
            ],
            "locType": "protected_area"
        },
        "bangarpet": {
            "closest_to": "shravanabelagola",
            "address": "Bangarapete, Bangarapet taluk, Kolar district, Karnataka, India",
            "longitude": "78.1816745",
            "latitude": "12.9885075",
            "blogLinks": [
                "http://praja.in/en/blog/kbsyed61/2009/02/16/karnataka-and-railways-game-praja-initiative"
            ],
            "locType": "town"
        },
        "yeshwanthpur": {
            "closest_to": "shravanabelagola",
            "address": "Yeshwanthpur Yard market, Shankarnagar Main Road, Goragunte Palya, Nandini Layout, Bengaluru, Bangalore Urban, Karnataka, 560001, India",
            "longitude": "77.5451161845771",
            "latitude": "13.0159579",
            "blogLinks": [
                "http://www.holidayiq.com/destinations/halebid-and-belur/photos/p2.html"
            ],
            "locType": "marketplace"
        },
        "us": {
            "closest_to": "shravanabelagola",
            "address": "Karnataka, India",
            "longitude": "75.7223521",
            "latitude": "14.5203896",
            "blogLinks": [
                "http://timesofindia.indiatimes.com/City/Mangaluru/Shorter-travel-time-for-Mangalureans-after-Shravanabelagola-Nelamangala-stretch-completion-in-2016-17/articleshow/52095263.cms",
                "http://thinkingparticle.com/articles/kemmangundi-and-hebbe-falls-trek"
            ],
            "locType": "administrative"
        },
        "arsikere": {
            "closest_to": "shravanabelagola",
            "address": "Arsikere Junction, Subrahmanya Temple Road, Lakshmi Puram, Arasikere, Arasikere taluku, Hassan district, Karnataka, 573103, India",
            "longitude": "76.2528992",
            "latitude": "13.313613",
            "blogLinks": [
                "http://timesofindia.indiatimes.com/City/Mangaluru/Shorter-travel-time-for-Mangalureans-after-Shravanabelagola-Nelamangala-stretch-completion-in-2016-17/articleshow/52095263.cms",
                "http://praja.in/en/blog/kbsyed61/2009/02/16/karnataka-and-railways-game-praja-initiative"
            ],
            "locType": "station"
        },
        "mullayanagiri": {
            "closest_to": "shravanabelagola",
            "address": "Mullayyanagiri, Chikkamagaluru, Chikkamagaluru taluku, Chikkamagaluru district, Karnataka, 577101, India",
            "longitude": "75.7214034",
            "latitude": "13.3909217",
            "blogLinks": [
                "http://thinkingparticle.com/articles/kemmangundi-and-hebbe-falls-trek"
            ],
            "locType": "peak"
        },
        "goa": {
            "closest_to": "shravanabelagola",
            "address": "Carnival De Goa, Bhaskaran Road, Gupta Layout, Halasuru, Bengaluru, Bangalore Urban, Karnataka, 560001, India",
            "longitude": "77.6200027",
            "latitude": "12.9750047",
            "blogLinks": [
                "http://www.mapsofindia.com/maps/karnataka/karnataka-travel-map.html",
                "https://www.tripoto.com/weekend-getaways/from-hubli",
                "http://praja.in/en/blog/kbsyed61/2009/02/16/karnataka-and-railways-game-praja-initiative"
            ],
            "locType": "restaurant"
        },
        "river kaveri": {
            "closest_to": "shravanabelagola",
            "address": "Kaveri, Kollegala taluk, Chamarajanagar district, Karnataka, India",
            "longitude": "77.0635531",
            "latitude": "12.1687878",
            "blogLinks": [
                "https://www.tripoto.com/weekend-getaways/from-belur"
            ],
            "locType": "river"
        },
        "north karnataka": {
            "closest_to": "shravanabelagola",
            "address": "N, Chaithanya Samarpan, Kadugodi, Kannamangala, Bangalore Urban, Karnataka, 560066, India",
            "longitude": "77.7660547",
            "latitude": "13.0217151",
            "blogLinks": [
                "http://wikitravel.org/en/Hubli",
                "http://www.nivalink.com/destination/hubli"
            ],
            "locType": "service"
        },
        "solapur": {
            "closest_to": "hubli",
            "address": "Gulbarga - Solapur Highway, Chikka Gobbura, Afzalpura taluku, Kalaburagi district, Karnataka, 585265, India",
            "longitude": "76.6763291",
            "latitude": "17.269752",
            "blogLinks": [
                "https://www.tripoto.com/weekend-getaways/from-hubli",
                "http://praja.in/en/blog/kbsyed61/2009/02/16/karnataka-and-railways-game-praja-initiative"
            ],
            "locType": "trunk"
        },
        "lal bagh": {
            "closest_to": "shravanabelagola",
            "address": "Lal Bagh Bus Stop, Mahatma Gandhi Road, Lalbagh, Ladyhill, Mangaluru, Mangaluru taluk, Dakshina Kannada, Karnataka, 575001, India",
            "longitude": "74.8386152",
            "latitude": "12.8859223",
            "blogLinks": [
                "https://www.tripoto.com/weekend-getaways/from-belur"
            ],
            "locType": "bus_stop"
        },
        "hospet": {
            "closest_to": "shravanabelagola",
            "address": "Hosapete, Hosapete taluk, Bellary district, Karnataka, 583200, India",
            "longitude": "76.3870527",
            "latitude": "15.266079",
            "blogLinks": [
                "http://www.bangaloretrips.info/shravanabelagola",
                "https://www.tripoto.com/weekend-getaways/from-belur"
            ],
            "locType": "town"
        },
        "ooty": {
            "closest_to": "shravanabelagola",
            "address": "Ooty Road, Vidyaranyapuram, Mysuru, Mysuru taluk, Mysuru district, Karnataka, 570001, India",
            "longitude": "76.6586807",
            "latitude": "12.2774807",
            "blogLinks": [
                "https://www.tripoto.com/weekend-getaways/from-belur"
            ],
            "locType": "primary"
        },
        "kannada": {
            "closest_to": "shravanabelagola",
            "address": "Dakshina Kannada, Karnataka, India",
            "longitude": "75.1008028650794",
            "latitude": "12.8114089",
            "blogLinks": [
                "http://www.bangaloretrips.info/shravanabelagola"
            ],
            "locType": "administrative"
        },
        "mysore": {
            "closest_to": "shravanabelagola",
            "address": "Mysuru, Mysuru taluk, Mysuru district, Karnataka, 570001, India",
            "longitude": "76.6553609",
            "latitude": "12.3051828",
            "blogLinks": [
                "http://www.ticketgoose.com/bus-tickets/hubli-to-channarayapatana"
            ],
            "locType": "city"
        },
        "madurai": {
            "closest_to": "shravanabelagola",
            "address": "Madurai Idly Shop, 5th Main Road, Teachers Colony, HSR Layout, Bengaluru, Bangalore Urban, Karnataka, 560001, India",
            "longitude": "77.6320535",
            "latitude": "12.9185419",
            "blogLinks": [
                "https://www.tripoto.com/weekend-getaways/from-belur"
            ],
            "locType": "restaurant"
        },
        "bagewadi": {
            "closest_to": "hubli",
            "address": "Bagewadi, Hukkeri taluku, Belgaum district, Karnataka, 591305, India",
            "longitude": "74.721498",
            "latitude": "16.300076",
            "blogLinks": [
                "http://wikitravel.org/en/Hubli"
            ],
            "locType": "village"
        },
        "aihole": {
            "closest_to": "hubli",
            "address": "Aihole, Hunagunda taluku, Bagalkote district, Karnataka, India",
            "longitude": "75.8819129",
            "latitude": "16.0192298",
            "blogLinks": [
                "http://wikitravel.org/en/Hubli",
                "http://www.mapsofindia.com/maps/karnataka/karnataka-travel-map.html"
            ],
            "locType": "village"
        },
        "ooty lake": {
            "closest_to": "shravanabelagola",
            "address": "Ooty Road, Vidyaranyapuram, Mysuru, Mysuru taluk, Mysuru district, Karnataka, 570001, India",
            "longitude": "76.6586807",
            "latitude": "12.2774807",
            "blogLinks": [
                "https://www.tripoto.com/weekend-getaways/from-belur"
            ],
            "locType": "primary"
        },
        "mangaluru": {
            "closest_to": "shravanabelagola",
            "address": "Mangaluru, Mangaluru taluk, Dakshina Kannada, Karnataka, 575001, India",
            "longitude": "74.8430082",
            "latitude": "12.8698101",
            "blogLinks": [
                "http://timesofindia.indiatimes.com/City/Mangaluru/Shorter-travel-time-for-Mangalureans-after-Shravanabelagola-Nelamangala-stretch-completion-in-2016-17/articleshow/52095263.cms"
            ],
            "locType": "city"
        },
        "railway station": {
            "closest_to": "shravanabelagola",
            "address": "Railway Station, Gauribidanuru taluk, Chikkaballapura district, Karnataka, India",
            "longitude": "77.515738",
            "latitude": "13.5029417",
            "blogLinks": [
                "https://www.tripoto.com/weekend-getaways/from-belur"
            ],
            "locType": "village"
        },
        "chamarajnagar": {
            "closest_to": "shravanabelagola",
            "address": "Gundlupet-Chamarajnagar Road, Gundlupet, Gundlupet taluk, Chamarajanagar district, Karnataka, 571111, India",
            "longitude": "76.6962245",
            "latitude": "11.8095174",
            "blogLinks": [
                "http://praja.in/en/blog/kbsyed61/2009/02/16/karnataka-and-railways-game-praja-initiative"
            ],
            "locType": "primary"
        },
        "belur": {
            "closest_to": "shravanabelagola",
            "address": "Belur, Beluru taluk, Hassan district, Karnataka, 573115, India",
            "longitude": "75.8634851",
            "latitude": "13.1645671",
            "blogLinks": [
                "https://www.tripoto.com/weekend-getaways/from-belur",
                "http://www.mouthshut.com/review/Shravanbelagola-review-mqnsnuqln"
            ],
            "locType": "town"
        },
        "mumbai": {
            "closest_to": "shravanabelagola",
            "address": "Mumbai Spice, 18/2, 10th Cross, Malleswaram, Vyalikaval, Malleswaram, Bengaluru, Bangalore Urban, Karnataka, 560003, India",
            "longitude": "77.5718472",
            "latitude": "13.0002869",
            "blogLinks": [
                "http://www.nivalink.com/destination/hubli",
                "http://praja.in/en/blog/kbsyed61/2009/02/16/karnataka-and-railways-game-praja-initiative"
            ],
            "locType": "restaurant"
        },
        "nelamangala": {
            "closest_to": "shravanabelagola",
            "address": "Nelamangala, Nelamangala taluk, Bangalore Rural, Karnataka, India",
            "longitude": "77.3963586",
            "latitude": "13.0953024",
            "blogLinks": [
                "http://timesofindia.indiatimes.com/City/Mangaluru/Shorter-travel-time-for-Mangalureans-after-Shravanabelagola-Nelamangala-stretch-completion-in-2016-17/articleshow/52095263.cms",
                "http://praja.in/en/blog/kbsyed61/2009/02/16/karnataka-and-railways-game-praja-initiative"
            ],
            "locType": "town"
        },
        "hubli railway station": {
            "closest_to": "shravanabelagola",
            "address": "Hubli Railway Station, Station Road, J C Nagar, Kamaripet, Hubballi - \u0cb9\u0cc1\u0cac\u0ccd\u0cac\u0cb3\u0ccd\u0cb3\u0cbf, Hubballi taluku, Dharwad district, Karnataka, 580020, India",
            "longitude": "75.1455962",
            "latitude": "15.3523233",
            "blogLinks": [
                "http://www.ticketgoose.com/bus-tickets/hubli-to-channarayapatana"
            ],
            "locType": "bus_station"
        },
        "south central": {
            "closest_to": "shravanabelagola",
            "address": "Central, UG07, UG08, Dr. Rajkumar Road, Rajajinagar 1st Block, Subrahmanya Nagar, Bengaluru, Bangalore Urban, Karnataka, 560001, India",
            "longitude": "77.5548006",
            "latitude": "13.0101286",
            "blogLinks": [
                "http://praja.in/en/blog/kbsyed61/2009/02/16/karnataka-and-railways-game-praja-initiative"
            ],
            "locType": "clothes"
        },
        "halebeedu": {
            "closest_to": "shravanabelagola",
            "address": "Halebeedu Hagare Road, Harubihalli, Beluru taluk, Hassan district, Karnataka, 573121, India",
            "longitude": "76.000043",
            "latitude": "13.1681662",
            "blogLinks": [
                "https://www.tripoto.com/weekend-getaways/from-belur"
            ],
            "locType": "secondary"
        },
        "dandeli forest": {
            "closest_to": "hubli",
            "address": "Dandeli, Haliyala taluku, Uttara Kannada, Karnataka, 581325, India",
            "longitude": "74.6236037",
            "latitude": "15.2490284",
            "blogLinks": [
                "https://www.scribd.com/doc/298112023/Karnataka-Tourism-Policy-2014"
            ],
            "locType": "town"
        },
        "mallalli falls": {
            "closest_to": "shravanabelagola",
            "address": "Mallalli Falls, Somawarpet taluk, Kodagu, Karnataka, India",
            "longitude": "75.723663",
            "latitude": "12.6813778",
            "blogLinks": [
                "https://www.tripoto.com/weekend-getaways/from-belur"
            ],
            "locType": "waterfall"
        },
        "kaimara": {
            "closest_to": "shravanabelagola",
            "address": "Kaimara, Chikkamagaluru taluku, Chikkamagaluru district, Karnataka, India",
            "longitude": "75.7448654",
            "latitude": "13.3713857",
            "blogLinks": [
                "http://thinkingparticle.com/articles/kemmangundi-and-hebbe-falls-trek"
            ],
            "locType": "village"
        },
        "channarayapatna": {
            "closest_to": "shravanabelagola",
            "address": "Channarayapatna, Devanahalli taluk, Bangalore Rural, Karnataka, India",
            "longitude": "77.797084",
            "latitude": "13.2455918",
            "blogLinks": [
                "http://www.ticketgoose.com/bus-tickets/hubli-to-channarayapatana"
            ],
            "locType": "village"
        },
        "mysore india": {
            "closest_to": "shravanabelagola",
            "address": "Mysuru, Mysuru taluk, Mysuru district, Karnataka, 570001, India",
            "longitude": "76.6553609",
            "latitude": "12.3051828",
            "blogLinks": [
                "http://www.bookcab.in/hubli-to-mysore-car-rental"
            ],
            "locType": "city"
        },
        "chennakesava temple": {
            "closest_to": "shravanabelagola",
            "address": "Chennakesava Temple, NH73, Navilahalli, Beluru taluk, Hassan district, Karnataka, India",
            "longitude": "75.8603311",
            "latitude": "13.1629239",
            "blogLinks": [
                "http://www.holidayiq.com/destinations/halebid-and-belur/photos/p2.html"
            ],
            "locType": "place_of_worship"
        },
        "chikjajur": {
            "closest_to": "shravanabelagola",
            "address": "Chikjajur Junction, SH 47, Chikkajajuru, Holalkere taluk, Chitradurga district, Karnataka, 577523, India",
            "longitude": "76.1390642",
            "latitude": "14.125237",
            "blogLinks": [
                "http://praja.in/en/blog/kbsyed61/2009/02/16/karnataka-and-railways-game-praja-initiative"
            ],
            "locType": "station"
        },
        "silicon valley": {
            "closest_to": "shravanabelagola",
            "address": "RK Estates : Silicon Valley Layout, Vidyanagar, Bengaluru, Bangalore Urban, Karnataka, 560001, India",
            "longitude": "77.6053133563105",
            "latitude": "13.1650062",
            "blogLinks": [
                "https://www.tripoto.com/weekend-getaways/from-belur"
            ],
            "locType": "residential"
        },
        "south goa": {
            "closest_to": "hubli",
            "address": "Karnataka bank, NH66, Aquem, Fatorda, Margao, South Goa, Goa, 403600, India",
            "longitude": "73.9583411",
            "latitude": "15.2740083",
            "blogLinks": [
                "https://www.tripoto.com/weekend-getaways/from-hubli"
            ],
            "locType": "bank"
        },
        "kumta": {
            "closest_to": "shravanabelagola",
            "address": "Kumta, Kumata taluk, Uttara Kannada, Karnataka, India",
            "longitude": "74.4107617",
            "latitude": "14.4261647",
            "blogLinks": [
                "https://www.scribd.com/doc/298112023/Karnataka-Tourism-Policy-2014"
            ],
            "locType": "town"
        },
        "lakkundi": {
            "closest_to": "hubli",
            "address": "Lakkundi, Muddebihala taluku, Bijapur district, Karnataka, India",
            "longitude": "76.4084687",
            "latitude": "16.5255464",
            "blogLinks": [
                "http://wikitravel.org/en/Hubli"
            ],
            "locType": "village"
        },
        "unkal lake": {
            "closest_to": "hubli",
            "address": "Unakal, Hubballi - \u0cb9\u0cc1\u0cac\u0ccd\u0cac\u0cb3\u0ccd\u0cb3\u0cbf, Hubballi taluku, Dharwad district, Karnataka, 580020, India",
            "longitude": "75.1152303",
            "latitude": "15.379556",
            "blogLinks": [
                "http://www.ticketgoose.com/bus-tickets/hubli-to-channarayapatana"
            ],
            "locType": "suburb"
        },
        "mangalore-delhi": {
            "closest_to": "shravanabelagola",
            "address": "Tumkur Road, Goragunte Palya, Peenya, Bengaluru, Bangalore Urban, Karnataka, 560001, India",
            "longitude": "77.5360458",
            "latitude": "13.0311896",
            "blogLinks": [
                "http://praja.in/en/blog/kbsyed61/2009/02/16/karnataka-and-railways-game-praja-initiative"
            ],
            "locType": "trunk"
        },
        "gokarn": {
            "closest_to": "shravanabelagola",
            "address": "Gokarna, Kumata taluk, Uttara Kannada, Karnataka, 581326, India",
            "longitude": "74.3184418",
            "latitude": "14.5439629",
            "blogLinks": [
                "http://wikitravel.org/en/Hubli"
            ],
            "locType": "town"
        },
        "mandovi river": {
            "closest_to": "shravanabelagola",
            "address": "Mandovi Motors, Wheeler Road Flyover, MSO Colony, Cox Town, Bengaluru, Bangalore Urban, Karnataka, 560001, India",
            "longitude": "77.6190505",
            "latitude": "12.9965335",
            "blogLinks": [
                "https://www.tripoto.com/weekend-getaways/from-hubli"
            ],
            "locType": "car"
        },
        "bellary": {
            "closest_to": "shravanabelagola",
            "address": "Bellary, Bellary district, Karnataka, India",
            "longitude": "76.8323648",
            "latitude": "15.2485413",
            "blogLinks": [
                "https://www.scribd.com/doc/298112023/Karnataka-Tourism-Policy-2014",
                "http://praja.in/en/blog/kbsyed61/2009/02/16/karnataka-and-railways-game-praja-initiative"
            ],
            "locType": "county"
        },
        "margao": {
            "closest_to": "hubli",
            "address": "Karnataka bank, NH66, Aquem, Fatorda, Margao, South Goa, Goa, 403600, India",
            "longitude": "73.9583411",
            "latitude": "15.2740083",
            "blogLinks": [
                "https://www.tripoto.com/weekend-getaways/from-hubli"
            ],
            "locType": "bank"
        },
        "karnataka": {
            "closest_to": "shravanabelagola",
            "address": "Karnataka, Shalivahana Road, Nazarbad, Mysuru, Mysuru taluk, Mysuru district, Karnataka, 570001, India",
            "longitude": "76.6639936",
            "latitude": "12.3084901",
            "blogLinks": [
                "http://www.bookcab.in/hubli-to-mysore-car-rental",
                "https://www.tripoto.com/weekend-getaways/from-belur",
                "https://www.scribd.com/doc/298112023/Karnataka-Tourism-Policy-2014",
                "http://wikitravel.org/en/Hubli",
                "http://www.mouthshut.com/review/Shravanbelagola-review-mqnsnuqln",
                "http://praja.in/en/blog/kbsyed61/2009/02/16/karnataka-and-railways-game-praja-initiative",
                "http://www.ticketgoose.com/bus-tickets/hubli-to-channarayapatana",
                "http://thinkingparticle.com/articles/kemmangundi-and-hebbe-falls-trek",
                "http://distancecalculator.globefeed.com/India_Distance_Calculator.asp?state=19",
                "http://www.nivalink.com/destination/hubli",
                "http://www.mapsofindia.com/maps/karnataka/karnataka-travel-map.html"
            ],
            "locType": "atm"
        },
        "airport road": {
            "closest_to": "shravanabelagola",
            "address": "Airport Road, Ballari, Bellary taluk, Bellary district, Karnataka, 583104, India",
            "longitude": "76.8995671",
            "latitude": "15.1581615",
            "blogLinks": [
                "http://wikitravel.org/en/Hubli"
            ],
            "locType": "secondary"
        },
        "hebbe falls": {
            "closest_to": "shravanabelagola",
            "address": "Hebbe falls, Kemmannagundi Road, Attigundi, Chikkamagaluru taluku, Chikkamagaluru district, Karnataka, India",
            "longitude": "75.7253701",
            "latitude": "13.5414025",
            "blogLinks": [
                "http://thinkingparticle.com/articles/kemmangundi-and-hebbe-falls-trek"
            ],
            "locType": "attraction"
        },
        "bengal": {
            "closest_to": "shravanabelagola",
            "address": "Bengal Lamps, Konadasapura, Bangalore Urban, Karnataka, 560066, India",
            "longitude": "77.7517038151245",
            "latitude": "13.0492646",
            "blogLinks": [
                "https://www.tripoto.com/weekend-getaways/from-belur"
            ],
            "locType": "industrial"
        },
        "kodagu": {
            "closest_to": "shravanabelagola",
            "address": "Kodagu, Karnataka, India",
            "longitude": "75.6677235950852",
            "latitude": "12.38117345",
            "blogLinks": [
                "https://www.tripoto.com/weekend-getaways/from-belur"
            ],
            "locType": "administrative"
        },
        "japanese garden": {
            "closest_to": "shravanabelagola",
            "address": "Hae Kum Gang (Korean/Japanese), 20, Castle Street, Shantala Nagar, Ashok Nagar, Bengaluru, Bangalore Urban, Karnataka, 560001, India",
            "longitude": "77.6055915",
            "latitude": "12.9655328",
            "blogLinks": [
                "https://www.tripoto.com/weekend-getaways/from-hubli"
            ],
            "locType": "restaurant"
        },
        "hubli-dharwad": {
            "closest_to": "hubli",
            "address": "Hubballi - \u0cb9\u0cc1\u0cac\u0ccd\u0cac\u0cb3\u0ccd\u0cb3\u0cbf, Hubballi taluku, Dharwad district, Karnataka, 580020, India",
            "longitude": "75.1379848",
            "latitude": "15.3518378",
            "blogLinks": [
                "https://www.scribd.com/doc/298112023/Karnataka-Tourism-Policy-2014",
                "http://www.nivalink.com/destination/hubli"
            ],
            "locType": "city"
        },
        "udupi": {
            "closest_to": "shravanabelagola",
            "address": "Udupi, Udupi taluku, Udupi district, Karnataka, 576101, India",
            "longitude": "74.7473232",
            "latitude": "13.3419169",
            "blogLinks": [
                "http://www.nivalink.com/destination/hubli"
            ],
            "locType": "city"
        },
        "india": {
            "closest_to": "shravanabelagola",
            "address": "Karnataka, India",
            "longitude": "75.7223521",
            "latitude": "14.5203896",
            "blogLinks": [
                "http://www.bookcab.in/hubli-to-mysore-car-rental",
                "http://timesofindia.indiatimes.com/city/mysuru/Mahamastakabhisheka-at-Shravanabelagola-in-2018/articleshow/47410714.cms",
                "https://www.tripoto.com/weekend-getaways/from-belur",
                "http://www.mapsofindia.com/maps/india/tourist-centers.htm",
                "https://www.scribd.com/doc/298112023/Karnataka-Tourism-Policy-2014",
                "http://wikitravel.org/en/Hubli",
                "https://www.tripoto.com/weekend-getaways/from-hubli",
                "http://praja.in/en/blog/kbsyed61/2009/02/16/karnataka-and-railways-game-praja-initiative",
                "http://www.ticketgoose.com/bus-tickets/hubli-to-channarayapatana",
                "http://distancecalculator.globefeed.com/India_Distance_Calculator.asp?state=19",
                "http://timesofindia.indiatimes.com/City/Mangaluru/Shorter-travel-time-for-Mangalureans-after-Shravanabelagola-Nelamangala-stretch-completion-in-2016-17/articleshow/52095263.cms",
                "http://www.mapsofindia.com/maps/karnataka/karnataka-travel-map.html"
            ],
            "locType": "administrative"
        },
        "bengaluru": {
            "closest_to": "shravanabelagola",
            "address": "Bengaluru, Bangalore Urban, Karnataka, 560001, India",
            "longitude": "77.5912997",
            "latitude": "12.9791198",
            "blogLinks": [
                "https://www.tripoto.com/weekend-getaways/from-belur"
            ],
            "locType": "city"
        },
        "golden triangle": {
            "closest_to": "shravanabelagola",
            "address": "Brigade Golden Triangle Apartments (Under Construction), Kattamanallur, Bangalore Urban, Karnataka, 560066, India",
            "longitude": "77.7617021687636",
            "latitude": "13.05444825",
            "blogLinks": [
                "https://www.tripoto.com/weekend-getaways/from-belur"
            ],
            "locType": "construction"
        },
        "dakshina kannada": {
            "closest_to": "shravanabelagola",
            "address": "Dakshina Kannada, Karnataka, India",
            "longitude": "75.1008028650794",
            "latitude": "12.8114089",
            "blogLinks": [
                "https://www.tripoto.com/weekend-getaways/from-belur"
            ],
            "locType": "administrative"
        },
        "taluka": {
            "closest_to": "hubli",
            "address": "Shahpur Taluka Hospital (FRU), NH150A, Halisagara, Vibhutihalli, Shahapura taluku, Yadagiri district, Karnataka, 585223, India",
            "longitude": "76.847",
            "latitude": "16.6934",
            "blogLinks": [
                "https://www.scribd.com/doc/298112023/Karnataka-Tourism-Policy-2014"
            ],
            "locType": "hospital"
        },
        "halebidu": {
            "closest_to": "shravanabelagola",
            "address": "Halebidu, Hunasuru taluk, Mysuru district, Karnataka, India",
            "longitude": "76.4607075",
            "latitude": "12.359893",
            "blogLinks": [
                "http://www.mapsofindia.com/maps/karnataka/karnataka-travel-map.html"
            ],
            "locType": "village"
        },
        "srirangapatna": {
            "closest_to": "shravanabelagola",
            "address": "Srirangapatna, Srirangapattana taluk, Mandya district, Karnataka, 571438, India",
            "longitude": "76.6850743",
            "latitude": "12.4225604",
            "blogLinks": [
                "http://www.mapsofindia.com/maps/karnataka/karnataka-travel-map.html"
            ],
            "locType": "town"
        },
        "hubli dharwad": {
            "closest_to": "hubli",
            "address": "Hubballi - \u0cb9\u0cc1\u0cac\u0ccd\u0cac\u0cb3\u0ccd\u0cb3\u0cbf, Hubballi taluku, Dharwad district, Karnataka, 580020, India",
            "longitude": "75.1379848",
            "latitude": "15.3518378",
            "blogLinks": [
                "http://www.nivalink.com/destination/hubli"
            ],
            "locType": "city"
        },
        "shravanabelagola": {
            "closest_to": "shravanabelagola",
            "address": "Shravanabelagola, Channarayapattana taluk, Hassan district, Karnataka, 573135, India",
            "longitude": "76.4869997",
            "latitude": "12.8581305",
            "blogLinks": [
                "http://www.bangaloretrips.info/shravanabelagola",
                "http://timesofindia.indiatimes.com/City/Mangaluru/Shorter-travel-time-for-Mangalureans-after-Shravanabelagola-Nelamangala-stretch-completion-in-2016-17/articleshow/52095263.cms",
                "http://www.ticketgoose.com/bus-tickets/hubli-to-channarayapatana",
                "http://timesofindia.indiatimes.com/city/mysuru/Mahamastakabhisheka-at-Shravanabelagola-in-2018/articleshow/47410714.cms",
                "http://praja.in/en/blog/kbsyed61/2009/02/16/karnataka-and-railways-game-praja-initiative"
            ],
            "locType": "town"
        },
        "mangalore": {
            "closest_to": "shravanabelagola",
            "address": "Mangaluru, Mangaluru taluk, Dakshina Kannada, Karnataka, 575001, India",
            "longitude": "74.8430082",
            "latitude": "12.8698101",
            "blogLinks": [
                "https://www.scribd.com/doc/298112023/Karnataka-Tourism-Policy-2014",
                "http://www.ticketgoose.com/bus-tickets/hubli-to-channarayapatana",
                "https://www.tripoto.com/weekend-getaways/from-belur",
                "http://praja.in/en/blog/kbsyed61/2009/02/16/karnataka-and-railways-game-praja-initiative"
            ],
            "locType": "city"
        }
    },
    "hubli": {
        "place_id": "6298582",
        "osm_id": "670289984",
        "icon": "https://nominatim.openstreetmap.org/images/mapicons/poi_place_city.p.20.png",
        "osm_type": "node",
        "licence": "Data \u00a9 OpenStreetMap contributors, ODbL 1.0. http://www.openstreetmap.org/copyright",
        "display_name": "Hubballi - \u0cb9\u0cc1\u0cac\u0ccd\u0cac\u0cb3\u0ccd\u0cb3\u0cbf, Hubballi taluku, Dharwad district, Karnataka, 580020, India",
        "type": "city",
        "lon": "75.1379848",
        "boundingbox": [
            "15.1918378",
            "15.5118378",
            "74.9779848",
            "75.2979848"
        ],
        "importance": 0.45,
        "lat": "15.3518378",
        "class": "place"
    }
}