{
    "udupi": {
        "place_id": "634423",
        "osm_id": "245620117",
        "icon": "https://nominatim.openstreetmap.org/images/mapicons/poi_place_city.p.20.png",
        "osm_type": "node",
        "licence": "Data \u00a9 OpenStreetMap contributors, ODbL 1.0. http://www.openstreetmap.org/copyright",
        "display_name": "Udupi, Udupi taluku, Udupi district, Karnataka, 576101, India",
        "type": "city",
        "lon": "74.7473232",
        "boundingbox": [
            "13.1819169",
            "13.5019169",
            "74.5873232",
            "74.9073232"
        ],
        "importance": 0.55,
        "lat": "13.3419169",
        "class": "place"
    },
    "mentions": {
        "badami": {
            "closest_to": "hubli",
            "address": "Badami, Badami taluku, Bagalkote district, Karnataka, 587200, India",
            "longitude": "75.6807865",
            "latitude": "15.9203874",
            "blogLinks": [
                "http://traveltriangle.com/blog/best-places-to-visit-in-karnataka/"
            ],
            "locType": "town"
        },
        "belve village": {
            "closest_to": "udupi",
            "address": "Belve, \u0c95\u0cc1\u0c82\u0ca6\u0cbe\u0caa\u0cc1\u0cb0 \u0ca4\u0cbe\u0cb2\u0cc2\u0c95\u0cc1, Udupi district, Karnataka, India",
            "longitude": "74.9249251",
            "latitude": "13.5271121",
            "blogLinks": [
                "http://wikitravel.org/en/Udupi"
            ],
            "locType": "village"
        },
        "manipal": {
            "closest_to": "udupi",
            "address": "Manipal, Udupi taluku, Udupi district, Karnataka, India",
            "longitude": "74.7870308",
            "latitude": "13.3519723",
            "blogLinks": [
                "http://wikitravel.org/en/Udupi",
                "http://www.nivalink.com/destination/udupi",
                "https://www.tripoto.com/travel-guide/manipal"
            ],
            "locType": "town"
        },
        "kannur": {
            "closest_to": "udupi",
            "address": "Netravati bridge - Kannur Bypass Road (Proposed), Padil, Bajal, Mangaluru taluk, Dakshina Kannada, Karnataka, 575007, India",
            "longitude": "74.8858161",
            "latitude": "12.8487602",
            "blogLinks": [
                "https://www.tripoto.com/places-to-visit/india/udupi",
                "http://www.nivalink.com/destination/udupi",
                "http://www.nivalink.com/destination/sringeri"
            ],
            "locType": "construction"
        },
        "coastal karnataka": {
            "closest_to": "udupi",
            "address": "Bharat Petroleum Mangalore Coastal Installation, Baikampady, Mangaluru taluk, Dakshina Kannada, Karnataka, 575014, India",
            "longitude": "74.8137275833157",
            "latitude": "12.96014675",
            "blogLinks": [
                "http://wikitravel.org/en/Udupi",
                "http://www.nivalink.com/destination/udupi"
            ],
            "locType": "industrial"
        },
        "savanur": {
            "closest_to": "udupi",
            "address": "Savanura, Savanura taluk, Haveri district, Karnataka, 581118, India",
            "longitude": "75.3397064",
            "latitude": "14.9750243",
            "blogLinks": [
                "https://en.wikipedia.org/wiki/Hubli"
            ],
            "locType": "town"
        },
        "malpe beach": {
            "closest_to": "udupi",
            "address": "Malpe Beach, Malpe Road, Adi Udupi, Malpe, Udupi taluku, Udupi district, Karnataka, 576101, India",
            "longitude": "74.6977767",
            "latitude": "13.3610748",
            "blogLinks": [
                "http://thetalesofatraveler.com/places-to-see-in-udupi/",
                "http://wikitravel.org/en/Udupi"
            ],
            "locType": "marina"
        },
        "hassan station": {
            "closest_to": "udupi",
            "address": "Hassan district, Karnataka, India",
            "longitude": "76.1745460751981",
            "latitude": "13.0315068",
            "blogLinks": [
                "http://traveltriangle.com/blog/best-places-to-visit-in-karnataka/"
            ],
            "locType": "administrative"
        },
        "river gurupura": {
            "closest_to": "udupi",
            "address": "Gurupura, Tarikere taluku, Chikkamagaluru district, Karnataka, India",
            "longitude": "75.7161587",
            "latitude": "13.6686411",
            "blogLinks": [
                "http://traveltriangle.com/blog/best-places-to-visit-in-karnataka/"
            ],
            "locType": "village"
        },
        "kundapur": {
            "closest_to": "udupi",
            "address": "United Basel mission church Higher Primary School, Kundapur, Chikkansal Road, Vaderahobali, Kundapura, \u0c95\u0cc1\u0c82\u0ca6\u0cbe\u0caa\u0cc1\u0cb0 \u0ca4\u0cbe\u0cb2\u0cc2\u0c95\u0cc1, Udupi district, Karnataka, 576200, India",
            "longitude": "74.6906749",
            "latitude": "13.6343509",
            "blogLinks": [
                "http://wikitravel.org/en/Udupi"
            ],
            "locType": "school"
        },
        "urdu": {
            "closest_to": "udupi",
            "address": "Urdu Ground, Ranebennur, Ranebennuru taluk, Haveri district, Karnataka, 581115, India",
            "longitude": "75.636575371858",
            "latitude": "14.6180369",
            "blogLinks": [
                "https://en.wikipedia.org/wiki/Sirsi,_Karnataka"
            ],
            "locType": "recreation_ground"
        },
        "crumbz bakery": {
            "closest_to": "udupi",
            "address": "Crumbz, NH66, Kulai, Mangaluru taluk, Dakshina Kannada, Karnataka, 575014, India",
            "longitude": "74.8020998",
            "latitude": "12.9846268",
            "blogLinks": [
                "http://thetalesofatraveler.com/places-to-see-in-udupi/"
            ],
            "locType": "bakery"
        },
        "river netravati": {
            "closest_to": "udupi",
            "address": "Netravati, Bantwal taluk, Dakshina Kannada, Karnataka, India",
            "longitude": "75.1562182",
            "latitude": "12.8537655",
            "blogLinks": [
                "http://traveltriangle.com/blog/best-places-to-visit-in-karnataka/"
            ],
            "locType": "river"
        },
        "kalaseshwara temple": {
            "closest_to": "udupi",
            "address": "Kalaseshwara Temple, SH66, Kalasa, Mudigere taluk, Chikkamagaluru district, Karnataka, 577124, India",
            "longitude": "75.363446975",
            "latitude": "13.23228505",
            "blogLinks": [
                "http://www.nivalink.com/destination/udupi",
                "http://www.nivalink.com/destination/sringeri"
            ],
            "locType": "place_of_worship"
        },
        "mangalore railway station": {
            "closest_to": "udupi",
            "address": "Hotels in Mangalore Near Railway Station  (Reiseb\u00fcro ), SH67, Gandhinagar, Kenjar, Mangaluru taluk, Dakshina Kannada, Karnataka, 575015, India",
            "longitude": "74.8680725",
            "latitude": "12.9519663",
            "blogLinks": [
                "http://www.nivalink.com/destination/udupi"
            ],
            "locType": "travel_agent"
        },
        "chandramouleshwara": {
            "closest_to": "udupi",
            "address": "Chandramouleshwara Temple, Edapally - Panvel Highway, Kolnad, Karnad, Padu Panambur, Mangaluru taluk, Dakshina Kannada, Karnataka, 575025, India",
            "longitude": "74.8024264",
            "latitude": "13.0636768",
            "blogLinks": [
                "http://thetalesofatraveler.com/places-to-see-in-udupi/"
            ],
            "locType": "place_of_worship"
        },
        "madhva sarovara": {
            "closest_to": "udupi",
            "address": "Sri Madhva Sarovara, Rathabidi, Indiranagara, Udupi, Udupi taluku, Udupi district, Karnataka, 576101, India",
            "longitude": "74.7523631573063",
            "latitude": "13.3412371",
            "blogLinks": [
                "http://wikitravel.org/en/Udupi"
            ],
            "locType": "water"
        },
        "marikamba": {
            "closest_to": "udupi",
            "address": "Marikamba Temple, NH766C;SH26, Halkal, \u0c95\u0cc1\u0c82\u0ca6\u0cbe\u0caa\u0cc1\u0cb0 \u0ca4\u0cbe\u0cb2\u0cc2\u0c95\u0cc1, Udupi district, Karnataka, 576220, India",
            "longitude": "74.8103631279317",
            "latitude": "13.8626958",
            "blogLinks": [
                "https://en.wikipedia.org/wiki/Sirsi,_Karnataka"
            ],
            "locType": "place_of_worship"
        },
        "hubli airport": {
            "closest_to": "udupi",
            "address": "Hubli Airport, \u0c97\u0ccb\u0c95\u0cc1\u0cb2 \u0cb0\u0ccb\u0ca1\u0ccd, Padmaraj Nagar, Gokul, Hubballi taluku, Dharwad district, Karnataka, 580030, India",
            "longitude": "75.0860974",
            "latitude": "15.3598315",
            "blogLinks": [
                "https://en.wikipedia.org/wiki/Hubli",
                "http://traveltriangle.com/blog/best-places-to-visit-in-karnataka/"
            ],
            "locType": "aerodrome"
        },
        "mahakali temple": {
            "closest_to": "udupi",
            "address": "Mahakali and Janardhana Temple, Mahakali Marga, Ambalapadi, Udupi, Udupi taluku, Udupi district, Karnataka, 576101, India",
            "longitude": "74.7307174382814",
            "latitude": "13.3371922",
            "blogLinks": [
                "http://www.nivalink.com/destination/udupi"
            ],
            "locType": "place_of_worship"
        },
        "tannirbhavi beach": {
            "closest_to": "udupi",
            "address": "Tannirbhavi Beach, Matadakani Road, Bokkapatna, Kudroli, Mangaluru, Mangaluru taluk, Dakshina Kannada, Karnataka, 575001, India",
            "longitude": "74.8132559697314",
            "latitude": "12.8953559",
            "blogLinks": [
                "http://traveltriangle.com/blog/best-places-to-visit-in-karnataka/"
            ],
            "locType": "beach"
        },
        "udupi railway station": {
            "closest_to": "udupi",
            "address": "Udupi Railway Station, Railway Godown Road, Indrali, Udupi, Udupi taluku, Udupi district, Karnataka, 576101, India",
            "longitude": "74.7710217",
            "latitude": "13.3360878",
            "blogLinks": [
                "http://www.karnatakatourism.org/",
                "http://wikitravel.org/en/Udupi",
                "http://www.nivalink.com/destination/udupi"
            ],
            "locType": "station"
        },
        "bellary airport": {
            "closest_to": "hubli",
            "address": "Bellary Airport, Hosapete Road, Ballari, Bellary taluk, Bellary district, Karnataka, 583104, India",
            "longitude": "76.8813908",
            "latitude": "15.1615409",
            "blogLinks": [
                "http://traveltriangle.com/blog/best-places-to-visit-in-karnataka/"
            ],
            "locType": "aerodrome"
        },
        "horanadu": {
            "closest_to": "udupi",
            "address": "Horanadu, Mudigere taluk, Chikkamagaluru district, Karnataka, 577181, India",
            "longitude": "75.3445161",
            "latitude": "13.2761199",
            "blogLinks": [
                "http://www.nivalink.com/destination/udupi"
            ],
            "locType": "town"
        },
        "dharwad": {
            "closest_to": "hubli",
            "address": "Dharwad, Dharawada taluku, Dharwad district, Karnataka, 580001, India",
            "longitude": "75.0066516",
            "latitude": "15.4540505",
            "blogLinks": [
                "https://en.wikipedia.org/wiki/Sirsi,_Karnataka",
                "https://en.wikipedia.org/wiki/Hubli"
            ],
            "locType": "city"
        },
        "mangaladevi temple": {
            "closest_to": "udupi",
            "address": "Shri Mangaladevi Temple, Mangala Devi Temple Road, Mulihitlu, Bolar, Mangaluru, Mangaluru taluk, Dakshina Kannada, Karnataka, 575001, India",
            "longitude": "74.8452646984836",
            "latitude": "12.84923455",
            "blogLinks": [
                "http://traveltriangle.com/blog/best-places-to-visit-in-karnataka/"
            ],
            "locType": "place_of_worship"
        },
        "khanapur": {
            "closest_to": "hubli",
            "address": "Khanapur, Khanapura taluku, Belgaum district, Karnataka, 591302, India",
            "longitude": "74.5088917",
            "latitude": "15.639879",
            "blogLinks": [
                "http://www.nivalink.com/destination/udupi"
            ],
            "locType": "town"
        },
        "mangalore railway": {
            "closest_to": "udupi",
            "address": "Mangalore Central, Railway Station Road, Pandeshwar, Attavar, Mangaluru, Mangaluru taluk, Dakshina Kannada, Karnataka, 575001, India",
            "longitude": "74.8432387",
            "latitude": "12.8634037",
            "blogLinks": [
                "https://rameshjs.wordpress.com/2009/02/09/visit-to-kukke-dharmasthala-sringeri-temples/"
            ],
            "locType": "station"
        },
        "karkala": {
            "closest_to": "udupi",
            "address": "Karkala, Karkala taluk, Udupi district, Karnataka, 574104, India",
            "longitude": "74.9959586",
            "latitude": "13.2112826",
            "blogLinks": [
                "http://wikitravel.org/en/Udupi",
                "http://www.nivalink.com/destination/udupi"
            ],
            "locType": "town"
        },
        "bijapur": {
            "closest_to": "hubli",
            "address": "Vijayapura, Vijayapura taluk, Bijapur district, Karnataka, 586101, India",
            "longitude": "75.7175387",
            "latitude": "16.8269911",
            "blogLinks": [
                "http://traveltriangle.com/blog/best-places-to-visit-in-karnataka/"
            ],
            "locType": "city"
        },
        "kemmannu": {
            "closest_to": "udupi",
            "address": "Kemmannu, Udupi taluku, Udupi district, Karnataka, India",
            "longitude": "74.7091185",
            "latitude": "13.4007564",
            "blogLinks": [
                "http://wikitravel.org/en/Udupi"
            ],
            "locType": "village"
        },
        "ratha beedi": {
            "closest_to": "udupi",
            "address": "Ratha Beedi, Ujire, Beltangadi taluk, Dakshina Kannada, Karnataka, India",
            "longitude": "75.3322859",
            "latitude": "12.9966235",
            "blogLinks": [
                "http://wikitravel.org/en/Udupi"
            ],
            "locType": "path"
        },
        "uttara kannada": {
            "closest_to": "udupi",
            "address": "Uttara Kannada, Karnataka, India",
            "longitude": "74.4729163045979",
            "latitude": "14.6726379",
            "blogLinks": [
                "https://en.wikipedia.org/wiki/Sirsi,_Karnataka",
                "http://www.mapsofindia.com/mangalore/travel/tourism.html"
            ],
            "locType": "administrative"
        },
        "nethravathi river": {
            "closest_to": "udupi",
            "address": "Nethravathi Bridge, Gujjar Kere, Bolar, Mangaluru, Mangaluru taluk, Dakshina Kannada, Karnataka, 575001, India",
            "longitude": "74.8603633",
            "latitude": "12.8308056",
            "blogLinks": [
                "http://www.mapsofindia.com/mangalore/travel/tourism.html"
            ],
            "locType": "trunk"
        },
        "mangalore station": {
            "closest_to": "udupi",
            "address": "Bharti Shipyard Limited, Mangalore, Mangaluru, Mangaluru taluk, Dakshina Kannada, Karnataka, 575001, India",
            "longitude": "74.8227040793795",
            "latitude": "12.87337955",
            "blogLinks": [
                "http://traveltriangle.com/blog/best-places-to-visit-in-karnataka/"
            ],
            "locType": "boatyard"
        },
        "udupi krishna temple": {
            "closest_to": "udupi",
            "address": "Sri Krishna Temple Udupi, Rathabidi, Indiranagara, Udupi, Udupi taluku, Udupi district, Karnataka, 576101, India",
            "longitude": "74.7520421",
            "latitude": "13.341185",
            "blogLinks": [
                "http://www.nivalink.com/destination/udupi"
            ],
            "locType": "place_of_worship"
        },
        "udupi": {
            "closest_to": "udupi",
            "address": "Udupi, Udupi taluku, Udupi district, Karnataka, 576101, India",
            "longitude": "74.7473232",
            "latitude": "13.3419169",
            "blogLinks": [
                "https://en.wikipedia.org/wiki/Sirsi,_Karnataka",
                "https://www.tripoto.com/places-to-visit/india/udupi",
                "http://wikitravel.org/en/Udupi",
                "http://www.nivalink.com/destination/udupi",
                "http://www.nivalink.com/destination/sringeri"
            ],
            "locType": "city"
        },
        "river varada": {
            "closest_to": "udupi",
            "address": "Varada, Savanura taluk, Haveri district, Karnataka, India",
            "longitude": "75.47206",
            "latitude": "14.8717792",
            "blogLinks": [
                "http://traveltriangle.com/blog/best-places-to-visit-in-karnataka/"
            ],
            "locType": "river"
        },
        "dharmasthala": {
            "closest_to": "udupi",
            "address": "Dharmasthala, Beltangadi taluk, Dakshina Kannada, Karnataka, 574216, India",
            "longitude": "75.3813122",
            "latitude": "12.9519571",
            "blogLinks": [
                "https://rameshjs.wordpress.com/2009/02/09/visit-to-kukke-dharmasthala-sringeri-temples/"
            ],
            "locType": "village"
        },
        "aihole": {
            "closest_to": "hubli",
            "address": "Aihole, Hunagunda taluku, Bagalkote district, Karnataka, India",
            "longitude": "75.8819129",
            "latitude": "16.0192298",
            "blogLinks": [
                "http://traveltriangle.com/blog/best-places-to-visit-in-karnataka/"
            ],
            "locType": "village"
        },
        "dubare elephant camp": {
            "closest_to": "udupi",
            "address": "Dubare Elephant Camp, SH91, Dodda Bettageri, Somawarpet taluk, Kodagu, Karnataka, India",
            "longitude": "75.9066719",
            "latitude": "12.3716865",
            "blogLinks": [
                "http://traveltriangle.com/blog/best-places-to-visit-in-karnataka/"
            ],
            "locType": "attraction"
        },
        "pattadakal": {
            "closest_to": "hubli",
            "address": "Pattadakal Temples, SH14, \u0cac\u0cbe\u0c9a\u0cbf\u0ca8\u0c97\u0cc1\u0ca1\u0ccd\u0ca1, Badami taluku, Bagalkote district, Karnataka, 587211, India",
            "longitude": "75.815884048161",
            "latitude": "15.9506349",
            "blogLinks": [
                "http://traveltriangle.com/blog/best-places-to-visit-in-karnataka/"
            ],
            "locType": "attraction"
        },
        "st. aloysius chapel": {
            "closest_to": "udupi",
            "address": "St. Aloysius Chapel, St Aloysius Internal Road, Dongerkeri, Mallikatte, Mangaluru, Mangaluru taluk, Dakshina Kannada, Karnataka, 575001, India",
            "longitude": "74.8453615",
            "latitude": "12.8737995",
            "blogLinks": [
                "http://traveltriangle.com/blog/best-places-to-visit-in-karnataka/"
            ],
            "locType": "place_of_worship"
        },
        "iruppu falls": {
            "closest_to": "udupi",
            "address": "Iruppu Falls, SH89, Taila, Virajpet taluk, Kodagu, Karnataka, 571217, India",
            "longitude": "75.9839484",
            "latitude": "11.9667954",
            "blogLinks": [
                "http://traveltriangle.com/blog/best-places-to-visit-in-karnataka/"
            ],
            "locType": "attraction"
        },
        "hebri": {
            "closest_to": "udupi",
            "address": "Hebri, Karkala taluk, Udupi district, Karnataka, India",
            "longitude": "74.9911872",
            "latitude": "13.4586986",
            "blogLinks": [
                "http://wikitravel.org/en/Udupi"
            ],
            "locType": "village"
        },
        "annapoorneshwari temple": {
            "closest_to": "udupi",
            "address": "Sri Ambika Annapoorneshwari Temple, SH101, Sunkadakatte, Mangaluru taluk, Dakshina Kannada, Karnataka, India",
            "longitude": "74.9006001",
            "latitude": "12.97910715",
            "blogLinks": [
                "http://www.nivalink.com/destination/udupi"
            ],
            "locType": "place_of_worship"
        },
        "hampi": {
            "closest_to": "hubli",
            "address": "Hampe, Hosapete taluk, Bellary district, Karnataka, 583239, India",
            "longitude": "76.4606199",
            "latitude": "15.3359769",
            "blogLinks": [
                "http://traveltriangle.com/blog/best-places-to-visit-in-karnataka/"
            ],
            "locType": "village"
        },
        "court road": {
            "closest_to": "hubli",
            "address": "Court Road, Ballari, Bellary taluk, Bellary district, Karnataka, 583103, India",
            "longitude": "76.9334095",
            "latitude": "15.147449",
            "blogLinks": [
                "http://wikitravel.org/en/Udupi"
            ],
            "locType": "tertiary"
        },
        "shringeri": {
            "closest_to": "udupi",
            "address": "Shringeri, Hanagal taluk, Haveri district, Karnataka, India",
            "longitude": "75.0621168",
            "latitude": "14.7221214",
            "blogLinks": [
                "https://rameshjs.wordpress.com/2009/02/09/visit-to-kukke-dharmasthala-sringeri-temples/",
                "http://www.nivalink.com/destination/udupi",
                "http://www.nivalink.com/destination/sringeri"
            ],
            "locType": "village"
        },
        "malnad": {
            "closest_to": "udupi",
            "address": "Malnad Hospital, Mudigere-Kadur Road, Chikkamagaluru, Chikkamagaluru taluku, Chikkamagaluru district, Karnataka, 577101, India",
            "longitude": "75.7715495",
            "latitude": "13.3160351",
            "blogLinks": [
                "https://en.wikipedia.org/wiki/Hubli"
            ],
            "locType": "hospital"
        },
        "hubli road": {
            "closest_to": "hubli",
            "address": "Hubli Road, Betageri, Gadag, Gadag taluk, Gadag district, Karnataka, 582102, India",
            "longitude": "75.6212485",
            "latitude": "15.4223718",
            "blogLinks": [
                "https://en.wikipedia.org/wiki/Sirsi,_Karnataka"
            ],
            "locType": "trunk"
        },
        "tungabhadra river": {
            "closest_to": "hubli",
            "address": "Tungabhadra, Gangavati taluku, Koppal district, Karnataka, India",
            "longitude": "76.4931607",
            "latitude": "15.3446123",
            "blogLinks": [
                "http://traveltriangle.com/blog/best-places-to-visit-in-karnataka/"
            ],
            "locType": "river"
        },
        "dakshina kannada": {
            "closest_to": "udupi",
            "address": "Dakshina Kannada, Karnataka, India",
            "longitude": "75.1008028650794",
            "latitude": "12.8114089",
            "blogLinks": [
                "http://wikitravel.org/en/Udupi",
                "http://www.nivalink.com/destination/udupi"
            ],
            "locType": "administrative"
        },
        "mangalore airport": {
            "closest_to": "udupi",
            "address": "Mangalore International Airport, Airport Entry Road, Gandhinagar, Kenjar, Mangaluru taluk, Dakshina Kannada, Karnataka, 575015, India",
            "longitude": "74.887492668144",
            "latitude": "12.95518575",
            "blogLinks": [
                "http://traveltriangle.com/blog/best-places-to-visit-in-karnataka/",
                "http://www.nivalink.com/destination/udupi"
            ],
            "locType": "aerodrome"
        },
        "malpe": {
            "closest_to": "udupi",
            "address": "Malpe, Udupi taluku, Udupi district, Karnataka, India",
            "longitude": "74.7036914",
            "latitude": "13.3507423",
            "blogLinks": [
                "https://www.tripoto.com/places-to-visit/india/udupi",
                "http://wikitravel.org/en/Udupi",
                "http://www.nivalink.com/destination/udupi"
            ],
            "locType": "village"
        },
        "kundapura": {
            "closest_to": "udupi",
            "address": "Kundapura, \u0c95\u0cc1\u0c82\u0ca6\u0cbe\u0caa\u0cc1\u0cb0 \u0ca4\u0cbe\u0cb2\u0cc2\u0c95\u0cc1, Udupi district, Karnataka, 576200, India",
            "longitude": "74.6915722",
            "latitude": "13.6250993",
            "blogLinks": [
                "http://www.nivalink.com/destination/udupi",
                "http://www.nivalink.com/destination/sringeri"
            ],
            "locType": "town"
        },
        "mahakali": {
            "closest_to": "udupi",
            "address": "Mahakali Marga, Ambalapadi, Udupi, Udupi taluku, Udupi district, Karnataka, 576101, India",
            "longitude": "74.7253262",
            "latitude": "13.3420788",
            "blogLinks": [
                "http://www.nivalink.com/destination/udupi"
            ],
            "locType": "residential"
        },
        "moodbidri": {
            "closest_to": "udupi",
            "address": "Corpus Christi Church, Moodbidri, Solapur-Mangalore Highway, Miyyar, Karkala taluk, Udupi district, Karnataka, 574107, India",
            "longitude": "74.9956313829407",
            "latitude": "13.0656537",
            "blogLinks": [
                "http://www.nivalink.com/destination/udupi"
            ],
            "locType": "place_of_worship"
        },
        "om beach": {
            "closest_to": "udupi",
            "address": "Om Beach, Om beach road, Gokarna, Kumata taluk, Uttara Kannada, Karnataka, 581326, India",
            "longitude": "74.3254331800289",
            "latitude": "14.5190376",
            "blogLinks": [
                "http://traveltriangle.com/blog/best-places-to-visit-in-karnataka/"
            ],
            "locType": "beach"
        },
        "haveri": {
            "closest_to": "udupi",
            "address": "Haveri, Haveri taluku, Haveri district, Karnataka, 581110, India",
            "longitude": "75.3996731",
            "latitude": "14.7874825",
            "blogLinks": [
                "https://en.wikipedia.org/wiki/Sirsi,_Karnataka"
            ],
            "locType": "town"
        },
        "kali river": {
            "closest_to": "udupi",
            "address": "Kali, Joida taluk, Uttara Kannada, Karnataka, India",
            "longitude": "74.5802901",
            "latitude": "15.0145378",
            "blogLinks": [
                "http://traveltriangle.com/blog/best-places-to-visit-in-karnataka/"
            ],
            "locType": "river"
        },
        "sahyadri": {
            "closest_to": "udupi",
            "address": "Sahyadri Polytechnic, SH1, Seebinakere, Sankadahole, Tirthahalli taluk, Shimoga district, Karnataka, 577432, India",
            "longitude": "75.2317987800043",
            "latitude": "13.6983273",
            "blogLinks": [
                "https://en.wikipedia.org/wiki/Sirsi,_Karnataka"
            ],
            "locType": "school"
        },
        "kumta": {
            "closest_to": "udupi",
            "address": "Kumta, Kumata taluk, Uttara Kannada, Karnataka, India",
            "longitude": "74.4107617",
            "latitude": "14.4261647",
            "blogLinks": [
                "https://en.wikipedia.org/wiki/Sirsi,_Karnataka"
            ],
            "locType": "town"
        },
        "hubli": {
            "closest_to": "udupi",
            "address": "Hubballi - \u0cb9\u0cc1\u0cac\u0ccd\u0cac\u0cb3\u0ccd\u0cb3\u0cbf, Hubballi taluku, Dharwad district, Karnataka, 580020, India",
            "longitude": "75.1379848",
            "latitude": "15.3518378",
            "blogLinks": [
                "http://www.nivalink.com/destination/sringeri",
                "https://rameshjs.wordpress.com/2009/02/09/visit-to-kukke-dharmasthala-sringeri-temples/",
                "http://www.distancesfrom.com/distance-from-Hubli-to-udupi/DistanceHistory/2442294.aspx",
                "https://en.wikipedia.org/wiki/Hubli",
                "http://thetalesofatraveler.com/places-to-see-in-udupi/",
                "https://en.wikipedia.org/wiki/Sirsi,_Karnataka",
                "http://distancecalculator.globefeed.com/India_Distance_Calculator.asp?state=19"
            ],
            "locType": "city"
        },
        "mangalore": {
            "closest_to": "udupi",
            "address": "Mangaluru, Mangaluru taluk, Dakshina Kannada, Karnataka, 575001, India",
            "longitude": "74.8430082",
            "latitude": "12.8698101",
            "blogLinks": [
                "http://traveltriangle.com/blog/best-places-to-visit-in-karnataka/",
                "http://wikitravel.org/en/Udupi",
                "https://rameshjs.wordpress.com/2009/02/09/visit-to-kukke-dharmasthala-sringeri-temples/",
                "https://www.tripoto.com/places-to-visit/india/udupi",
                "http://www.mapsofindia.com/mangalore/travel/tourism.html",
                "http://thetalesofatraveler.com/places-to-see-in-udupi/",
                "https://en.wikipedia.org/wiki/Sirsi,_Karnataka",
                "http://www.nivalink.com/destination/udupi"
            ],
            "locType": "city"
        },
        "india": {
            "closest_to": "udupi",
            "address": "Karnataka, India",
            "longitude": "75.7223521",
            "latitude": "14.5203896",
            "blogLinks": [
                "http://traveltriangle.com/blog/best-places-to-visit-in-karnataka/",
                "http://wikitravel.org/en/Udupi",
                "http://www.distancesfrom.com/distance-from-Hubli-to-udupi/DistanceHistory/2442294.aspx",
                "https://en.wikipedia.org/wiki/Hubli",
                "http://thetalesofatraveler.com/places-to-see-in-udupi/",
                "https://en.wikipedia.org/wiki/Sirsi,_Karnataka",
                "http://distancecalculator.globefeed.com/India_Distance_Calculator.asp?state=19",
                "http://www.nivalink.com/destination/udupi"
            ],
            "locType": "administrative"
        },
        "panambur beach": {
            "closest_to": "udupi",
            "address": "Panambur Beach, Panambur Beach Road, Gandhinagar, Panambur, Mangaluru taluk, Dakshina Kannada, Karnataka, 575013, India",
            "longitude": "74.8034667207214",
            "latitude": "12.93907195",
            "blogLinks": [
                "http://traveltriangle.com/blog/best-places-to-visit-in-karnataka/"
            ],
            "locType": "beach"
        },
        "karwar": {
            "closest_to": "udupi",
            "address": "Karwar, Karavara taluk, Uttara Kannada, Karnataka, 581300, India",
            "longitude": "74.1319229",
            "latitude": "14.8120931",
            "blogLinks": [
                "https://en.wikipedia.org/wiki/Sirsi,_Karnataka"
            ],
            "locType": "town"
        },
        "brahmavar": {
            "closest_to": "udupi",
            "address": "Brahmavar Market Road, Brahmavara, Udupi taluku, Udupi district, Karnataka, 576213, India",
            "longitude": "74.7453719",
            "latitude": "13.4373633",
            "blogLinks": [
                "http://wikitravel.org/en/Udupi"
            ],
            "locType": "tertiary"
        },
        "hubballi": {
            "closest_to": "udupi",
            "address": "Hubballi taluku, Dharwad district, Karnataka, India",
            "longitude": "75.1516752287964",
            "latitude": "15.3341153",
            "blogLinks": [
                "https://en.wikipedia.org/wiki/Hubli"
            ],
            "locType": "administrative"
        },
        "belgaum airport": {
            "closest_to": "hubli",
            "address": "Belgaum Airport, SH20, Balekundri, Belagavi taluku, Belgaum district, Karnataka, 591124, India",
            "longitude": "74.6189763983851",
            "latitude": "15.8602827",
            "blogLinks": [
                "http://traveltriangle.com/blog/best-places-to-visit-in-karnataka/"
            ],
            "locType": "aerodrome"
        },
        "end point road": {
            "closest_to": "udupi",
            "address": "End Point, Udupi, Udupi taluku, Udupi district, Karnataka, 576101, India",
            "longitude": "74.7848287",
            "latitude": "13.3700386",
            "blogLinks": [
                "https://www.tripoto.com/travel-guide/manipal"
            ],
            "locType": "suburb"
        },
        "river kali": {
            "closest_to": "udupi",
            "address": "Kali, Joida taluk, Uttara Kannada, Karnataka, India",
            "longitude": "74.5802901",
            "latitude": "15.0145378",
            "blogLinks": [
                "http://traveltriangle.com/blog/best-places-to-visit-in-karnataka/"
            ],
            "locType": "river"
        },
        "hubli-dharwad": {
            "closest_to": "udupi",
            "address": "Hubballi - \u0cb9\u0cc1\u0cac\u0ccd\u0cac\u0cb3\u0ccd\u0cb3\u0cbf, Hubballi taluku, Dharwad district, Karnataka, 580020, India",
            "longitude": "75.1379848",
            "latitude": "15.3518378",
            "blogLinks": [
                "https://en.wikipedia.org/wiki/Hubli"
            ],
            "locType": "city"
        },
        "banavasi": {
            "closest_to": "udupi",
            "address": "Banavasi, Shirasi taluk, Uttara Kannada, Karnataka, India",
            "longitude": "75.0129845",
            "latitude": "14.5389738",
            "blogLinks": [
                "https://en.wikipedia.org/wiki/Sirsi,_Karnataka"
            ],
            "locType": "town"
        },
        "cochin": {
            "closest_to": "udupi",
            "address": "Cochin Bakery, Old Kent Road, Pandeshwar, Attavar, Mangaluru, Mangaluru taluk, Dakshina Kannada, Karnataka, 575001, India",
            "longitude": "74.8390919",
            "latitude": "12.8604752",
            "blogLinks": [
                "http://thetalesofatraveler.com/places-to-see-in-udupi/"
            ],
            "locType": "confectionery"
        },
        "kalpana": {
            "closest_to": "udupi",
            "address": "Kalpana, Kavi Muddana Marg, Indiranagara, Udupi, Udupi taluku, Udupi district, Karnataka, 576101, India",
            "longitude": "74.7506815",
            "latitude": "13.3360433",
            "blogLinks": [
                "http://wikitravel.org/en/Udupi"
            ],
            "locType": "cinema"
        },
        "ratha": {
            "closest_to": "udupi",
            "address": "Ratha Beedhi, Banavasi, Shirasi taluk, Uttara Kannada, Karnataka, India",
            "longitude": "75.0167716",
            "latitude": "14.5388892",
            "blogLinks": [
                "http://wikitravel.org/en/Udupi"
            ],
            "locType": "secondary"
        },
        "kapu beach": {
            "closest_to": "udupi",
            "address": "Kapu Beach, NH66, Mallaru, Udupi taluku, Udupi district, Karnataka, India",
            "longitude": "74.7388930883129",
            "latitude": "13.2187564",
            "blogLinks": [
                "http://wikitravel.org/en/Udupi"
            ],
            "locType": "beach"
        },
        "bahubali": {
            "closest_to": "udupi",
            "address": "Bahubali Statue, SH8, Shravanabelagola, Channarayapattana taluk, Hassan district, Karnataka, 573135, India",
            "longitude": "76.4846128",
            "latitude": "12.8540505",
            "blogLinks": [
                "http://www.nivalink.com/destination/udupi"
            ],
            "locType": "place_of_worship"
        },
        "unchalli falls": {
            "closest_to": "udupi",
            "address": "\u0c89\u0c82\u0c9a\u0cb3\u0ccd\u0cb3\u0cbf \u0c9c\u0cb2\u0caa\u0cbe\u0ca4, Siddapura taluk, Uttara Kannada, Karnataka, India",
            "longitude": "74.7477592",
            "latitude": "14.4097755",
            "blogLinks": [
                "https://en.wikipedia.org/wiki/Sirsi,_Karnataka"
            ],
            "locType": "waterfall"
        },
        "chitradurga": {
            "closest_to": "udupi",
            "address": "Chitradurga, Chitradurga taluku, Chitradurga district, Karnataka, 577500, India",
            "longitude": "76.4005122",
            "latitude": "14.2266443",
            "blogLinks": [
                "http://traveltriangle.com/blog/best-places-to-visit-in-karnataka/"
            ],
            "locType": "town"
        },
        "mangalore international airport": {
            "closest_to": "udupi",
            "address": "Mangalore International Airport, Airport Entry Road, Gandhinagar, Kenjar, Mangaluru taluk, Dakshina Kannada, Karnataka, 575015, India",
            "longitude": "74.887492668144",
            "latitude": "12.95518575",
            "blogLinks": [
                "http://traveltriangle.com/blog/best-places-to-visit-in-karnataka/",
                "http://wikitravel.org/en/Udupi"
            ],
            "locType": "aerodrome"
        },
        "navanagar": {
            "closest_to": "hubli",
            "address": "Navanagar, Amaragol, Hubballi taluku, Dharwad district, Karnataka, India",
            "longitude": "75.0820943",
            "latitude": "15.3938408",
            "blogLinks": [
                "https://en.wikipedia.org/wiki/Hubli"
            ],
            "locType": "suburb"
        }
    },
    "hubli": {
        "place_id": "6298582",
        "osm_id": "670289984",
        "icon": "https://nominatim.openstreetmap.org/images/mapicons/poi_place_city.p.20.png",
        "osm_type": "node",
        "licence": "Data \u00a9 OpenStreetMap contributors, ODbL 1.0. http://www.openstreetmap.org/copyright",
        "display_name": "Hubballi - \u0cb9\u0cc1\u0cac\u0ccd\u0cac\u0cb3\u0ccd\u0cb3\u0cbf, Hubballi taluku, Dharwad district, Karnataka, 580020, India",
        "type": "city",
        "lon": "75.1379848",
        "boundingbox": [
            "15.1918378",
            "15.5118378",
            "74.9779848",
            "75.2979848"
        ],
        "importance": 0.45,
        "lat": "15.3518378",
        "class": "place"
    }
}