{
    "manipal": {
        "place_id": "14794110",
        "osm_id": "1351009057",
        "icon": "https://nominatim.openstreetmap.org/images/mapicons/poi_place_town.p.20.png",
        "osm_type": "node",
        "licence": "Data \u00a9 OpenStreetMap contributors, ODbL 1.0. http://www.openstreetmap.org/copyright",
        "display_name": "Manipal, Udupi taluku, Udupi district, Karnataka, India",
        "type": "town",
        "lon": "74.7870308",
        "boundingbox": [
            "13.3119723",
            "13.3919723",
            "74.7470308",
            "74.8270308"
        ],
        "importance": 0.5,
        "lat": "13.3519723",
        "class": "place"
    },
    "mentions": {
        "horanadu": {
            "closest_to": "manipal",
            "address": "Horanadu, Mudigere taluk, Chikkamagaluru district, Karnataka, 577181, India",
            "longitude": "75.3445161",
            "latitude": "13.2761199",
            "blogLinks": [
                "http://www.indiamike.com/india/karnataka-f38/udupi-agumbe-shringeri-murudeshwara-jog-falls-dharmasthala-t137208/"
            ],
            "locType": "town"
        },
        "kadri manjunatha temple": {
            "closest_to": "manipal",
            "address": "Kadri Manjunatha Temple, Manjunatha Colony Road, Bikarnakatte, Nanthoor, Mangaluru, Mangaluru taluk, Dakshina Kannada, Karnataka, 575001, India",
            "longitude": "74.85560021854",
            "latitude": "12.88588535",
            "blogLinks": [
                "http://www.mouthshut.com/review/South-Kanara-review-nlrpnotsnm"
            ],
            "locType": "place_of_worship"
        },
        "kundapur": {
            "closest_to": "manipal",
            "address": "United Basel mission church Higher Primary School, Kundapur, Chikkansal Road, Vaderahobali, Kundapura, \u0c95\u0cc1\u0c82\u0ca6\u0cbe\u0caa\u0cc1\u0cb0 \u0ca4\u0cbe\u0cb2\u0cc2\u0c95\u0cc1, Udupi district, Karnataka, 576200, India",
            "longitude": "74.6906749",
            "latitude": "13.6343509",
            "blogLinks": [
                "https://www.quora.com/What-are-the-best-places-to-visit-in-between-Mangalore-to-Goa-on-a-road-trip",
                "https://www.quora.com/What-are-some-good-places-to-visit-on-the-Goa-Mangalore-route"
            ],
            "locType": "school"
        },
        "mangalore railway station": {
            "closest_to": "manipal",
            "address": "Hotels in Mangalore Near Railway Station  (Reiseb\u00fcro ), SH67, Gandhinagar, Kenjar, Mangaluru taluk, Dakshina Kannada, Karnataka, 575015, India",
            "longitude": "74.8680725",
            "latitude": "12.9519663",
            "blogLinks": [
                "http://www.nivalink.com/destination/manipal"
            ],
            "locType": "travel_agent"
        },
        "half moon beach": {
            "closest_to": "jog falls",
            "address": "Half Moon Beach, Om beach road, Gokarna, Kumata taluk, Uttara Kannada, Karnataka, 581326, India",
            "longitude": "74.3310971256284",
            "latitude": "14.5179028",
            "blogLinks": [
                "https://www.quora.com/What-are-some-good-places-to-visit-on-the-Goa-Mangalore-route"
            ],
            "locType": "beach"
        },
        "linganamakki dam": {
            "closest_to": "manipal",
            "address": "Linganamakki Dam, Sagara taluk, Shimoga district, Karnataka, India",
            "longitude": "74.8464623767123",
            "latitude": "14.1758978",
            "blogLinks": [
                "http://travel.india.com/jog-falls/"
            ],
            "locType": "dam"
        },
        "sagara": {
            "closest_to": "manipal",
            "address": "Sagara, Sagara taluk, Shimoga district, Karnataka, 577400, India",
            "longitude": "75.0262551",
            "latitude": "14.1666594",
            "blogLinks": [
                "https://www.tripadvisor.in/Attraction_Review-g1156205-d1206548-Reviews-Jog_Falls-Shimoga_Karnataka.html"
            ],
            "locType": "town"
        },
        "shringeri": {
            "closest_to": "jog falls",
            "address": "Shringeri, Hanagal taluk, Haveri district, Karnataka, India",
            "longitude": "75.0621168",
            "latitude": "14.7221214",
            "blogLinks": [
                "http://www.indiamike.com/india/karnataka-f38/udupi-agumbe-shringeri-murudeshwara-jog-falls-dharmasthala-t137208/"
            ],
            "locType": "village"
        },
        "mangalore": {
            "closest_to": "manipal",
            "address": "Mangaluru, Mangaluru taluk, Dakshina Kannada, Karnataka, 575001, India",
            "longitude": "74.8430082",
            "latitude": "12.8698101",
            "blogLinks": [
                "https://www.quora.com/What-are-the-best-places-to-visit-in-between-Mangalore-to-Goa-on-a-road-trip",
                "http://ifornature.blogspot.com/2007/02/beautiful-places-near-udupi.html",
                "http://www.nivalink.com/destination/manipal",
                "https://www.quora.com/What-are-some-good-places-to-visit-on-the-Goa-Mangalore-route",
                "http://www.mouthshut.com/review/South-Kanara-review-nlrpnotsnm"
            ],
            "locType": "city"
        },
        "mahakali": {
            "closest_to": "manipal",
            "address": "Mahakali Marga, Ambalapadi, Udupi, Udupi taluku, Udupi district, Karnataka, 576101, India",
            "longitude": "74.7253262",
            "latitude": "13.3420788",
            "blogLinks": [
                "http://www.nivalink.com/destination/manipal"
            ],
            "locType": "residential"
        },
        "tunga river": {
            "closest_to": "manipal",
            "address": "Tunga, Tirthahalli taluk, Shimoga district, Karnataka, India",
            "longitude": "75.3221835",
            "latitude": "13.6632221",
            "blogLinks": [
                "http://travel.india.com/jog-falls/places-to-visit/"
            ],
            "locType": "river"
        },
        "hosagadde": {
            "closest_to": "jog falls",
            "address": "Hosagadde, Kelaginamane, Siddapura taluk, Uttara Kannada, Karnataka, India",
            "longitude": "74.7527463",
            "latitude": "14.3274092",
            "blogLinks": [
                "http://travel.india.com/jog-falls/places-to-visit/"
            ],
            "locType": "locality"
        },
        "kalaseshwara temple": {
            "closest_to": "manipal",
            "address": "Kalaseshwara Temple, SH66, Kalasa, Mudigere taluk, Chikkamagaluru district, Karnataka, 577124, India",
            "longitude": "75.363446975",
            "latitude": "13.23228505",
            "blogLinks": [
                "http://www.nivalink.com/destination/manipal"
            ],
            "locType": "place_of_worship"
        },
        "dharmasthala": {
            "closest_to": "manipal",
            "address": "Dharmasthala, Beltangadi taluk, Dakshina Kannada, Karnataka, 574216, India",
            "longitude": "75.3813122",
            "latitude": "12.9519571",
            "blogLinks": [
                "http://www.mouthshut.com/review/South-Kanara-review-nlrpnotsnm"
            ],
            "locType": "village"
        },
        "sharavati river": {
            "closest_to": "jog falls",
            "address": "Sharavati, Sagara taluk, Shimoga district, Karnataka, India",
            "longitude": "74.7647294",
            "latitude": "14.2360979",
            "blogLinks": [
                "http://travel.india.com/jog-falls/"
            ],
            "locType": "river"
        },
        "agumbe": {
            "closest_to": "manipal",
            "address": "Agumbe, Tirthahalli taluk, Shimoga district, Karnataka, 577411, India",
            "longitude": "75.0965525",
            "latitude": "13.5094998",
            "blogLinks": [
                "https://www.quora.com/What-are-the-best-places-to-visit-in-between-Mangalore-to-Goa-on-a-road-trip",
                "http://www.distancesfrom.com/how-far-is-Manipal-from-Jog-Falls-via-Agumbe/HowFarHistory/33475794.aspx",
                "http://www.distancesfrom.com/directions-from-Jog-Falls-to-Manipal-via-Agumbe/DirectionHistory/33475794.aspx",
                "http://www.distancesfrom.com/travel-time-from-Jog-Falls-to-Manipal-via-Agumbe/TravelTimeHistory/33475794.aspx",
                "http://www.mouthshut.com/review/South-Kanara-review-nlrpnotsnm"
            ],
            "locType": "village"
        },
        "surathkal beach": {
            "closest_to": "manipal",
            "address": "Surathkal Beach, Surathkal Beach Road, Mukka, Mangaluru taluk, Dakshina Kannada, Karnataka, 575025, India",
            "longitude": "74.7911237623544",
            "latitude": "12.99943005",
            "blogLinks": [
                "http://www.mouthshut.com/review/South-Kanara-review-nlrpnotsnm"
            ],
            "locType": "beach"
        },
        "om beach": {
            "closest_to": "jog falls",
            "address": "Om Beach, Om beach road, Gokarna, Kumata taluk, Uttara Kannada, Karnataka, 581326, India",
            "longitude": "74.3254331800289",
            "latitude": "14.5190376",
            "blogLinks": [
                "https://www.quora.com/What-are-some-good-places-to-visit-on-the-Goa-Mangalore-route"
            ],
            "locType": "beach"
        },
        "bhatkal": {
            "closest_to": "manipal",
            "address": "Bhatkal, Bhatkala taluk, Uttara Kannada, Karnataka, 581320, India",
            "longitude": "74.5485295",
            "latitude": "13.9952114",
            "blogLinks": [
                "http://www.distancesfrom.com/distance-from-Manipal-to-Jog-Falls-India/DistanceHistory/2068775.aspx"
            ],
            "locType": "town"
        },
        "jog falls": {
            "closest_to": "manipal",
            "address": "Jog Falls, Joga - Kargal, Sagara taluk, Shimoga district, Karnataka, India",
            "longitude": "74.8128715",
            "latitude": "14.2276106",
            "blogLinks": [
                "http://travel.india.com/jog-falls/places-to-visit/",
                "http://travel.india.com/jog-falls/",
                "http://www.distancesfrom.com/travel-from-Jog-Falls-to-Manipal-via-Agumbe/TravelFromHistory/33475794.aspx",
                "https://www.tripadvisor.in/Attraction_Review-g1156205-d1206548-Reviews-Jog_Falls-Shimoga_Karnataka.html",
                "http://www.distancesfrom.com/directions-from-Jog-Falls-to-Manipal-via-Agumbe/DirectionHistory/33475794.aspx",
                "http://www.mouthshut.com/review/Gokarna-review-pqnnpupor",
                "http://www.distancesfrom.com/travel-time-from-Jog-Falls-to-Manipal-via-Agumbe/TravelTimeHistory/33475794.aspx"
            ],
            "locType": "locality"
        },
        "kadri hill": {
            "closest_to": "manipal",
            "address": "Kadri Hills, Mangaluru, Mangaluru taluk, Dakshina Kannada, Karnataka, 575001, India",
            "longitude": "74.860152",
            "latitude": "12.8935998",
            "blogLinks": [
                "http://www.mouthshut.com/review/South-Kanara-review-nlrpnotsnm"
            ],
            "locType": "suburb"
        },
        "mahakali temple": {
            "closest_to": "manipal",
            "address": "Mahakali and Janardhana Temple, Mahakali Marga, Ambalapadi, Udupi, Udupi taluku, Udupi district, Karnataka, 576101, India",
            "longitude": "74.7307174382814",
            "latitude": "13.3371922",
            "blogLinks": [
                "http://www.nivalink.com/destination/manipal"
            ],
            "locType": "place_of_worship"
        },
        "udupi railway station": {
            "closest_to": "manipal",
            "address": "Udupi Railway Station, Railway Godown Road, Indrali, Udupi, Udupi taluku, Udupi district, Karnataka, 576101, India",
            "longitude": "74.7710217",
            "latitude": "13.3360878",
            "blogLinks": [
                "http://travel.india.com/jog-falls/places-to-visit/"
            ],
            "locType": "station"
        },
        "kapu": {
            "closest_to": "manipal",
            "address": "Kapu, Udupi taluku, Udupi district, Karnataka, India",
            "longitude": "74.7470496",
            "latitude": "13.2309688",
            "blogLinks": [
                "http://www.distancesfrom.com/distance-from-jog-falls-to-Manipal/DistanceHistory/431643.aspx",
                "http://ifornature.blogspot.com/2007/02/beautiful-places-near-udupi.html"
            ],
            "locType": "village"
        },
        "udupi district": {
            "closest_to": "manipal",
            "address": "Udupi district, Karnataka, India",
            "longitude": "74.7469037178649",
            "latitude": "13.49007305",
            "blogLinks": [
                "http://ifornature.blogspot.com/2007/02/beautiful-places-near-udupi.html"
            ],
            "locType": "administrative"
        },
        "sahasralinga": {
            "closest_to": "jog falls",
            "address": "Sahasralinga, Shirasi taluk, Uttara Kannada, Karnataka, India",
            "longitude": "74.8077293",
            "latitude": "14.7197633",
            "blogLinks": [
                "https://www.quora.com/What-are-the-best-places-to-visit-in-between-Mangalore-to-Goa-on-a-road-trip",
                "https://www.quora.com/What-are-some-good-places-to-visit-on-the-Goa-Mangalore-route"
            ],
            "locType": "hamlet"
        },
        "sagar": {
            "closest_to": "manipal",
            "address": "Sagara, Sagara taluk, Shimoga district, Karnataka, 577400, India",
            "longitude": "75.0262551",
            "latitude": "14.1666594",
            "blogLinks": [
                "http://www.indiamike.com/india/karnataka-f38/udupi-agumbe-shringeri-murudeshwara-jog-falls-dharmasthala-t137208/"
            ],
            "locType": "town"
        },
        "udupi": {
            "closest_to": "manipal",
            "address": "Udupi, Udupi taluku, Udupi district, Karnataka, 576101, India",
            "longitude": "74.7473232",
            "latitude": "13.3419169",
            "blogLinks": [
                "http://ifornature.blogspot.com/2007/02/beautiful-places-near-udupi.html",
                "http://www.nivalink.com/destination/manipal"
            ],
            "locType": "city"
        },
        "gokarna": {
            "closest_to": "jog falls",
            "address": "Gokarna, Kumata taluk, Uttara Kannada, Karnataka, 581326, India",
            "longitude": "74.3184418",
            "latitude": "14.5439629",
            "blogLinks": [
                "http://www.indiamike.com/india/karnataka-f38/udupi-agumbe-shringeri-murudeshwara-jog-falls-dharmasthala-t137208/",
                "https://www.quora.com/What-are-some-good-places-to-visit-on-the-Goa-Mangalore-route"
            ],
            "locType": "town"
        },
        "kannur": {
            "closest_to": "manipal",
            "address": "Netravati bridge - Kannur Bypass Road (Proposed), Padil, Bajal, Mangaluru taluk, Dakshina Kannada, Karnataka, 575007, India",
            "longitude": "74.8858161",
            "latitude": "12.8487602",
            "blogLinks": [
                "http://www.nivalink.com/destination/manipal"
            ],
            "locType": "construction"
        },
        "moodbidri": {
            "closest_to": "manipal",
            "address": "Corpus Christi Church, Moodbidri, Solapur-Mangalore Highway, Miyyar, Karkala taluk, Udupi district, Karnataka, 574107, India",
            "longitude": "74.9956313829407",
            "latitude": "13.0656537",
            "blogLinks": [
                "http://www.nivalink.com/destination/manipal"
            ],
            "locType": "place_of_worship"
        },
        "honnavar": {
            "closest_to": "jog falls",
            "address": "Honnavar, Honnavara taluku, Uttara Kannada, Karnataka, 581334, India",
            "longitude": "74.4446716",
            "latitude": "14.2810827",
            "blogLinks": [
                "http://pritskulkarni.blogspot.com/2016/09/beautiful-south-goa-and-gigantic-jog.html"
            ],
            "locType": "town"
        },
        "mattu": {
            "closest_to": "manipal",
            "address": "Mattu, Udupi taluku, Udupi district, Karnataka, India",
            "longitude": "74.7382608",
            "latitude": "13.2703387",
            "blogLinks": [
                "http://ifornature.blogspot.com/2007/02/beautiful-places-near-udupi.html"
            ],
            "locType": "village"
        },
        "surathkal": {
            "closest_to": "manipal",
            "address": "Surathkal, SH101, Suratkal, Mangaluru taluk, Dakshina Kannada, Karnataka, 575014, India",
            "longitude": "74.8055181",
            "latitude": "12.9902598",
            "blogLinks": [
                "http://www.mouthshut.com/review/South-Kanara-review-nlrpnotsnm"
            ],
            "locType": "station"
        },
        "linganamakki": {
            "closest_to": "manipal",
            "address": "Linganamakki, Sagara taluk, Shimoga district, Karnataka, India",
            "longitude": "74.8292508",
            "latitude": "14.1731954",
            "blogLinks": [
                "http://travel.india.com/jog-falls/places-to-visit/"
            ],
            "locType": "village"
        },
        "ullal": {
            "closest_to": "manipal",
            "address": "Ullal, Mangaluru taluk, Dakshina Kannada, Karnataka, 574159, India",
            "longitude": "74.8407018",
            "latitude": "12.8201288",
            "blogLinks": [
                "http://www.mouthshut.com/review/South-Kanara-review-nlrpnotsnm"
            ],
            "locType": "town"
        },
        "kundapura": {
            "closest_to": "manipal",
            "address": "Kundapura, \u0c95\u0cc1\u0c82\u0ca6\u0cbe\u0caa\u0cc1\u0cb0 \u0ca4\u0cbe\u0cb2\u0cc2\u0c95\u0cc1, Udupi district, Karnataka, 576200, India",
            "longitude": "74.6915722",
            "latitude": "13.6250993",
            "blogLinks": [
                "http://www.nivalink.com/destination/manipal"
            ],
            "locType": "town"
        },
        "manipal": {
            "closest_to": "manipal",
            "address": "Manipal, Udupi taluku, Udupi district, Karnataka, India",
            "longitude": "74.7870308",
            "latitude": "13.3519723",
            "blogLinks": [
                "http://www.distancesfrom.com/distance-from-Manipal-to-Jog-Falls-India/DistanceHistory/2068775.aspx"
            ],
            "locType": "town"
        },
        "gokarna beach": {
            "closest_to": "jog falls",
            "address": "Gokarna Beach, Gokarna Road, Ganji Gadde, Kumata taluk, Uttara Kannada, Karnataka, 581326, India",
            "longitude": "74.3109489488919",
            "latitude": "14.5516537",
            "blogLinks": [
                "https://www.tripadvisor.in/Attraction_Review-g1156205-d1206548-Reviews-Jog_Falls-Shimoga_Karnataka.html",
                "https://www.quora.com/What-are-some-good-places-to-visit-on-the-Goa-Mangalore-route"
            ],
            "locType": "beach"
        },
        "unchalli falls": {
            "closest_to": "jog falls",
            "address": "\u0c89\u0c82\u0c9a\u0cb3\u0ccd\u0cb3\u0cbf \u0c9c\u0cb2\u0caa\u0cbe\u0ca4, Siddapura taluk, Uttara Kannada, Karnataka, India",
            "longitude": "74.7477592",
            "latitude": "14.4097755",
            "blogLinks": [
                "https://www.quora.com/What-are-the-best-places-to-visit-in-between-Mangalore-to-Goa-on-a-road-trip",
                "https://www.quora.com/What-are-some-good-places-to-visit-on-the-Goa-Mangalore-route"
            ],
            "locType": "waterfall"
        },
        "mangalore airport": {
            "closest_to": "manipal",
            "address": "Mangalore International Airport, Airport Entry Road, Gandhinagar, Kenjar, Mangaluru taluk, Dakshina Kannada, Karnataka, 575015, India",
            "longitude": "74.887492668144",
            "latitude": "12.95518575",
            "blogLinks": [
                "http://www.nivalink.com/destination/manipal"
            ],
            "locType": "aerodrome"
        }
    },
    "jog falls": {
        "place_id": "12596177",
        "osm_id": "1191427856",
        "icon": "https://nominatim.openstreetmap.org/images/mapicons/poi_place_village.p.20.png",
        "osm_type": "node",
        "licence": "Data \u00a9 OpenStreetMap contributors, ODbL 1.0. http://www.openstreetmap.org/copyright",
        "display_name": "Jog Falls, Joga - Kargal, Sagara taluk, Shimoga district, Karnataka, India",
        "type": "locality",
        "lon": "74.8128715",
        "boundingbox": [
            "14.2176106",
            "14.2376106",
            "74.8028715",
            "74.8228715"
        ],
        "importance": 0.66590216462374,
        "lat": "14.2276106",
        "class": "place"
    }
}