{
    "kollur": {
        "place_id": "638186",
        "osm_id": "245625243",
        "icon": "https://nominatim.openstreetmap.org/images/mapicons/poi_place_village.p.20.png",
        "osm_type": "node",
        "licence": "Data \u00a9 OpenStreetMap contributors, ODbL 1.0. http://www.openstreetmap.org/copyright",
        "display_name": "Kollur, \u0c95\u0cc1\u0c82\u0ca6\u0cbe\u0caa\u0cc1\u0cb0 \u0ca4\u0cbe\u0cb2\u0cc2\u0c95\u0cc1, Udupi district, Karnataka, 576220, India",
        "type": "village",
        "lon": "74.8137959",
        "boundingbox": [
            "13.8434049",
            "13.8834049",
            "74.7937959",
            "74.8337959"
        ],
        "importance": 0.475,
        "lat": "13.8634049",
        "class": "place"
    },
    "mentions": {
        "keladi": {
            "closest_to": "jog falls",
            "address": "Keladi, Sagara taluk, Shimoga district, Karnataka, India",
            "longitude": "75.0165753",
            "latitude": "14.2214761",
            "blogLinks": [
                "http://wikitravel.org/en/Shimoga",
                "http://www.nivalink.com/destination/jog-falls"
            ],
            "locType": "village"
        },
        "sagara taluk": {
            "closest_to": "kollur",
            "address": "Sagara taluk, Shimoga district, Karnataka, India",
            "longitude": "74.9610874491152",
            "latitude": "14.09993045",
            "blogLinks": [
                "http://wikitravel.org/en/Shimoga"
            ],
            "locType": "administrative"
        },
        "kundapur": {
            "closest_to": "kollur",
            "address": "United Basel mission church Higher Primary School, Kundapur, Chikkansal Road, Vaderahobali, Kundapura, \u0c95\u0cc1\u0c82\u0ca6\u0cbe\u0caa\u0cc1\u0cb0 \u0ca4\u0cbe\u0cb2\u0cc2\u0c95\u0cc1, Udupi district, Karnataka, 576200, India",
            "longitude": "74.6906749",
            "latitude": "13.6343509",
            "blogLinks": [
                "http://www.team-bhp.com/forum/route-travel-queries/88512-blr-shimoga-jog-falls-kollur-udipi-dsthala-blr.html",
                "http://pritskulkarni.blogspot.com/2016/09/beautiful-south-goa-and-gigantic-jog.html"
            ],
            "locType": "school"
        },
        "talaguppa": {
            "closest_to": "kollur",
            "address": "Talaguppa, Sagara taluk, Shimoga district, Karnataka, 577430, India",
            "longitude": "74.911064",
            "latitude": "14.2148828",
            "blogLinks": [
                "http://wikitravel.org/en/Shimoga"
            ],
            "locType": "town"
        },
        "linganamakki dam": {
            "closest_to": "kollur",
            "address": "Linganamakki Dam, Sagara taluk, Shimoga district, Karnataka, India",
            "longitude": "74.8464623767123",
            "latitude": "14.1758978",
            "blogLinks": [
                "http://travel.india.com/jog-falls/"
            ],
            "locType": "dam"
        },
        "sagara": {
            "closest_to": "jog falls",
            "address": "Sagara, Sagara taluk, Shimoga district, Karnataka, 577400, India",
            "longitude": "75.0262551",
            "latitude": "14.1666594",
            "blogLinks": [
                "https://www.tripadvisor.in/Attraction_Review-g1156205-d1206548-Reviews-Jog_Falls-Shimoga_Karnataka.html",
                "http://www.nivalink.com/destination/jog-falls",
                "https://www.tripoto.com/trip/to-b-alone-on-a-trip-brings-together-a-lot-in-u-56c9f7afb89fe"
            ],
            "locType": "town"
        },
        "kodachadri": {
            "closest_to": "kollur",
            "address": "Kodachadri, \u0c95\u0cc1\u0c82\u0ca6\u0cbe\u0caa\u0cc1\u0cb0 \u0ca4\u0cbe\u0cb2\u0cc2\u0c95\u0cc1, Udupi district, Karnataka, India",
            "longitude": "74.8705395",
            "latitude": "13.8565758",
            "blogLinks": [
                "http://www.bangaloretrips.info/kodachadri"
            ],
            "locType": "peak"
        },
        "sharavati river": {
            "closest_to": "jog falls",
            "address": "Sharavati, Sagara taluk, Shimoga district, Karnataka, India",
            "longitude": "74.7647294",
            "latitude": "14.2360979",
            "blogLinks": [
                "http://myroutemyway.blogspot.com/",
                "http://travel.india.com/jog-falls/"
            ],
            "locType": "river"
        },
        "hosanagara": {
            "closest_to": "kollur",
            "address": "Hosanagara, Hosanagara taluk, Shimoga district, Karnataka, 577418, India",
            "longitude": "75.0657952",
            "latitude": "13.916789",
            "blogLinks": [
                "http://wikitravel.org/en/Shimoga"
            ],
            "locType": "town"
        },
        "kundapura": {
            "closest_to": "kollur",
            "address": "Kundapura, \u0c95\u0cc1\u0c82\u0ca6\u0cbe\u0caa\u0cc1\u0cb0 \u0ca4\u0cbe\u0cb2\u0cc2\u0c95\u0cc1, Udupi district, Karnataka, 576200, India",
            "longitude": "74.6915722",
            "latitude": "13.6250993",
            "blogLinks": [
                "http://www.team-bhp.com/forum/route-travel-queries/88512-blr-shimoga-jog-falls-kollur-udipi-dsthala-blr.html",
                "http://www.nivalink.com/destination/kollur",
                "http://www.nivalink.com/destination/jog-falls"
            ],
            "locType": "town"
        },
        "kollur": {
            "closest_to": "kollur",
            "address": "Kollur, \u0c95\u0cc1\u0c82\u0ca6\u0cbe\u0caa\u0cc1\u0cb0 \u0ca4\u0cbe\u0cb2\u0cc2\u0c95\u0cc1, Udupi district, Karnataka, 576220, India",
            "longitude": "74.8137959",
            "latitude": "13.8634049",
            "blogLinks": [
                "http://www.team-bhp.com/forum/route-travel-queries/88512-blr-shimoga-jog-falls-kollur-udipi-dsthala-blr.html",
                "http://wikitravel.org/en/Shimoga",
                "http://www.holidayiq.com/Kollur-Waterfalls-A-645-11.html"
            ],
            "locType": "village"
        },
        "kolluru": {
            "closest_to": "kollur",
            "address": "Kollur, \u0c95\u0cc1\u0c82\u0ca6\u0cbe\u0caa\u0cc1\u0cb0 \u0ca4\u0cbe\u0cb2\u0cc2\u0c95\u0cc1, Udupi district, Karnataka, 576220, India",
            "longitude": "74.8137959",
            "latitude": "13.8634049",
            "blogLinks": [
                "http://myroutemyway.blogspot.com/"
            ],
            "locType": "village"
        },
        "bhatkal": {
            "closest_to": "kollur",
            "address": "Bhatkal, Bhatkala taluk, Uttara Kannada, Karnataka, 581320, India",
            "longitude": "74.5485295",
            "latitude": "13.9952114",
            "blogLinks": [
                "http://myroutemyway.blogspot.com/",
                "http://travel.india.com/jog-falls/"
            ],
            "locType": "town"
        },
        "jog falls": {
            "closest_to": "kollur",
            "address": "Jog Falls, Joga - Kargal, Sagara taluk, Shimoga district, Karnataka, India",
            "longitude": "74.8128715",
            "latitude": "14.2276106",
            "blogLinks": [
                "https://www.tripadvisor.in/Attraction_Review-g1156205-d1206548-Reviews-Jog_Falls-Shimoga_Karnataka.html",
                "http://travel.india.com/jog-falls/"
            ],
            "locType": "locality"
        },
        "nagara": {
            "closest_to": "kollur",
            "address": "Nagara, Hosanagara taluk, Shimoga district, Karnataka, India",
            "longitude": "75.0328554",
            "latitude": "13.8236828",
            "blogLinks": [
                "http://www.team-bhp.com/forum/route-travel-queries/88512-blr-shimoga-jog-falls-kollur-udipi-dsthala-blr.html",
                "http://wikitravel.org/en/Shimoga"
            ],
            "locType": "village"
        },
        "kodachadri valley": {
            "closest_to": "kollur",
            "address": "Kodachadri, \u0c95\u0cc1\u0c82\u0ca6\u0cbe\u0caa\u0cc1\u0cb0 \u0ca4\u0cbe\u0cb2\u0cc2\u0c95\u0cc1, Udupi district, Karnataka, India",
            "longitude": "74.8705395",
            "latitude": "13.8565758",
            "blogLinks": [
                "http://www.bangaloretrips.info/kodachadri"
            ],
            "locType": "peak"
        },
        "sagar": {
            "closest_to": "jog falls",
            "address": "Sagara, Sagara taluk, Shimoga district, Karnataka, 577400, India",
            "longitude": "75.0262551",
            "latitude": "14.1666594",
            "blogLinks": [
                "http://www.indiamike.com/india/karnataka-f38/udupi-agumbe-shringeri-murudeshwara-jog-falls-dharmasthala-t137208/",
                "http://wikitravel.org/en/Shimoga"
            ],
            "locType": "town"
        },
        "honnavara": {
            "closest_to": "jog falls",
            "address": "Honnavar, Honnavara taluku, Uttara Kannada, Karnataka, 581334, India",
            "longitude": "74.4446716",
            "latitude": "14.2810827",
            "blogLinks": [
                "http://www.karnatakatourism.org/"
            ],
            "locType": "town"
        },
        "honnavar": {
            "closest_to": "jog falls",
            "address": "Honnavar, Honnavara taluku, Uttara Kannada, Karnataka, 581334, India",
            "longitude": "74.4446716",
            "latitude": "14.2810827",
            "blogLinks": [
                "http://pritskulkarni.blogspot.com/2016/09/beautiful-south-goa-and-gigantic-jog.html"
            ],
            "locType": "town"
        },
        "mookambika temple": {
            "closest_to": "kollur",
            "address": "Mukambika Devasthana, NH766C;SH26, Halkal, \u0c95\u0cc1\u0c82\u0ca6\u0cbe\u0caa\u0cc1\u0cb0 \u0ca4\u0cbe\u0cb2\u0cc2\u0c95\u0cc1, Udupi district, Karnataka, 576220, India",
            "longitude": "74.8145296",
            "latitude": "13.8638043",
            "blogLinks": [
                "http://www.nivalink.com/destination/kollur"
            ],
            "locType": "place_of_worship"
        },
        "gudavi": {
            "closest_to": "jog falls",
            "address": "Gudavi, Soraba taluk, Shimoga district, Karnataka, India",
            "longitude": "75.009649",
            "latitude": "14.4400296",
            "blogLinks": [
                "http://www.team-bhp.com/forum/route-travel-queries/88512-blr-shimoga-jog-falls-kollur-udipi-dsthala-blr.html"
            ],
            "locType": "village"
        },
        "sagar taluk": {
            "closest_to": "jog falls",
            "address": "Sagara, Sagara taluk, Shimoga district, Karnataka, 577400, India",
            "longitude": "75.0262551",
            "latitude": "14.1666594",
            "blogLinks": [
                "http://wikitravel.org/en/Shimoga"
            ],
            "locType": "town"
        },
        "sagar town": {
            "closest_to": "jog falls",
            "address": "Sagara, Sagara taluk, Shimoga district, Karnataka, 577400, India",
            "longitude": "75.0262551",
            "latitude": "14.1666594",
            "blogLinks": [
                "http://wikitravel.org/en/Shimoga"
            ],
            "locType": "town"
        },
        "soraba": {
            "closest_to": "jog falls",
            "address": "Soraba, Soraba taluk, Shimoga district, Karnataka, 577429, India",
            "longitude": "75.0921749",
            "latitude": "14.3794806",
            "blogLinks": [
                "http://www.team-bhp.com/forum/route-travel-queries/88512-blr-shimoga-jog-falls-kollur-udipi-dsthala-blr.html",
                "http://wikitravel.org/en/Shimoga"
            ],
            "locType": "village"
        },
        "sharavati": {
            "closest_to": "jog falls",
            "address": "Sharavati, Sagara taluk, Shimoga district, Karnataka, India",
            "longitude": "74.7647294",
            "latitude": "14.2360979",
            "blogLinks": [
                "https://www.tripoto.com/trip/to-b-alone-on-a-trip-brings-together-a-lot-in-u-56c9f7afb89fe"
            ],
            "locType": "river"
        }
    },
    "jog falls": {
        "place_id": "12596177",
        "osm_id": "1191427856",
        "icon": "https://nominatim.openstreetmap.org/images/mapicons/poi_place_village.p.20.png",
        "osm_type": "node",
        "licence": "Data \u00a9 OpenStreetMap contributors, ODbL 1.0. http://www.openstreetmap.org/copyright",
        "display_name": "Jog Falls, Joga - Kargal, Sagara taluk, Shimoga district, Karnataka, India",
        "type": "locality",
        "lon": "74.8128715",
        "boundingbox": [
            "14.2176106",
            "14.2376106",
            "74.8028715",
            "74.8228715"
        ],
        "importance": 0.66590216462374,
        "lat": "14.2276106",
        "class": "place"
    }
}