{
    "mentions": {
        "badami": {
            "closest_to": "jog falls",
            "address": "Badami, Badami taluku, Bagalkote district, Karnataka, 587200, India",
            "longitude": "75.6807865",
            "latitude": "15.9203874",
            "blogLinks": [
                "https://en.wikipedia.org/wiki/Tourism_in_Karnataka"
            ],
            "locType": "town"
        },
        "mastikatte": {
            "closest_to": "jog falls",
            "address": "Mastikatte, Ankola taluk, Uttara Kannada, Karnataka, India",
            "longitude": "74.4604101",
            "latitude": "14.6857168",
            "blogLinks": [
                "https://en.wikipedia.org/wiki/Tourism_in_Karnataka"
            ],
            "locType": "village"
        },
        "coimbatore": {
            "closest_to": "talakadu",
            "address": "Gundlupet - Coimbatore Highway, Bandipur, Gundlupet taluk, Chamarajanagar district, Karnataka, India",
            "longitude": "76.6318246",
            "latitude": "11.6793976",
            "blogLinks": [
                "https://www.tripoto.com/weekend-getaways/from-talakadu",
                "http://www.nivalink.com/destination/talakadu"
            ],
            "locType": "trunk"
        },
        "district bagalkot": {
            "closest_to": "jog falls",
            "address": "District Commissioner's Office, Bagalkot, Navanagara, Bagalakote, Bagalakote taluk, Bagalkote district, Karnataka, India",
            "longitude": "75.6736388363024",
            "latitude": "16.16028195",
            "blogLinks": [
                "https://en.wikipedia.org/wiki/Tourism_in_Karnataka"
            ],
            "locType": "commercial"
        },
        "coastal karnataka": {
            "closest_to": "talakadu",
            "address": "Bharat Petroleum Mangalore Coastal Installation, Baikampady, Mangaluru taluk, Dakshina Kannada, Karnataka, 575014, India",
            "longitude": "74.8137275833157",
            "latitude": "12.96014675",
            "blogLinks": [
                "https://en.wikipedia.org/wiki/Tourism_in_Karnataka",
                "http://www.nivalink.com/destination/jog-falls"
            ],
            "locType": "industrial"
        },
        "dattatreya": {
            "closest_to": "talakadu",
            "address": "Inam Dattatreya Pitha, Chikkamagaluru taluku, Chikkamagaluru district, Karnataka, India",
            "longitude": "75.7539724",
            "latitude": "13.4315216",
            "blogLinks": [
                "https://en.wikipedia.org/wiki/Tourism_in_Karnataka"
            ],
            "locType": "hamlet"
        },
        "krs dam": {
            "closest_to": "talakadu",
            "address": "Krishnaraja Sagara Dam, Srirangapattana taluk, Mandya district, Karnataka, India",
            "longitude": "76.5717084",
            "latitude": "12.4234674",
            "blogLinks": [
                "http://www.mouthshut.com/review/Mysore-review-ptosqttlunm"
            ],
            "locType": "dam"
        },
        "madikeri fort": {
            "closest_to": "talakadu",
            "address": "Madikeri Museum, Fort Internal Road, Madikeri, Madikeri taluku, Kodagu, Karnataka, India",
            "longitude": "75.7392494",
            "latitude": "12.4203606",
            "blogLinks": [
                "https://www.tripoto.com/weekend-getaways/from-talakadu"
            ],
            "locType": "museum"
        },
        "chamarajanagar": {
            "closest_to": "talakadu",
            "address": "Chamarajanagar, Nanjangudu-Chamarajanagar Road, Kadahalli, Chamarajanagara taluk, Chamarajanagar district, Karnataka, 571313, India",
            "longitude": "76.9331345",
            "latitude": "11.9346624",
            "blogLinks": [
                "https://en.wikipedia.org/wiki/Tourism_in_Karnataka"
            ],
            "locType": "station"
        },
        "thirthahalli": {
            "closest_to": "talakadu",
            "address": "Thirthahalli - Udupi Highway, Shivapura, Karkala taluk, Udupi district, Karnataka, India",
            "longitude": "74.9626368",
            "latitude": "13.4265327",
            "blogLinks": [
                "http://www.holidayiq.com/Karnataka-Waterfalls-A-state-13-11-2.html"
            ],
            "locType": "trunk"
        },
        "bellary district": {
            "closest_to": "jog falls",
            "address": "Bellary district, Karnataka, India",
            "longitude": "76.7137978546465",
            "latitude": "15.20597305",
            "blogLinks": [
                "https://en.wikipedia.org/wiki/Tourism_in_Karnataka"
            ],
            "locType": "administrative"
        },
        "anshi national park": {
            "closest_to": "jog falls",
            "address": "Anshi National Park, SH46, Bidoli, Joida taluk, Uttara Kannada, Karnataka, India",
            "longitude": "74.3934408094182",
            "latitude": "14.9994424",
            "blogLinks": [
                "https://en.wikipedia.org/wiki/Tourism_in_Karnataka"
            ],
            "locType": "national_park"
        },
        "south": {
            "closest_to": "talakadu",
            "address": "s, Vijayapura, Devanahalli taluk, Bangalore Rural, Karnataka, 562135, India",
            "longitude": "77.8040874",
            "latitude": "13.2942848",
            "blogLinks": [
                "https://en.wikipedia.org/wiki/Tourism_in_Karnataka",
                "http://www.nivalink.com/destination/jog-falls"
            ],
            "locType": "residential"
        },
        "jog-falls": {
            "closest_to": "jog falls",
            "address": "Jog Falls, Joga - Kargal, Sagara taluk, Shimoga district, Karnataka, India",
            "longitude": "74.8128715",
            "latitude": "14.2276106",
            "blogLinks": [
                "http://www.holidayiq.com/Karnataka-Waterfalls-A-state-13-11-2.html"
            ],
            "locType": "locality"
        },
        "amboli": {
            "closest_to": "jog falls",
            "address": "Amboli, Khanapura taluku, Belgaum district, Karnataka, India",
            "longitude": "74.4340839",
            "latitude": "15.6456171",
            "blogLinks": [
                "http://pritskulkarni.blogspot.com/2016/09/beautiful-south-goa-and-gigantic-jog.html"
            ],
            "locType": "village"
        },
        "koppal": {
            "closest_to": "jog falls",
            "address": "Koppala, Koppala taluku, Koppal district, Karnataka, 583231, India",
            "longitude": "76.1547421",
            "latitude": "15.3484144",
            "blogLinks": [
                "https://en.wikipedia.org/wiki/Tourism_in_Karnataka"
            ],
            "locType": "town"
        },
        "shimoga": {
            "closest_to": "talakadu",
            "address": "Shivamogga, Shivamogga taluku, Shimoga district, Karnataka, 577200, India",
            "longitude": "75.569737",
            "latitude": "13.9311723",
            "blogLinks": [
                "https://en.wikipedia.org/wiki/Tourism_in_Karnataka"
            ],
            "locType": "city"
        },
        "rain-tree": {
            "closest_to": "talakadu",
            "address": "Rain Tree, 3rd Main Road, Defence Colony, Hoysala Nagar, Bengaluru, Bangalore Urban, Karnataka, 560001, India",
            "longitude": "77.6414765",
            "latitude": "12.9757365",
            "blogLinks": [
                "https://www.tripoto.com/weekend-getaways/from-talakadu"
            ],
            "locType": "tree"
        },
        "hampi": {
            "closest_to": "jog falls",
            "address": "Hampe, Hosapete taluk, Bellary district, Karnataka, 583239, India",
            "longitude": "76.4606199",
            "latitude": "15.3359769",
            "blogLinks": [
                "https://en.wikipedia.org/wiki/Tourism_in_Karnataka"
            ],
            "locType": "village"
        },
        "hassan district": {
            "closest_to": "talakadu",
            "address": "Hassan district, Karnataka, India",
            "longitude": "76.1745460751981",
            "latitude": "13.0315068",
            "blogLinks": [
                "https://en.wikipedia.org/wiki/Tourism_in_Karnataka"
            ],
            "locType": "administrative"
        },
        "bhatkal": {
            "closest_to": "jog falls",
            "address": "Bhatkal, Bhatkala taluk, Uttara Kannada, Karnataka, 581320, India",
            "longitude": "74.5485295",
            "latitude": "13.9952114",
            "blogLinks": [
                "https://en.wikipedia.org/wiki/Tourism_in_Karnataka"
            ],
            "locType": "town"
        },
        "bagalkot district": {
            "closest_to": "jog falls",
            "address": "Bagalakote, Bagalakote taluk, Bagalkote district, Karnataka, India",
            "longitude": "75.6967919",
            "latitude": "16.1853166",
            "blogLinks": [
                "https://en.wikipedia.org/wiki/Tourism_in_Karnataka"
            ],
            "locType": "city"
        },
        "sakaleshapura": {
            "closest_to": "talakadu",
            "address": "Sakaleshapura taluk, Hassan district, Karnataka, India",
            "longitude": "75.7266693539484",
            "latitude": "12.8549792",
            "blogLinks": [
                "http://travel.paintedstork.com/blog/2005/10/riverside-picnic-places-around.html"
            ],
            "locType": "administrative"
        },
        "karkala": {
            "closest_to": "talakadu",
            "address": "Karkala, Karkala taluk, Udupi district, Karnataka, 574104, India",
            "longitude": "74.9959586",
            "latitude": "13.2112826",
            "blogLinks": [
                "https://en.wikipedia.org/wiki/Tourism_in_Karnataka"
            ],
            "locType": "town"
        },
        "bijapur": {
            "closest_to": "jog falls",
            "address": "Vijayapura, Vijayapura taluk, Bijapur district, Karnataka, 586101, India",
            "longitude": "75.7175387",
            "latitude": "16.8269911",
            "blogLinks": [
                "https://en.wikipedia.org/wiki/Tourism_in_Karnataka"
            ],
            "locType": "city"
        },
        "kalaseshwara temple": {
            "closest_to": "talakadu",
            "address": "Kalaseshwara Temple, SH66, Kalasa, Mudigere taluk, Chikkamagaluru district, Karnataka, 577124, India",
            "longitude": "75.363446975",
            "latitude": "13.23228505",
            "blogLinks": [
                "http://www.nivalink.com/destination/talakadu"
            ],
            "locType": "place_of_worship"
        },
        "uttara kannada": {
            "closest_to": "jog falls",
            "address": "Uttara Kannada, Karnataka, India",
            "longitude": "74.4729163045979",
            "latitude": "14.6726379",
            "blogLinks": [
                "https://en.wikipedia.org/wiki/Tourism_in_Karnataka"
            ],
            "locType": "administrative"
        },
        "kabini river": {
            "closest_to": "talakadu",
            "address": "Kabini right bank canal, Nanjanagudu taluk, Mysuru district, Karnataka, India",
            "longitude": "76.6477184",
            "latitude": "12.0780998",
            "blogLinks": [
                "https://en.wikipedia.org/wiki/Tourism_in_Karnataka"
            ],
            "locType": "canal"
        },
        "gangavali river": {
            "closest_to": "jog falls",
            "address": "Gangavali, Khanapura taluku, Belgaum district, Karnataka, India",
            "longitude": "74.5079019",
            "latitude": "15.5985139",
            "blogLinks": [
                "http://www.holidayiq.com/Karnataka-Waterfalls-A-state-13-11-2.html"
            ],
            "locType": "village"
        },
        "ranebennur": {
            "closest_to": "talakadu",
            "address": "Ranebennur, Ranebennuru taluk, Haveri district, Karnataka, 581115, India",
            "longitude": "75.6341529",
            "latitude": "14.6165795",
            "blogLinks": [
                "http://www.indiatrekkingtrails.com/2009_12_01_archive.html",
                "http://travel.goudar.com/2011/04/ranebennur-karnataka-india-with-photos.html"
            ],
            "locType": "town"
        },
        "gotagodi village": {
            "closest_to": "jog falls",
            "address": "Gotagodi, Hanagal taluk, Haveri district, Karnataka, India",
            "longitude": "75.0452834",
            "latitude": "14.7634556",
            "blogLinks": [
                "https://en.wikipedia.org/wiki/Tourism_in_Karnataka"
            ],
            "locType": "village"
        },
        "varadaraja": {
            "closest_to": "talakadu",
            "address": "Varadaraja Petrol / Gas Station, Dr. Rajkumar Road, Rajajinagar 1st Block, Subrahmanya Nagar, Bengaluru, Bangalore Urban, Karnataka, 560001, India",
            "longitude": "77.5542736",
            "latitude": "13.005885",
            "blogLinks": [
                "https://en.wikipedia.org/wiki/Tourism_in_Karnataka"
            ],
            "locType": "fuel"
        },
        "brindavan gardens": {
            "closest_to": "talakadu",
            "address": "Brindavan Gardens, Krishnaraja Sagara Road, Krushnarajasagara, Srirangapattana taluk, Mandya district, Karnataka, India",
            "longitude": "76.5741029405883",
            "latitude": "12.4208084",
            "blogLinks": [
                "http://travel.paintedstork.com/blog/2005/10/riverside-picnic-places-around.html"
            ],
            "locType": "garden"
        },
        "beluru": {
            "closest_to": "talakadu",
            "address": "Belur, Beluru taluk, Hassan district, Karnataka, 573115, India",
            "longitude": "75.8634851",
            "latitude": "13.1645671",
            "blogLinks": [
                "https://en.wikipedia.org/wiki/Tourism_in_Karnataka"
            ],
            "locType": "town"
        },
        "belgaum": {
            "closest_to": "jog falls",
            "address": "Belgaum, Belgaum district, Karnataka, India",
            "longitude": "74.75",
            "latitude": "16.333333",
            "blogLinks": [
                "https://en.wikipedia.org/wiki/Tourism_in_Karnataka"
            ],
            "locType": "county"
        },
        "mysore": {
            "closest_to": "talakadu",
            "address": "Mysuru, Mysuru taluk, Mysuru district, Karnataka, 570001, India",
            "longitude": "76.6553609",
            "latitude": "12.3051828",
            "blogLinks": [
                "http://www.nivalink.com/destination/talakadu",
                "http://www.holidayiq.com/Karnataka-Waterfalls-A-state-13-11-2.html"
            ],
            "locType": "city"
        },
        "netrani island of uttara kannada": {
            "closest_to": "jog falls",
            "address": "Netrani, Uttara Kannada, Karnataka, India",
            "longitude": "74.3272086675849",
            "latitude": "14.0174924",
            "blogLinks": [
                "https://en.wikipedia.org/wiki/Tourism_in_Karnataka"
            ],
            "locType": "island"
        },
        "maharashtra": {
            "closest_to": "talakadu",
            "address": "Bank of Maharashtra, 24th Main, K R Layout, Puttenahalli, Bengaluru, Bangalore Urban, Karnataka, 560001, India",
            "longitude": "77.5856013",
            "latitude": "12.9049455",
            "blogLinks": [
                "https://en.wikipedia.org/wiki/Tourism_in_Karnataka"
            ],
            "locType": "bank"
        },
        "river tungabhadra": {
            "closest_to": "jog falls",
            "address": "Tungabhadra, Gangavati taluku, Koppal district, Karnataka, India",
            "longitude": "76.4931607",
            "latitude": "15.3446123",
            "blogLinks": [
                "http://travel.goudar.com/2011/04/ranebennur-karnataka-india-with-photos.html"
            ],
            "locType": "river"
        },
        "malpe": {
            "closest_to": "talakadu",
            "address": "Malpe, Udupi taluku, Udupi district, Karnataka, India",
            "longitude": "74.7036914",
            "latitude": "13.3507423",
            "blogLinks": [
                "https://en.wikipedia.org/wiki/Tourism_in_Karnataka"
            ],
            "locType": "village"
        },
        "sharavati river": {
            "closest_to": "jog falls",
            "address": "Sharavati, Sagara taluk, Shimoga district, Karnataka, India",
            "longitude": "74.7647294",
            "latitude": "14.2360979",
            "blogLinks": [
                "http://travel.india.com/jog-falls/",
                "http://www.holidayiq.com/Karnataka-Waterfalls-A-state-13-11-2.html"
            ],
            "locType": "river"
        },
        "bandipur national park": {
            "closest_to": "talakadu",
            "address": "Bandipur National Park, Kozhikode - Kollegal Highway, Gundlupet taluk, Chamarajanagar district, Karnataka, India",
            "longitude": "76.4314968740264",
            "latitude": "11.76682425",
            "blogLinks": [
                "https://en.wikipedia.org/wiki/Tourism_in_Karnataka",
                "http://travel.paintedstork.com/blog/2005/10/riverside-picnic-places-around.html"
            ],
            "locType": "national_park"
        },
        "kemmangundi": {
            "closest_to": "talakadu",
            "address": "Kemmannagundi, Tarikere taluku, Chikkamagaluru district, Karnataka, India",
            "longitude": "75.7520082",
            "latitude": "13.5463048",
            "blogLinks": [
                "https://en.wikipedia.org/wiki/Tourism_in_Karnataka",
                "http://www.holidayiq.com/Karnataka-Waterfalls-A-state-13-11-2.html"
            ],
            "locType": "village"
        },
        "ooty lake": {
            "closest_to": "talakadu",
            "address": "Ooty Road, Vidyaranyapuram, Mysuru, Mysuru taluk, Mysuru district, Karnataka, 570001, India",
            "longitude": "76.6586807",
            "latitude": "12.2774807",
            "blogLinks": [
                "https://www.tripoto.com/weekend-getaways/from-talakadu"
            ],
            "locType": "primary"
        },
        "kollegala": {
            "closest_to": "talakadu",
            "address": "Kollegal, Kollegala taluk, Chamarajanagar district, Karnataka, 571440, India",
            "longitude": "77.1114856",
            "latitude": "12.1548275",
            "blogLinks": [
                "http://wikitravel.org/en/Shivanasamudram"
            ],
            "locType": "town"
        },
        "shivanasamudra": {
            "closest_to": "talakadu",
            "address": "Shivanasamudra, Kollegala taluk, Chamarajanagar district, Karnataka, India",
            "longitude": "77.1703215",
            "latitude": "12.2719056",
            "blogLinks": [
                "https://en.wikipedia.org/wiki/Tourism_in_Karnataka"
            ],
            "locType": "village"
        },
        "koppal district": {
            "closest_to": "jog falls",
            "address": "Koppal district, Karnataka, India",
            "longitude": "76.310639117029",
            "latitude": "15.57825725",
            "blogLinks": [
                "https://en.wikipedia.org/wiki/Tourism_in_Karnataka"
            ],
            "locType": "administrative"
        },
        "vaidyanatheshwara temple": {
            "closest_to": "talakadu",
            "address": "Vaidyanatheshwara Temple, SH84, Thotasagara, Gubbi taluk, Tumkur district, Karnataka, India",
            "longitude": "77.0024284",
            "latitude": "13.2703825",
            "blogLinks": [
                "https://www.tripoto.com/weekend-getaways/from-talakadu",
                "https://www.tripoto.com/travel-guide/karnataka/trips"
            ],
            "locType": "place_of_worship"
        },
        "bandipur": {
            "closest_to": "talakadu",
            "address": "Bandipur, Gundlupet taluk, Chamarajanagar district, Karnataka, India",
            "longitude": "76.6285739",
            "latitude": "11.6662708",
            "blogLinks": [
                "http://www.indiamike.com/india/karnataka-f38/places-to-go-in-south-karnataka-t102701/",
                "https://en.wikipedia.org/wiki/Tourism_in_Karnataka"
            ],
            "locType": "village"
        },
        "kalyani": {
            "closest_to": "talakadu",
            "address": "Kalyani, Neeladri Road, Electronics City Phase 1, Bettadasana Pura, Bangalore Urban, Karnataka, 560100, India",
            "longitude": "77.6286090192686",
            "latitude": "12.8406466",
            "blogLinks": [
                "https://en.wikipedia.org/wiki/Tourism_in_Karnataka"
            ],
            "locType": "water"
        },
        "shimoga district of karnataka": {
            "closest_to": "talakadu",
            "address": "Shimoga district, Karnataka, India",
            "longitude": "75.1312533993886",
            "latitude": "14.0558284",
            "blogLinks": [
                "http://www.holidayiq.com/Shimoga-Sightseeing-748.html"
            ],
            "locType": "administrative"
        },
        "sagara taluk": {
            "closest_to": "talakadu",
            "address": "Sagara taluk, Shimoga district, Karnataka, India",
            "longitude": "74.9610874491152",
            "latitude": "14.09993045",
            "blogLinks": [
                "https://en.wikipedia.org/wiki/Tourism_in_Karnataka"
            ],
            "locType": "administrative"
        },
        "kannur": {
            "closest_to": "talakadu",
            "address": "Netravati bridge - Kannur Bypass Road (Proposed), Padil, Bajal, Mangaluru taluk, Dakshina Kannada, Karnataka, 575007, India",
            "longitude": "74.8858161",
            "latitude": "12.8487602",
            "blogLinks": [
                "https://www.tripoto.com/weekend-getaways/from-talakadu"
            ],
            "locType": "construction"
        },
        "madgaon": {
            "closest_to": "jog falls",
            "address": "Karnataka bank, NH66, Aquem, Fatorda, Margao, South Goa, Goa, 403600, India",
            "longitude": "73.9583411",
            "latitude": "15.2740083",
            "blogLinks": [
                "http://pritskulkarni.blogspot.com/2016/09/beautiful-south-goa-and-gigantic-jog.html"
            ],
            "locType": "bank"
        },
        "honnavar": {
            "closest_to": "jog falls",
            "address": "Honnavar, Honnavara taluku, Uttara Kannada, Karnataka, 581334, India",
            "longitude": "74.4446716",
            "latitude": "14.2810827",
            "blogLinks": [
                "http://pritskulkarni.blogspot.com/2016/09/beautiful-south-goa-and-gigantic-jog.html"
            ],
            "locType": "town"
        },
        "banavasi": {
            "closest_to": "jog falls",
            "address": "Banavasi, Shirasi taluk, Uttara Kannada, Karnataka, India",
            "longitude": "75.0129845",
            "latitude": "14.5389738",
            "blogLinks": [
                "https://en.wikipedia.org/wiki/Tourism_in_Karnataka"
            ],
            "locType": "town"
        },
        "nilgiris": {
            "closest_to": "talakadu",
            "address": "Nilgiris, Brigade Road, Tasker Town, Ashok Nagar, Bengaluru, Bangalore Urban, Karnataka, 560001, India",
            "longitude": "77.6069792",
            "latitude": "12.9725052",
            "blogLinks": [
                "https://www.tripoto.com/weekend-getaways/from-talakadu",
                "https://en.wikipedia.org/wiki/Tourism_in_Karnataka"
            ],
            "locType": "supermarket"
        },
        "chelavara falls": {
            "closest_to": "talakadu",
            "address": "Chelavara Falls, Madikeri taluku, Kodagu, Karnataka, India",
            "longitude": "75.6734811730693",
            "latitude": "12.20601005",
            "blogLinks": [
                "http://www.holidayiq.com/Karnataka-Waterfalls-A-state-13-11-2.html"
            ],
            "locType": "waterfall"
        },
        "chalukya": {
            "closest_to": "talakadu",
            "address": "Chalukya Nagar, Chandra Layout, GKW Layout, Bangalore Urban, Karnataka, 560072, India",
            "longitude": "77.5192989605445",
            "latitude": "12.9617207",
            "blogLinks": [
                "https://en.wikipedia.org/wiki/Tourism_in_Karnataka"
            ],
            "locType": "residential"
        },
        "kalasa": {
            "closest_to": "talakadu",
            "address": "Kalasa, Mudigere taluk, Chikkamagaluru district, Karnataka, 577124, India",
            "longitude": "75.3582366",
            "latitude": "13.2322235",
            "blogLinks": [
                "https://en.wikipedia.org/wiki/Tourism_in_Karnataka"
            ],
            "locType": "town"
        },
        "sharavathi river": {
            "closest_to": "talakadu",
            "address": "Sharavathi Block, National Games Village Road, Ambedkar Nagar, Ejipura, Bengaluru, Bangalore Urban, Karnataka, 560001, India",
            "longitude": "77.6216184337102",
            "latitude": "12.9464709",
            "blogLinks": [
                "http://pritskulkarni.blogspot.com/2016/09/beautiful-south-goa-and-gigantic-jog.html",
                "http://www.nivalink.com/destination/jog-falls",
                "http://travel.india.com/jog-falls/"
            ],
            "locType": "yes"
        },
        "gadag": {
            "closest_to": "jog falls",
            "address": "Gadag, Gadag taluk, Gadag district, Karnataka, 582101, India",
            "longitude": "75.6300786",
            "latitude": "15.4263647",
            "blogLinks": [
                "https://en.wikipedia.org/wiki/Tourism_in_Karnataka"
            ],
            "locType": "town"
        },
        "talakadu": {
            "closest_to": "talakadu",
            "address": "Talakadu, Tirumakudalu Narasipura taluk, Mysuru district, Karnataka, India",
            "longitude": "77.0293979",
            "latitude": "12.1919942",
            "blogLinks": [
                "http://www.nivalink.com/destination/talakadu",
                "http://www.mouthshut.com/review/Mysore-review-ptosqttlunm"
            ],
            "locType": "village"
        },
        "south karnataka": {
            "closest_to": "talakadu",
            "address": "s, Vijayapura, Devanahalli taluk, Bangalore Rural, Karnataka, 562135, India",
            "longitude": "77.8040874",
            "latitude": "13.2942848",
            "blogLinks": [
                "https://en.wikipedia.org/wiki/Tourism_in_Karnataka"
            ],
            "locType": "residential"
        },
        "madikeri": {
            "closest_to": "talakadu",
            "address": "Madikeri, Madikeri taluku, Kodagu, Karnataka, India",
            "longitude": "75.740031",
            "latitude": "12.4204003",
            "blogLinks": [
                "http://www.holidayiq.com/Karnataka-Waterfalls-A-state-13-11-2.html"
            ],
            "locType": "town"
        },
        "kaveri": {
            "closest_to": "talakadu",
            "address": "Kaveri, Kollegala taluk, Chamarajanagar district, Karnataka, India",
            "longitude": "77.0635531",
            "latitude": "12.1687878",
            "blogLinks": [
                "http://www.indiamike.com/india/karnataka-f38/places-to-go-in-south-karnataka-t102701/",
                "https://en.wikipedia.org/wiki/Tourism_in_Karnataka",
                "https://www.tripoto.com/trip/karnataka-one-state-many-worlds-2-565ed43147a04",
                "http://www.krishnababug.com/2009/04/trip-to-talakad-somanathpura.html"
            ],
            "locType": "river"
        },
        "nanjangud": {
            "closest_to": "talakadu",
            "address": "Nanjangud, Nanjanagudu Bypass, Hejjige, Nanjanagudu taluk, Mysuru district, Karnataka, 571300, India",
            "longitude": "76.683164",
            "latitude": "12.1229725",
            "blogLinks": [
                "http://www.indiamike.com/india/karnataka-f38/places-to-go-in-south-karnataka-t102701/",
                "http://www.mouthshut.com/review/Mysore-review-ptosqttlunm"
            ],
            "locType": "station"
        },
        "kanakpura road": {
            "closest_to": "talakadu",
            "address": "H 902, Mantri Tranquil, Gubbalala, Off Kanakpura Road, Bengaluru - 61, Subramanyapura Main Road, Singapore Gardens, Uttarahalli, Gubbalala, Bangalore Urban, Karnataka, 560086, India",
            "longitude": "77.5438085908703",
            "latitude": "12.8866679",
            "blogLinks": [
                "https://www.tripoto.com/weekend-getaways/from-talakadu",
                "http://wikitravel.org/en/Shivanasamudram"
            ],
            "locType": "yes"
        },
        "udipi": {
            "closest_to": "talakadu",
            "address": "Udipi Park, 2nd Cross Road, Muniyappa Layout, Murugeshpalaya, Belure Ambedkar Nagar, Bangalore Urban, Karnataka, 560067, India",
            "longitude": "77.652888",
            "latitude": "12.9530588",
            "blogLinks": [
                "http://www.nivalink.com/destination/jog-falls"
            ],
            "locType": "restaurant"
        },
        "river tunga": {
            "closest_to": "talakadu",
            "address": "Tunga, Tirthahalli taluk, Shimoga district, Karnataka, India",
            "longitude": "75.3221835",
            "latitude": "13.6632221",
            "blogLinks": [
                "http://www.holidayiq.com/Shimoga-Sightseeing-748.html"
            ],
            "locType": "river"
        },
        "sagara": {
            "closest_to": "talakadu",
            "address": "Sagara, Sagara taluk, Shimoga district, Karnataka, 577400, India",
            "longitude": "75.0262551",
            "latitude": "14.1666594",
            "blogLinks": [
                "https://en.wikipedia.org/wiki/Tourism_in_Karnataka",
                "http://www.holidayiq.com/Shimoga-Sightseeing-748.html",
                "http://www.nivalink.com/destination/jog-falls"
            ],
            "locType": "town"
        },
        "aihole": {
            "closest_to": "jog falls",
            "address": "Aihole, Hunagunda taluku, Bagalkote district, Karnataka, India",
            "longitude": "75.8819129",
            "latitude": "16.0192298",
            "blogLinks": [
                "https://en.wikipedia.org/wiki/Tourism_in_Karnataka"
            ],
            "locType": "village"
        },
        "sangama": {
            "closest_to": "talakadu",
            "address": "Sangam, SH92, Mahalli, Kanakapura taluk, Ramanagara district, Karnataka, India",
            "longitude": "77.4320447",
            "latitude": "12.2880428",
            "blogLinks": [
                "http://wikitravel.org/en/Shivanasamudram"
            ],
            "locType": "attraction"
        },
        "chikmagalur district": {
            "closest_to": "talakadu",
            "address": "Chikmagalur, Chikkamagaluru district, Karnataka, India",
            "longitude": "75.5",
            "latitude": "13.5",
            "blogLinks": [
                "https://en.wikipedia.org/wiki/Tourism_in_Karnataka"
            ],
            "locType": "county"
        },
        "bidadi": {
            "closest_to": "talakadu",
            "address": "Bidadi, Ramanagara taluk, Ramanagara district, Karnataka, India",
            "longitude": "77.3869947",
            "latitude": "12.7988507",
            "blogLinks": [
                "http://www.mouthshut.com/review/Mysore-review-ptosqttlunm"
            ],
            "locType": "town"
        },
        "bangalore": {
            "closest_to": "talakadu",
            "address": "Bengaluru, Bangalore Urban, Karnataka, 560001, India",
            "longitude": "77.5912997",
            "latitude": "12.9791198",
            "blogLinks": [
                "https://www.tripoto.com/weekend-getaways/from-talakadu",
                "http://travel.india.com/jog-falls/",
                "https://en.wikipedia.org/wiki/Tourism_in_Karnataka",
                "http://www.nivalink.com/destination/talakadu",
                "http://travel.paintedstork.com/blog/2005/10/riverside-picnic-places-around.html",
                "http://www.krishnababug.com/2009/04/trip-to-talakad-somanathpura.html",
                "http://www.indiatrekkingtrails.com/2009_12_01_archive.html",
                "http://www.nivalink.com/destination/jog-falls",
                "http://wikitravel.org/en/Shivanasamudram"
            ],
            "locType": "city"
        },
        "ghataprabha river": {
            "closest_to": "jog falls",
            "address": "Ghataprabha, Gokak taluku, Belgaum district, Karnataka, India",
            "longitude": "74.9165235",
            "latitude": "16.2124344",
            "blogLinks": [
                "https://en.wikipedia.org/wiki/Tourism_in_Karnataka"
            ],
            "locType": "river"
        },
        "kuknur": {
            "closest_to": "jog falls",
            "address": "Kukanura, Yelaburga taluku, Koppal district, Karnataka, 583232, India",
            "longitude": "75.9934934",
            "latitude": "15.4902753",
            "blogLinks": [
                "https://en.wikipedia.org/wiki/Tourism_in_Karnataka"
            ],
            "locType": "village"
        },
        "kudremukh national park": {
            "closest_to": "talakadu",
            "address": "Kudremukh National Park, SH66, Sringeri taluku, Chikkamagaluru district, Karnataka, India",
            "longitude": "75.1828713712862",
            "latitude": "13.25397485",
            "blogLinks": [
                "https://en.wikipedia.org/wiki/Tourism_in_Karnataka"
            ],
            "locType": "national_park"
        },
        "nethrani island": {
            "closest_to": "jog falls",
            "address": "Netrani, Uttara Kannada, Karnataka, India",
            "longitude": "74.3272086675849",
            "latitude": "14.0174924",
            "blogLinks": [
                "https://en.wikipedia.org/wiki/Tourism_in_Karnataka"
            ],
            "locType": "island"
        },
        "bengaluru": {
            "closest_to": "talakadu",
            "address": "Bengaluru, Bangalore Urban, Karnataka, 560001, India",
            "longitude": "77.5912997",
            "latitude": "12.9791198",
            "blogLinks": [
                "https://www.tripoto.com/weekend-getaways/from-talakadu"
            ],
            "locType": "city"
        },
        "cauvery river": {
            "closest_to": "talakadu",
            "address": "Temple Trees Rd, Cauvery Colony, ST Bed Layout, Koramangala, Bengaluru, Bangalore Urban, Karnataka, 560001, India",
            "longitude": "77.635647",
            "latitude": "12.9327668",
            "blogLinks": [
                "http://www.holidayiq.com/Karnataka-Waterfalls-A-state-13-11-2.html"
            ],
            "locType": "unclassified"
        },
        "north kerala": {
            "closest_to": "talakadu",
            "address": "New Life Kerala Mess, Sai Baba Mandira Road, Mottappanapalaya, Indiranagar, Bengaluru, Bangalore Urban, Karnataka, 560001, India",
            "longitude": "77.6382683",
            "latitude": "12.9726449",
            "blogLinks": [
                "http://www.nivalink.com/destination/talakadu"
            ],
            "locType": "restaurant"
        },
        "north karnataka": {
            "closest_to": "talakadu",
            "address": "N, Chaithanya Samarpan, Kadugodi, Kannamangala, Bangalore Urban, Karnataka, 560066, India",
            "longitude": "77.7660547",
            "latitude": "13.0217151",
            "blogLinks": [
                "https://en.wikipedia.org/wiki/Tourism_in_Karnataka"
            ],
            "locType": "service"
        },
        "dhaba": {
            "closest_to": "talakadu",
            "address": "The Dhaba, Outer Ring Road, Ananda Nagara, Doddanekundi, Garudacharpalya, Bangalore Urban, Karnataka, 560001, India",
            "longitude": "77.7017287",
            "latitude": "12.965205",
            "blogLinks": [
                "http://pritskulkarni.blogspot.com/2016/09/beautiful-south-goa-and-gigantic-jog.html",
                "http://www.indiatrekkingtrails.com/2009_12_01_archive.html"
            ],
            "locType": "restaurant"
        },
        "lal bagh": {
            "closest_to": "talakadu",
            "address": "Lal Bagh Bus Stop, Mahatma Gandhi Road, Lalbagh, Ladyhill, Mangaluru, Mangaluru taluk, Dakshina Kannada, Karnataka, 575001, India",
            "longitude": "74.8386152",
            "latitude": "12.8859223",
            "blogLinks": [
                "https://www.tripoto.com/weekend-getaways/from-talakadu"
            ],
            "locType": "bus_stop"
        },
        "haveri district": {
            "closest_to": "jog falls",
            "address": "Haveri district, Karnataka, India",
            "longitude": "75.3845674304742",
            "latitude": "14.714635",
            "blogLinks": [
                "https://en.wikipedia.org/wiki/Tourism_in_Karnataka"
            ],
            "locType": "administrative"
        },
        "gudavi": {
            "closest_to": "jog falls",
            "address": "Gudavi, Soraba taluk, Shimoga district, Karnataka, India",
            "longitude": "75.009649",
            "latitude": "14.4400296",
            "blogLinks": [
                "https://en.wikipedia.org/wiki/Tourism_in_Karnataka"
            ],
            "locType": "village"
        },
        "ooty": {
            "closest_to": "talakadu",
            "address": "Ooty Road, Vidyaranyapuram, Mysuru, Mysuru taluk, Mysuru district, Karnataka, 570001, India",
            "longitude": "76.6586807",
            "latitude": "12.2774807",
            "blogLinks": [
                "https://www.tripoto.com/weekend-getaways/from-talakadu",
                "http://www.indiamike.com/india/karnataka-f38/places-to-go-in-south-karnataka-t102701/",
                "http://www.nivalink.com/destination/talakadu"
            ],
            "locType": "primary"
        },
        "nandi hills": {
            "closest_to": "talakadu",
            "address": "Nandi Upahara, Nandhi Hills Road, Kottige Thimmanahalli, Devanahalli taluk, Bangalore Rural, Karnataka, India",
            "longitude": "77.7194741670394",
            "latitude": "13.268142",
            "blogLinks": [
                "http://travel.paintedstork.com/blog/2005/10/riverside-picnic-places-around.html"
            ],
            "locType": "hotel"
        },
        "hassan": {
            "closest_to": "talakadu",
            "address": "Hassan, Hasana taluk, Hassan district, Karnataka, 573201, India",
            "longitude": "76.0992703",
            "latitude": "13.0070817",
            "blogLinks": [
                "https://en.wikipedia.org/wiki/Tourism_in_Karnataka"
            ],
            "locType": "town"
        },
        "river sharavathi": {
            "closest_to": "talakadu",
            "address": "Vrishabavathi, Bengaluru, Bangalore Urban, Karnataka, 560001, India",
            "longitude": "77.5476521",
            "latitude": "12.967526",
            "blogLinks": [
                "http://www.holidayiq.com/Karnataka-Waterfalls-A-state-13-11-2.html"
            ],
            "locType": "river"
        },
        "madurai": {
            "closest_to": "talakadu",
            "address": "Madurai Idly Shop, 5th Main Road, Teachers Colony, HSR Layout, Bengaluru, Bangalore Urban, Karnataka, 560001, India",
            "longitude": "77.6320535",
            "latitude": "12.9185419",
            "blogLinks": [
                "https://www.tripoto.com/weekend-getaways/from-talakadu",
                "http://www.indiamike.com/india/karnataka-f38/places-to-go-in-south-karnataka-t102701/"
            ],
            "locType": "restaurant"
        },
        "kaveri river": {
            "closest_to": "talakadu",
            "address": "Kaveri, Malavalli taluk, Mandya district, Karnataka, India",
            "longitude": "77.1600751",
            "latitude": "12.2873835",
            "blogLinks": [
                "http://www.holidayiq.com/Karnataka-Waterfalls-A-state-13-11-2.html"
            ],
            "locType": "river"
        },
        "mercara": {
            "closest_to": "talakadu",
            "address": "Madikeri, Madikeri taluku, Kodagu, Karnataka, India",
            "longitude": "75.740031",
            "latitude": "12.4204003",
            "blogLinks": [
                "https://en.wikipedia.org/wiki/Tourism_in_Karnataka"
            ],
            "locType": "town"
        },
        "sirigere": {
            "closest_to": "talakadu",
            "address": "Sirigere, Chitradurga taluku, Chitradurga district, Karnataka, India",
            "longitude": "76.2051907",
            "latitude": "14.2840739",
            "blogLinks": [
                "https://en.wikipedia.org/wiki/Tourism_in_Karnataka"
            ],
            "locType": "village"
        },
        "bagalkote": {
            "closest_to": "jog falls",
            "address": "Bagalkote district, Karnataka, India",
            "longitude": "75.5825586777167",
            "latitude": "16.28998085",
            "blogLinks": [
                "https://en.wikipedia.org/wiki/Tourism_in_Karnataka"
            ],
            "locType": "administrative"
        },
        "mumbai": {
            "closest_to": "talakadu",
            "address": "Mumbai Spice, 18/2, 10th Cross, Malleswaram, Vyalikaval, Malleswaram, Bengaluru, Bangalore Urban, Karnataka, 560003, India",
            "longitude": "77.5718472",
            "latitude": "13.0002869",
            "blogLinks": [
                "http://pritskulkarni.blogspot.com/2016/09/beautiful-south-goa-and-gigantic-jog.html",
                "http://travel.goudar.com/2011/04/ranebennur-karnataka-india-with-photos.html"
            ],
            "locType": "restaurant"
        },
        "maddur": {
            "closest_to": "talakadu",
            "address": "Maddur, Madduru taluk, Mandya district, Karnataka, 571428, India",
            "longitude": "77.0456404",
            "latitude": "12.5851916",
            "blogLinks": [
                "http://www.mouthshut.com/review/Mysore-review-ptosqttlunm"
            ],
            "locType": "town"
        },
        "anegundi": {
            "closest_to": "jog falls",
            "address": "Anegundi, Gangavati taluku, Koppal district, Karnataka, India",
            "longitude": "76.4924232",
            "latitude": "15.3509583",
            "blogLinks": [
                "https://en.wikipedia.org/wiki/Tourism_in_Karnataka"
            ],
            "locType": "village"
        },
        "kudalasangama": {
            "closest_to": "jog falls",
            "address": "Kudala Sangama, Hunagunda taluku, Bagalkote district, Karnataka, India",
            "longitude": "76.0604244",
            "latitude": "16.2033992",
            "blogLinks": [
                "https://en.wikipedia.org/wiki/Tourism_in_Karnataka"
            ],
            "locType": "village"
        },
        "kambadahalli": {
            "closest_to": "talakadu",
            "address": "Kambadahalli, Madhugiri taluk, Tumkur district, Karnataka, India",
            "longitude": "77.1671918",
            "latitude": "13.6843692",
            "blogLinks": [
                "https://en.wikipedia.org/wiki/Tourism_in_Karnataka"
            ],
            "locType": "village"
        },
        "sagar road": {
            "closest_to": "talakadu",
            "address": "Sagar Road, Anandapura, Sagara taluk, Shimoga district, Karnataka, 577412, India",
            "longitude": "75.2002048",
            "latitude": "14.0904271",
            "blogLinks": [
                "http://www.holidayiq.com/Shimoga-Sightseeing-748.html"
            ],
            "locType": "trunk"
        },
        "kundapura": {
            "closest_to": "talakadu",
            "address": "Kundapura, \u0c95\u0cc1\u0c82\u0ca6\u0cbe\u0caa\u0cc1\u0cb0 \u0ca4\u0cbe\u0cb2\u0cc2\u0c95\u0cc1, Udupi district, Karnataka, 576200, India",
            "longitude": "74.6915722",
            "latitude": "13.6250993",
            "blogLinks": [
                "http://www.nivalink.com/destination/jog-falls"
            ],
            "locType": "town"
        },
        "anantapur": {
            "closest_to": "talakadu",
            "address": "RTO Karnataka, Srinagar - Kanyakumari Highway, Paragodu, Bagepalli taluk, Chikkaballapura district, Karnataka, 561207, India",
            "longitude": "77.7596024",
            "latitude": "13.7972948",
            "blogLinks": [
                "http://www.indiatrekkingtrails.com/2009_12_01_archive.html"
            ],
            "locType": "yes"
        },
        "lakshmeshwar": {
            "closest_to": "jog falls",
            "address": "Lakshmeshwar KSRTC Bus stand, SH6, Bastibana, Lakshmeshvara, Shirahatti taluku, Gadag district, Karnataka, 582116, India",
            "longitude": "75.4741167",
            "latitude": "15.12373",
            "blogLinks": [
                "https://en.wikipedia.org/wiki/Tourism_in_Karnataka"
            ],
            "locType": "bus_station"
        },
        "siddheshwara": {
            "closest_to": "talakadu",
            "address": "Siddheshwara Medicals, Judicial Layout, Allalasandra, Bangalore, 7th Main Road, Judicial Layout, Bengaluru, Bangalore Urban, Karnataka, 560001, India",
            "longitude": "77.5876527",
            "latitude": "13.0797146",
            "blogLinks": [
                "https://en.wikipedia.org/wiki/Tourism_in_Karnataka"
            ],
            "locType": "pharmacy"
        },
        "hubli": {
            "closest_to": "jog falls",
            "address": "Hubballi - \u0cb9\u0cc1\u0cac\u0ccd\u0cac\u0cb3\u0ccd\u0cb3\u0cbf, Hubballi taluku, Dharwad district, Karnataka, 580020, India",
            "longitude": "75.1379848",
            "latitude": "15.3518378",
            "blogLinks": [
                "https://en.wikipedia.org/wiki/Tourism_in_Karnataka",
                "http://travel.goudar.com/2011/04/ranebennur-karnataka-india-with-photos.html",
                "http://www.nivalink.com/destination/jog-falls"
            ],
            "locType": "city"
        },
        "yeshwantpur": {
            "closest_to": "talakadu",
            "address": "Yeshwantpur, Deewanarapalya, Bangalore Urban, Karnataka, India",
            "longitude": "77.5566302",
            "latitude": "13.0236062",
            "blogLinks": [
                "http://www.mouthshut.com/review/Mysore-review-ptosqttlunm"
            ],
            "locType": "suburb"
        },
        "arabhavi": {
            "closest_to": "jog falls",
            "address": "Arabhavi, Gokak taluku, Belgaum district, Karnataka, India",
            "longitude": "74.8213227",
            "latitude": "16.2193552",
            "blogLinks": [
                "https://en.wikipedia.org/wiki/Tourism_in_Karnataka"
            ],
            "locType": "village"
        },
        "bellary": {
            "closest_to": "jog falls",
            "address": "Bellary, Bellary district, Karnataka, India",
            "longitude": "76.8323648",
            "latitude": "15.2485413",
            "blogLinks": [
                "https://en.wikipedia.org/wiki/Tourism_in_Karnataka"
            ],
            "locType": "county"
        },
        "margao": {
            "closest_to": "jog falls",
            "address": "Karnataka bank, NH66, Aquem, Fatorda, Margao, South Goa, Goa, 403600, India",
            "longitude": "73.9583411",
            "latitude": "15.2740083",
            "blogLinks": [
                "http://pritskulkarni.blogspot.com/2016/09/beautiful-south-goa-and-gigantic-jog.html"
            ],
            "locType": "bank"
        },
        "kannada": {
            "closest_to": "talakadu",
            "address": "Dakshina Kannada, Karnataka, India",
            "longitude": "75.1008028650794",
            "latitude": "12.8114089",
            "blogLinks": [
                "https://www.tripoto.com/travel-guide/karnataka/trips"
            ],
            "locType": "administrative"
        },
        "chitradurga": {
            "closest_to": "talakadu",
            "address": "Chitradurga, Chitradurga taluku, Chitradurga district, Karnataka, 577500, India",
            "longitude": "76.4005122",
            "latitude": "14.2266443",
            "blogLinks": [
                "https://en.wikipedia.org/wiki/Tourism_in_Karnataka"
            ],
            "locType": "town"
        },
        "bengal": {
            "closest_to": "talakadu",
            "address": "Bengal Lamps, Konadasapura, Bangalore Urban, Karnataka, 560066, India",
            "longitude": "77.7517038151245",
            "latitude": "13.0492646",
            "blogLinks": [
                "https://www.tripoto.com/weekend-getaways/from-talakadu"
            ],
            "locType": "industrial"
        },
        "goa": {
            "closest_to": "talakadu",
            "address": "Carnival De Goa, Bhaskaran Road, Gupta Layout, Halasuru, Bengaluru, Bangalore Urban, Karnataka, 560001, India",
            "longitude": "77.6200027",
            "latitude": "12.9750047",
            "blogLinks": [
                "https://en.wikipedia.org/wiki/Tourism_in_Karnataka",
                "http://pritskulkarni.blogspot.com/2016/09/beautiful-south-goa-and-gigantic-jog.html"
            ],
            "locType": "restaurant"
        },
        "netravati": {
            "closest_to": "talakadu",
            "address": "Netravati, Bantwal taluk, Dakshina Kannada, Karnataka, India",
            "longitude": "75.1562182",
            "latitude": "12.8537655",
            "blogLinks": [
                "https://en.wikipedia.org/wiki/Tourism_in_Karnataka"
            ],
            "locType": "river"
        },
        "shimsha river": {
            "closest_to": "talakadu",
            "address": "Shimsha, Kunigal taluk, Tumkur district, Karnataka, India",
            "longitude": "76.972542",
            "latitude": "12.8027322",
            "blogLinks": [
                "http://www.holidayiq.com/Karnataka-Waterfalls-A-state-13-11-2.html"
            ],
            "locType": "river"
        },
        "maurya": {
            "closest_to": "talakadu",
            "address": "Hotel Maurya, 22/4, Devaraj Urs Road, Balepet, High Grounds, Bengaluru, Bangalore Urban, Karnataka, 560009, India",
            "longitude": "77.576491",
            "latitude": "12.980921",
            "blogLinks": [
                "http://www.krishnababug.com/2009/04/trip-to-talakad-somanathpura.html"
            ],
            "locType": "hotel"
        },
        "ramanagara": {
            "closest_to": "jog falls",
            "address": "Ramanagara, Khanapura taluku, Belgaum district, Karnataka, India",
            "longitude": "74.4900863",
            "latitude": "15.422047",
            "blogLinks": [
                "http://www.mouthshut.com/review/Mysore-review-ptosqttlunm"
            ],
            "locType": "town"
        },
        "gaganachukki": {
            "closest_to": "talakadu",
            "address": "Gaganachukki Falls, Malavalli taluk, Mandya district, Karnataka, India",
            "longitude": "77.1684763",
            "latitude": "12.2933696",
            "blogLinks": [
                "https://www.tripoto.com/trip/karnataka-one-state-many-worlds-2-565ed43147a04"
            ],
            "locType": "waterfall"
        },
        "halebidu": {
            "closest_to": "talakadu",
            "address": "Halebidu, Hunasuru taluk, Mysuru district, Karnataka, India",
            "longitude": "76.4607075",
            "latitude": "12.359893",
            "blogLinks": [
                "http://www.indiamike.com/india/karnataka-f38/places-to-go-in-south-karnataka-t102701/",
                "https://en.wikipedia.org/wiki/Tourism_in_Karnataka"
            ],
            "locType": "village"
        },
        "srirangapatna": {
            "closest_to": "talakadu",
            "address": "Srirangapatna, Srirangapattana taluk, Mandya district, Karnataka, 571438, India",
            "longitude": "76.6850743",
            "latitude": "12.4225604",
            "blogLinks": [
                "https://en.wikipedia.org/wiki/Tourism_in_Karnataka",
                "http://www.mouthshut.com/review/Mysore-review-ptosqttlunm"
            ],
            "locType": "town"
        },
        "gokarna": {
            "closest_to": "jog falls",
            "address": "Gokarna, Kumata taluk, Uttara Kannada, Karnataka, 581326, India",
            "longitude": "74.3184418",
            "latitude": "14.5439629",
            "blogLinks": [
                "https://en.wikipedia.org/wiki/Tourism_in_Karnataka"
            ],
            "locType": "town"
        },
        "somanathapura": {
            "closest_to": "talakadu",
            "address": "Somanathapura, Bagepalli taluk, Chikkaballapura district, Karnataka, India",
            "longitude": "77.9957587",
            "latitude": "13.75905",
            "blogLinks": [
                "http://www.nivalink.com/destination/talakadu"
            ],
            "locType": "village"
        },
        "india": {
            "closest_to": "talakadu",
            "address": "Karnataka, India",
            "longitude": "75.7223521",
            "latitude": "14.5203896",
            "blogLinks": [
                "https://www.tripoto.com/weekend-getaways/from-talakadu",
                "http://pritskulkarni.blogspot.com/2016/09/beautiful-south-goa-and-gigantic-jog.html",
                "http://www.holidayiq.com/Shimoga-Sightseeing-748.html",
                "http://travel.india.com/jog-falls/",
                "https://en.wikipedia.org/wiki/Tourism_in_Karnataka",
                "http://www.nivalink.com/destination/talakadu",
                "http://travel.paintedstork.com/blog/2005/10/riverside-picnic-places-around.html",
                "http://www.krishnababug.com/2009/04/trip-to-talakad-somanathpura.html",
                "http://www.holidayiq.com/Karnataka-Waterfalls-A-state-13-11-2.html",
                "http://www.indiatrekkingtrails.com/2009_12_01_archive.html",
                "http://www.nivalink.com/destination/jog-falls",
                "http://travel.goudar.com/2011/04/ranebennur-karnataka-india-with-photos.html",
                "https://www.tripoto.com/travel-guide/karnataka/trips"
            ],
            "locType": "administrative"
        },
        "delhi": {
            "closest_to": "talakadu",
            "address": "Outer Ring Road, Green Glen Layout, Iblur, Bengaluru, Bangalore Urban, Karnataka, 560001, India",
            "longitude": "77.6666062",
            "latitude": "12.9212473",
            "blogLinks": [
                "http://travel.goudar.com/2011/04/ranebennur-karnataka-india-with-photos.html"
            ],
            "locType": "trunk"
        },
        "subramanya": {
            "closest_to": "talakadu",
            "address": "Subramanya Arcade, Marenahalli, Bengaluru, Bangalore Urban, Karnataka, 560001, India",
            "longitude": "77.6015800913134",
            "latitude": "12.9251206",
            "blogLinks": [
                "https://en.wikipedia.org/wiki/Tourism_in_Karnataka"
            ],
            "locType": "commercial"
        },
        "malpe beach": {
            "closest_to": "talakadu",
            "address": "Malpe Beach, Malpe Road, Adi Udupi, Malpe, Udupi taluku, Udupi district, Karnataka, 576101, India",
            "longitude": "74.6977767",
            "latitude": "13.3610748",
            "blogLinks": [
                "http://www.indiatrekkingtrails.com/2009_12_01_archive.html"
            ],
            "locType": "marina"
        },
        "manipal": {
            "closest_to": "talakadu",
            "address": "Manipal, Udupi taluku, Udupi district, Karnataka, India",
            "longitude": "74.7870308",
            "latitude": "13.3519723",
            "blogLinks": [
                "https://en.wikipedia.org/wiki/Tourism_in_Karnataka"
            ],
            "locType": "town"
        },
        "chikmagalur": {
            "closest_to": "talakadu",
            "address": "Chikmagalur, Chikkamagaluru district, Karnataka, India",
            "longitude": "75.5",
            "latitude": "13.5",
            "blogLinks": [
                "https://www.tripoto.com/trip/karnataka-one-state-many-worlds-2-565ed43147a04"
            ],
            "locType": "county"
        },
        "mangalore": {
            "closest_to": "talakadu",
            "address": "Mangaluru, Mangaluru taluk, Dakshina Kannada, Karnataka, 575001, India",
            "longitude": "74.8430082",
            "latitude": "12.8698101",
            "blogLinks": [
                "https://www.tripoto.com/weekend-getaways/from-talakadu",
                "https://en.wikipedia.org/wiki/Tourism_in_Karnataka"
            ],
            "locType": "city"
        },
        "lakkundi": {
            "closest_to": "jog falls",
            "address": "Lakkundi, Muddebihala taluku, Bijapur district, Karnataka, India",
            "longitude": "76.4084687",
            "latitude": "16.5255464",
            "blogLinks": [
                "https://en.wikipedia.org/wiki/Tourism_in_Karnataka"
            ],
            "locType": "village"
        },
        "river kaveri": {
            "closest_to": "talakadu",
            "address": "Kaveri, Kollegala taluk, Chamarajanagar district, Karnataka, India",
            "longitude": "77.0635531",
            "latitude": "12.1687878",
            "blogLinks": [
                "https://www.tripoto.com/weekend-getaways/from-talakadu"
            ],
            "locType": "river"
        },
        "dharma river": {
            "closest_to": "talakadu",
            "address": "Dharma Naidu Udhyanavana, 44th cross, Rajajinagar 4th Block, Rajaji Nagar, Bengaluru, Bangalore Urban, Karnataka, 560001, India",
            "longitude": "77.5575864485219",
            "latitude": "12.98914885",
            "blogLinks": [
                "https://en.wikipedia.org/wiki/Tourism_in_Karnataka"
            ],
            "locType": "park"
        },
        "sorab": {
            "closest_to": "talakadu",
            "address": "Sorab Ulavi Rd, Ulavi, Soraba taluk, Shimoga district, Karnataka, 577434, India",
            "longitude": "75.1114212",
            "latitude": "14.2779168",
            "blogLinks": [
                "http://www.holidayiq.com/Shimoga-Sightseeing-748.html"
            ],
            "locType": "secondary"
        },
        "chandramoulishwara": {
            "closest_to": "talakadu",
            "address": "Chandramoulishwara Temple, Adipampa Road, Gokulam, Mysuru, Mysuru taluk, Mysuru district, Karnataka, 570001, India",
            "longitude": "76.6290267",
            "latitude": "12.3225663",
            "blogLinks": [
                "https://en.wikipedia.org/wiki/Tourism_in_Karnataka"
            ],
            "locType": "place_of_worship"
        },
        "itagi": {
            "closest_to": "talakadu",
            "address": "Itagi, Ranebennuru taluk, Haveri district, Karnataka, India",
            "longitude": "75.6701043",
            "latitude": "14.550374",
            "blogLinks": [
                "https://en.wikipedia.org/wiki/Tourism_in_Karnataka"
            ],
            "locType": "village"
        },
        "omkareshwara temple": {
            "closest_to": "talakadu",
            "address": "Omkareshwara Temple, Main Road, Madikeri, Madikeri taluku, Kodagu, Karnataka, India",
            "longitude": "75.741304",
            "latitude": "12.420546",
            "blogLinks": [
                "https://www.tripoto.com/weekend-getaways/from-talakadu"
            ],
            "locType": "place_of_worship"
        },
        "dharwad": {
            "closest_to": "jog falls",
            "address": "Dharwad, Dharawada taluku, Dharwad district, Karnataka, 580001, India",
            "longitude": "75.0066516",
            "latitude": "15.4540505",
            "blogLinks": [
                "https://en.wikipedia.org/wiki/Tourism_in_Karnataka"
            ],
            "locType": "city"
        },
        "kumarakom": {
            "closest_to": "talakadu",
            "address": "Kumarakom, 23, 15th Cross Road, Sector 4, HSR Layout, Bengaluru, Bangalore Urban, Karnataka, 560102, India",
            "longitude": "77.6382858",
            "latitude": "12.9143715",
            "blogLinks": [
                "https://www.tripoto.com/weekend-getaways/from-talakadu"
            ],
            "locType": "restaurant"
        },
        "east": {
            "closest_to": "talakadu",
            "address": "East, 43, Velankani Drive, Electronics City Phase 1, Doddathoguru, Bangalore Urban, Karnataka, 560100, India",
            "longitude": "77.6601401",
            "latitude": "12.8504319",
            "blogLinks": [
                "https://en.wikipedia.org/wiki/Tourism_in_Karnataka"
            ],
            "locType": "restaurant"
        },
        "mookambika": {
            "closest_to": "talakadu",
            "address": "Mukambika Devasthana, NH766C;SH26, Halkal, \u0c95\u0cc1\u0c82\u0ca6\u0cbe\u0caa\u0cc1\u0cb0 \u0ca4\u0cbe\u0cb2\u0cc2\u0c95\u0cc1, Udupi district, Karnataka, 576220, India",
            "longitude": "74.8145296",
            "latitude": "13.8638043",
            "blogLinks": [
                "https://en.wikipedia.org/wiki/Tourism_in_Karnataka"
            ],
            "locType": "place_of_worship"
        },
        "brahmagiri peak": {
            "closest_to": "talakadu",
            "address": "Brahmagiri, Madikeri taluku, Kodagu, Karnataka, India",
            "longitude": "75.490746",
            "latitude": "12.3868578",
            "blogLinks": [
                "https://www.tripoto.com/weekend-getaways/from-talakadu"
            ],
            "locType": "peak"
        },
        "hoysala": {
            "closest_to": "talakadu",
            "address": "Hoysala Nagar, Bengaluru, Bangalore Urban, Karnataka, 560001, India",
            "longitude": "77.6375990817051",
            "latitude": "12.97813815",
            "blogLinks": [
                "https://en.wikipedia.org/wiki/Tourism_in_Karnataka",
                "http://www.nivalink.com/destination/jog-falls"
            ],
            "locType": "administrative"
        },
        "shirali": {
            "closest_to": "jog falls",
            "address": "Shirali, Bhatkala taluk, Uttara Kannada, Karnataka, 581354, India",
            "longitude": "74.5286591",
            "latitude": "14.0280925",
            "blogLinks": [
                "https://en.wikipedia.org/wiki/Tourism_in_Karnataka"
            ],
            "locType": "village"
        },
        "kabini": {
            "closest_to": "talakadu",
            "address": "Kabini, Heggadadevanakote taluk, Mysuru district, Karnataka, India",
            "longitude": "76.4152088",
            "latitude": "12.0140065",
            "blogLinks": [
                "https://en.wikipedia.org/wiki/Tourism_in_Karnataka",
                "http://www.mouthshut.com/review/Mysore-review-ptosqttlunm"
            ],
            "locType": "river"
        },
        "doddamakali": {
            "closest_to": "talakadu",
            "address": "Doddamakali, Dalanakatte, Malavalli taluk, Mandya district, Karnataka, India",
            "longitude": "77.2173416",
            "latitude": "12.3096676",
            "blogLinks": [
                "http://www.nivalink.com/destination/talakadu"
            ],
            "locType": "locality"
        },
        "malvalli": {
            "closest_to": "talakadu",
            "address": "Malvalli Tank Bund Road, Mavalli, Kalasipalya, Bengaluru, Bangalore Urban, Karnataka, 560001, India",
            "longitude": "77.5801004",
            "latitude": "12.9570782",
            "blogLinks": [
                "http://travel.paintedstork.com/blog/2005/10/riverside-picnic-places-around.html"
            ],
            "locType": "tertiary"
        },
        "narasimha swamy temple": {
            "closest_to": "talakadu",
            "address": "Narasimha Swamy Temple, Attavara Mudigere Road, Attavara, Hasana taluk, Hassan district, Karnataka, India",
            "longitude": "76.2427318",
            "latitude": "13.0943931",
            "blogLinks": [
                "https://en.wikipedia.org/wiki/Tourism_in_Karnataka"
            ],
            "locType": "place_of_worship"
        },
        "tumkur": {
            "closest_to": "talakadu",
            "address": "Tumakuru, Tumkur district, Karnataka, India",
            "longitude": "77.0002445",
            "latitude": "13.4999406",
            "blogLinks": [
                "https://en.wikipedia.org/wiki/Tourism_in_Karnataka"
            ],
            "locType": "county"
        },
        "' river varahi": {
            "closest_to": "talakadu",
            "address": "Varahi, \u0c95\u0cc1\u0c82\u0ca6\u0cbe\u0caa\u0cc1\u0cb0 \u0ca4\u0cbe\u0cb2\u0cc2\u0c95\u0cc1, Udupi district, Karnataka, India",
            "longitude": "74.9489117",
            "latitude": "13.6582668",
            "blogLinks": [
                "https://en.wikipedia.org/wiki/Tourism_in_Karnataka"
            ],
            "locType": "river"
        },
        "koramangala": {
            "closest_to": "talakadu",
            "address": "Koramangala, Devanahalli taluk, Bangalore Rural, Karnataka, India",
            "longitude": "77.7519261",
            "latitude": "13.2923988",
            "blogLinks": [
                "http://www.krishnababug.com/2009/04/trip-to-talakad-somanathpura.html"
            ],
            "locType": "village"
        },
        "nagarhole national park": {
            "closest_to": "talakadu",
            "address": "Nagarahole National Park, Virajpet taluk, Kodagu, Karnataka, India",
            "longitude": "76.1537073415874",
            "latitude": "12.0600362",
            "blogLinks": [
                "https://en.wikipedia.org/wiki/Tourism_in_Karnataka"
            ],
            "locType": "national_park"
        },
        "malaprabha": {
            "closest_to": "jog falls",
            "address": "Malaprabha, Ramadurga taluku, Belgaum district, Karnataka, India",
            "longitude": "75.1982668",
            "latitude": "15.8914192",
            "blogLinks": [
                "https://en.wikipedia.org/wiki/Tourism_in_Karnataka"
            ],
            "locType": "river"
        },
        "keladi": {
            "closest_to": "talakadu",
            "address": "Keladi, Sagara taluk, Shimoga district, Karnataka, India",
            "longitude": "75.0165753",
            "latitude": "14.2214761",
            "blogLinks": [
                "http://www.holidayiq.com/Shimoga-Sightseeing-748.html",
                "http://www.nivalink.com/destination/jog-falls"
            ],
            "locType": "village"
        },
        "vishnu": {
            "closest_to": "talakadu",
            "address": "Vishnu Residency Apartments, Thubarahalli, Siddapura, Bangalore Urban, Karnataka, 560066, India",
            "longitude": "77.7198022157059",
            "latitude": "12.95388635",
            "blogLinks": [
                "https://en.wikipedia.org/wiki/Tourism_in_Karnataka"
            ],
            "locType": "residential"
        },
        "pattadakal": {
            "closest_to": "jog falls",
            "address": "Pattadakal Temples, SH14, \u0cac\u0cbe\u0c9a\u0cbf\u0ca8\u0c97\u0cc1\u0ca1\u0ccd\u0ca1, Badami taluku, Bagalkote district, Karnataka, 587211, India",
            "longitude": "75.815884048161",
            "latitude": "15.9506349",
            "blogLinks": [
                "https://en.wikipedia.org/wiki/Tourism_in_Karnataka"
            ],
            "locType": "attraction"
        },
        "bengaluru international airport": {
            "closest_to": "talakadu",
            "address": "Kempegowda International Airport (KIA), Bengaluru, Restricted Lane, Anneshvara, Devanahalli taluk, Bangalore Rural, Karnataka, 560300, India",
            "longitude": "77.7065674158539",
            "latitude": "13.2042586",
            "blogLinks": [
                "http://travel.goudar.com/2011/04/ranebennur-karnataka-india-with-photos.html"
            ],
            "locType": "aerodrome"
        },
        "kerala": {
            "closest_to": "talakadu",
            "address": "New Life Kerala Mess, Sai Baba Mandira Road, Mottappanapalaya, Indiranagar, Bengaluru, Bangalore Urban, Karnataka, 560001, India",
            "longitude": "77.6382683",
            "latitude": "12.9726449",
            "blogLinks": [
                "https://www.tripoto.com/weekend-getaways/from-talakadu",
                "http://travel.paintedstork.com/blog/2005/10/riverside-picnic-places-around.html"
            ],
            "locType": "restaurant"
        },
        "raja seat": {
            "closest_to": "talakadu",
            "address": "Raja Seat, Mahatma Gandhi Road, Madikeri, Madikeri taluku, Kodagu, Karnataka, India",
            "longitude": "75.7369653316478",
            "latitude": "12.41421975",
            "blogLinks": [
                "https://www.tripoto.com/weekend-getaways/from-talakadu"
            ],
            "locType": "park"
        },
        "mandya": {
            "closest_to": "talakadu",
            "address": "Mandya, Mandya taluk, Mandya district, Karnataka, 571401, India",
            "longitude": "76.8937392",
            "latitude": "12.5217836",
            "blogLinks": [
                "https://www.tripoto.com/weekend-getaways/from-talakadu",
                "https://en.wikipedia.org/wiki/Tourism_in_Karnataka",
                "http://www.mouthshut.com/review/Mysore-review-ptosqttlunm"
            ],
            "locType": "town"
        },
        "bheemeshwari valley": {
            "closest_to": "talakadu",
            "address": "Bheemeshwari, Muttatti, Malavalli taluk, Mandya district, Karnataka, India",
            "longitude": "77.2778171",
            "latitude": "12.3124122",
            "blogLinks": [
                "http://www.holidayiq.com/Karnataka-Waterfalls-A-state-13-11-2.html"
            ],
            "locType": "locality"
        },
        "nilgiri range": {
            "closest_to": "talakadu",
            "address": "Bangalore Nilgiri Road, Ittigegudu, Mysuru, Mysuru taluk, Mysuru district, Karnataka, 570001, India",
            "longitude": "76.658639",
            "latitude": "12.304105",
            "blogLinks": [
                "https://www.tripoto.com/weekend-getaways/from-talakadu"
            ],
            "locType": "primary"
        },
        "ranganathittu bird sanctuary": {
            "closest_to": "talakadu",
            "address": "Ranganathittu Bird Sanctuary, SH154, Palahalli, Srirangapattana taluk, Mandya district, Karnataka, 571438, India",
            "longitude": "76.6553081",
            "latitude": "12.4238524",
            "blogLinks": [
                "https://en.wikipedia.org/wiki/Tourism_in_Karnataka",
                "http://www.mouthshut.com/review/Mysore-review-ptosqttlunm"
            ],
            "locType": "attraction"
        },
        "shimoga district": {
            "closest_to": "talakadu",
            "address": "Shimoga district, Karnataka, India",
            "longitude": "75.1312533993886",
            "latitude": "14.0558284",
            "blogLinks": [
                "https://en.wikipedia.org/wiki/Tourism_in_Karnataka"
            ],
            "locType": "administrative"
        },
        "mysore district": {
            "closest_to": "talakadu",
            "address": "Mysuru, Mysuru taluk, Mysuru district, Karnataka, 570001, India",
            "longitude": "76.6553609",
            "latitude": "12.3051828",
            "blogLinks": [
                "https://en.wikipedia.org/wiki/Tourism_in_Karnataka"
            ],
            "locType": "city"
        },
        "srirangapatna taluk of mandya": {
            "closest_to": "talakadu",
            "address": "Srirangapatna, Srirangapattana taluk, Mandya district, Karnataka, 571438, India",
            "longitude": "76.6850743",
            "latitude": "12.4225604",
            "blogLinks": [
                "http://www.mouthshut.com/review/Mysore-review-ptosqttlunm"
            ],
            "locType": "town"
        },
        "shimshapura falls": {
            "closest_to": "talakadu",
            "address": "Shimshapura Falls, Malavalli taluk, Mandya district, Karnataka, India",
            "longitude": "77.1968004",
            "latitude": "12.3480691",
            "blogLinks": [
                "http://www.holidayiq.com/Karnataka-Waterfalls-A-state-13-11-2.html"
            ],
            "locType": "waterfall"
        },
        "river cauvery": {
            "closest_to": "talakadu",
            "address": "Cauvery, 1st Main Road, Lower Palace Orchard, Guttahalli, Bengaluru, Bangalore Urban, Karnataka, 560001, India",
            "longitude": "77.5832796015599",
            "latitude": "13.00262215",
            "blogLinks": [
                "https://www.tripoto.com/weekend-getaways/from-talakadu",
                "http://www.holidayiq.com/Karnataka-Waterfalls-A-state-13-11-2.html"
            ],
            "locType": "cinema"
        },
        "dubare elephant camp": {
            "closest_to": "talakadu",
            "address": "Dubare Elephant Camp, SH91, Dodda Bettageri, Somawarpet taluk, Kodagu, Karnataka, India",
            "longitude": "75.9066719",
            "latitude": "12.3716865",
            "blogLinks": [
                "https://www.tripoto.com/weekend-getaways/from-talakadu"
            ],
            "locType": "attraction"
        },
        "vijayanagara": {
            "closest_to": "jog falls",
            "address": "Vijayanagara, Chikodi taluk, Belgaum district, Karnataka, India",
            "longitude": "74.7380455",
            "latitude": "16.3270486",
            "blogLinks": [
                "https://en.wikipedia.org/wiki/Tourism_in_Karnataka",
                "http://www.nivalink.com/destination/jog-falls"
            ],
            "locType": "village"
        },
        "varur": {
            "closest_to": "jog falls",
            "address": "Varur, Hubballi taluku, Dharwad district, Karnataka, India",
            "longitude": "75.1387568",
            "latitude": "15.2077105",
            "blogLinks": [
                "https://en.wikipedia.org/wiki/Tourism_in_Karnataka"
            ],
            "locType": "village"
        },
        "irupu falls": {
            "closest_to": "talakadu",
            "address": "Iruppu Falls, SH89, Taila, Virajpet taluk, Kodagu, Karnataka, 571217, India",
            "longitude": "75.9839484",
            "latitude": "11.9667954",
            "blogLinks": [
                "https://en.wikipedia.org/wiki/Tourism_in_Karnataka"
            ],
            "locType": "attraction"
        },
        "northern karnataka": {
            "closest_to": "talakadu",
            "address": "Northern Operating  Services Pvt Ltd, RMZ Ecospace, Internal Rd, RMZ Ecospace, Bellandur, Doddakannelli, Bangalore Urban, Karnataka, 560037, India",
            "longitude": "77.6804678",
            "latitude": "12.9257442",
            "blogLinks": [
                "https://www.tripoto.com/travel-guide/karnataka/trips"
            ],
            "locType": "company"
        },
        "lakya dam": {
            "closest_to": "talakadu",
            "address": "Lakya Dam, Mudigere taluk, Chikkamagaluru district, Karnataka, India",
            "longitude": "75.2271128",
            "latitude": "13.2189611",
            "blogLinks": [
                "http://www.holidayiq.com/Karnataka-Waterfalls-A-state-13-11-2.html"
            ],
            "locType": "dam"
        },
        "rock garden": {
            "closest_to": "talakadu",
            "address": "Waterfalls by the Rock site, Madikeri taluku, Kodagu, Karnataka, India",
            "longitude": "75.6142269",
            "latitude": "12.2248591",
            "blogLinks": [
                "https://en.wikipedia.org/wiki/Tourism_in_Karnataka"
            ],
            "locType": "waterfall"
        },
        "nataraja": {
            "closest_to": "talakadu",
            "address": "Nataraja, Sirur Park Road, Vyalikaval, Seshadripuram, Bengaluru, Bangalore Urban, Karnataka, 560001, India",
            "longitude": "77.5730381173154",
            "latitude": "12.9900332",
            "blogLinks": [
                "https://www.tripoto.com/weekend-getaways/from-talakadu"
            ],
            "locType": "cinema"
        },
        "nagarahole": {
            "closest_to": "talakadu",
            "address": "Nagarahole, Heggadadevanakote taluk, Mysuru district, Karnataka, India",
            "longitude": "76.2286805",
            "latitude": "12.0229466",
            "blogLinks": [
                "https://en.wikipedia.org/wiki/Tourism_in_Karnataka"
            ],
            "locType": "river"
        },
        "veerabhadra": {
            "closest_to": "jog falls",
            "address": "Veerabhadra Galli, Sirsi, Shirasi taluk, Uttara Kannada, Karnataka, 581400, India",
            "longitude": "74.8354754",
            "latitude": "14.6129642",
            "blogLinks": [
                "http://www.holidayiq.com/Karnataka-Waterfalls-A-state-13-11-2.html"
            ],
            "locType": "residential"
        },
        "gokak": {
            "closest_to": "jog falls",
            "address": "Gokak, Gokak taluku, Belgaum district, Karnataka, 591307, India",
            "longitude": "74.8224338",
            "latitude": "16.1693033",
            "blogLinks": [
                "https://en.wikipedia.org/wiki/Tourism_in_Karnataka"
            ],
            "locType": "town"
        },
        "varaha": {
            "closest_to": "talakadu",
            "address": "Varaha, Hirekeruru taluk, Haveri district, Karnataka, India",
            "longitude": "75.3718812",
            "latitude": "14.390777",
            "blogLinks": [
                "https://en.wikipedia.org/wiki/Tourism_in_Karnataka"
            ],
            "locType": "village"
        },
        "kanakapura": {
            "closest_to": "talakadu",
            "address": "Kanakapura, Kanakapura taluk, Ramanagara district, Karnataka, 562117, India",
            "longitude": "77.4199095",
            "latitude": "12.5450268",
            "blogLinks": [
                "http://wikitravel.org/en/Shivanasamudram",
                "http://travel.paintedstork.com/blog/2005/10/riverside-picnic-places-around.html"
            ],
            "locType": "town"
        },
        "mandya district": {
            "closest_to": "talakadu",
            "address": "Mandya district, Karnataka, India",
            "longitude": "76.7302318329607",
            "latitude": "12.6336348",
            "blogLinks": [
                "https://en.wikipedia.org/wiki/Tourism_in_Karnataka"
            ],
            "locType": "administrative"
        },
        "andhra pradesh": {
            "closest_to": "talakadu",
            "address": "Karnataka, West Mada Street, Srivari Temple, Tirumala, Chittoor, Andhra Pradesh, 517504, India",
            "longitude": "79.3452447",
            "latitude": "13.6841958",
            "blogLinks": [
                "http://www.indiatrekkingtrails.com/2009_12_01_archive.html"
            ],
            "locType": "hotel"
        },
        "shiggaon taluk": {
            "closest_to": "jog falls",
            "address": "Shiggaon taluk, Haveri district, Karnataka, India",
            "longitude": "75.1756764988777",
            "latitude": "15.0138079",
            "blogLinks": [
                "https://en.wikipedia.org/wiki/Tourism_in_Karnataka"
            ],
            "locType": "administrative"
        },
        "bahubali": {
            "closest_to": "talakadu",
            "address": "Bahubali Statue, SH8, Shravanabelagola, Channarayapattana taluk, Hassan district, Karnataka, 573135, India",
            "longitude": "76.4846128",
            "latitude": "12.8540505",
            "blogLinks": [
                "https://en.wikipedia.org/wiki/Tourism_in_Karnataka"
            ],
            "locType": "place_of_worship"
        },
        "tamil nadu": {
            "closest_to": "talakadu",
            "address": "KARNATAKA BANK, Diwan Bhadur Road, Five Corner, RS Puram, Coimbatore, Coimbatore district, Tamil Nadu, 641001, India",
            "longitude": "76.9514152",
            "latitude": "11.0025894",
            "blogLinks": [
                "https://www.tripoto.com/weekend-getaways/from-talakadu",
                "https://en.wikipedia.org/wiki/Tourism_in_Karnataka"
            ],
            "locType": "bank"
        },
        "unchalli falls": {
            "closest_to": "jog falls",
            "address": "\u0c89\u0c82\u0c9a\u0cb3\u0ccd\u0cb3\u0cbf \u0c9c\u0cb2\u0caa\u0cbe\u0ca4, Siddapura taluk, Uttara Kannada, Karnataka, India",
            "longitude": "74.7477592",
            "latitude": "14.4097755",
            "blogLinks": [
                "https://en.wikipedia.org/wiki/Tourism_in_Karnataka"
            ],
            "locType": "waterfall"
        },
        "belavadi": {
            "closest_to": "talakadu",
            "address": "Belavadi, Koppa taluk, Chikkamagaluru district, Karnataka, India",
            "longitude": "75.3760773",
            "latitude": "13.5284899",
            "blogLinks": [
                "https://en.wikipedia.org/wiki/Tourism_in_Karnataka"
            ],
            "locType": "village"
        },
        "mangalore international airport": {
            "closest_to": "talakadu",
            "address": "Mangalore International Airport, Airport Entry Road, Gandhinagar, Kenjar, Mangaluru taluk, Dakshina Kannada, Karnataka, 575015, India",
            "longitude": "74.887492668144",
            "latitude": "12.95518575",
            "blogLinks": [
                "https://www.tripoto.com/weekend-getaways/from-talakadu"
            ],
            "locType": "aerodrome"
        },
        "kamala": {
            "closest_to": "talakadu",
            "address": "Kamala Nehru Patashala (Emmanual English School), 5th A Cross Road, Yediyur, Thyagaraja Nagar, Bengaluru, Bangalore Urban, Karnataka, 560001, India",
            "longitude": "77.5664867",
            "latitude": "12.9339482",
            "blogLinks": [
                "https://en.wikipedia.org/wiki/Tourism_in_Karnataka"
            ],
            "locType": "school"
        },
        "nippani": {
            "closest_to": "jog falls",
            "address": "Nippani, Chikodi taluk, Belgaum district, Karnataka, 591237, India",
            "longitude": "74.3842372",
            "latitude": "16.4020402",
            "blogLinks": [
                "https://en.wikipedia.org/wiki/Tourism_in_Karnataka"
            ],
            "locType": "town"
        },
        "earth": {
            "closest_to": "talakadu",
            "address": "Bharat Earth Movers Limited - BEML, GM Palya, Bengaluru, Bangalore Urban, Karnataka, 560001, India",
            "longitude": "77.659986649248",
            "latitude": "12.9740596",
            "blogLinks": [
                "https://www.tripoto.com/weekend-getaways/from-talakadu"
            ],
            "locType": "industrial"
        },
        "kempegowda international airport": {
            "closest_to": "talakadu",
            "address": "Kempegowda International Airport, Cargo Road, Doddasanne, Devanahalli taluk, Bangalore Rural, Karnataka, 560300, India",
            "longitude": "77.7026949",
            "latitude": "13.2069862",
            "blogLinks": [
                "http://www.mouthshut.com/review/Mysore-review-ptosqttlunm"
            ],
            "locType": "runway"
        },
        "emerald lake": {
            "closest_to": "talakadu",
            "address": "Emerald Isle Resort, NH75, Lakshmisagara, Kolar taluk, Kolar district, Karnataka, 563133, India",
            "longitude": "77.8188013",
            "latitude": "13.0833534",
            "blogLinks": [
                "https://www.tripoto.com/weekend-getaways/from-talakadu"
            ],
            "locType": "hotel"
        },
        "bankpur fort": {
            "closest_to": "jog falls",
            "address": "Bankapura Fort, SH137, Guddada Channapura, Shiggaon taluk, Haveri district, Karnataka, 581202, India",
            "longitude": "75.2512090188504",
            "latitude": "14.9231815",
            "blogLinks": [
                "https://en.wikipedia.org/wiki/Tourism_in_Karnataka"
            ],
            "locType": "archaeological_site"
        },
        "narayana": {
            "closest_to": "talakadu",
            "address": "Narayana Gondanahalli, Holalkere taluk, Chitradurga district, Karnataka, India",
            "longitude": "76.201037",
            "latitude": "13.9181889",
            "blogLinks": [
                "https://en.wikipedia.org/wiki/Tourism_in_Karnataka"
            ],
            "locType": "village"
        },
        "coorg": {
            "closest_to": "talakadu",
            "address": "Madikeri, Madikeri taluku, Kodagu, Karnataka, India",
            "longitude": "75.740031",
            "latitude": "12.4204003",
            "blogLinks": [
                "https://www.tripoto.com/weekend-getaways/from-talakadu",
                "http://www.indiamike.com/india/karnataka-f38/places-to-go-in-south-karnataka-t102701/"
            ],
            "locType": "town"
        },
        "sringeri": {
            "closest_to": "talakadu",
            "address": "Sringeri, Sringeri taluku, Chikkamagaluru district, Karnataka, 577592, India",
            "longitude": "75.2553718",
            "latitude": "13.4261724",
            "blogLinks": [
                "http://www.indiamike.com/india/karnataka-f38/places-to-go-in-south-karnataka-t102701/",
                "https://www.tripoto.com/trip/karnataka-one-state-many-worlds-2-565ed43147a04"
            ],
            "locType": "town"
        },
        "kodachadri": {
            "closest_to": "talakadu",
            "address": "Kodachadri, \u0c95\u0cc1\u0c82\u0ca6\u0cbe\u0caa\u0cc1\u0cb0 \u0ca4\u0cbe\u0cb2\u0cc2\u0c95\u0cc1, Udupi district, Karnataka, India",
            "longitude": "74.8705395",
            "latitude": "13.8565758",
            "blogLinks": [
                "https://en.wikipedia.org/wiki/Tourism_in_Karnataka",
                "http://www.holidayiq.com/Shimoga-Sightseeing-748.html"
            ],
            "locType": "peak"
        },
        "sangameshwara": {
            "closest_to": "jog falls",
            "address": "Sangameshwara, Kalaghatagi taluku, Dharwad district, Karnataka, India",
            "longitude": "74.87651",
            "latitude": "15.184341",
            "blogLinks": [
                "https://en.wikipedia.org/wiki/Tourism_in_Karnataka"
            ],
            "locType": "village"
        },
        "arasikere": {
            "closest_to": "talakadu",
            "address": "Arasikere, Arasikere taluku, Hassan district, Karnataka, 573103, India",
            "longitude": "76.2568436",
            "latitude": "13.3159809",
            "blogLinks": [
                "https://en.wikipedia.org/wiki/Tourism_in_Karnataka"
            ],
            "locType": "town"
        },
        "siddapur": {
            "closest_to": "talakadu",
            "address": "Siddapur, \u0c95\u0cc1\u0c82\u0ca6\u0cbe\u0caa\u0cc1\u0cb0 \u0ca4\u0cbe\u0cb2\u0cc2\u0c95\u0cc1, Udupi district, Karnataka, 576229, India",
            "longitude": "74.911019",
            "latitude": "13.6626885",
            "blogLinks": [
                "http://www.holidayiq.com/Karnataka-Waterfalls-A-state-13-11-2.html"
            ],
            "locType": "village"
        },
        "brahmagiri": {
            "closest_to": "talakadu",
            "address": "Brahmagiri, Madikeri taluku, Kodagu, Karnataka, India",
            "longitude": "75.490746",
            "latitude": "12.3868578",
            "blogLinks": [
                "http://travel.paintedstork.com/blog/2005/10/riverside-picnic-places-around.html"
            ],
            "locType": "peak"
        },
        "bheemeshwari": {
            "closest_to": "talakadu",
            "address": "Bheemeshwari, Muttatti, Malavalli taluk, Mandya district, Karnataka, India",
            "longitude": "77.2778171",
            "latitude": "12.3124122",
            "blogLinks": [
                "https://en.wikipedia.org/wiki/Tourism_in_Karnataka"
            ],
            "locType": "locality"
        },
        "gaganachukki falls": {
            "closest_to": "talakadu",
            "address": "Gaganachukki Falls, Malavalli taluk, Mandya district, Karnataka, India",
            "longitude": "77.1684763",
            "latitude": "12.2933696",
            "blogLinks": [
                "http://www.holidayiq.com/Karnataka-Waterfalls-A-state-13-11-2.html"
            ],
            "locType": "waterfall"
        },
        "virupaksha temple": {
            "closest_to": "jog falls",
            "address": "Virupaksha Temple, Hampi Bazaar, Hampe, Hosapete taluk, Bellary district, Karnataka, 583239, India",
            "longitude": "76.4587777156223",
            "latitude": "15.3351754",
            "blogLinks": [
                "https://en.wikipedia.org/wiki/Tourism_in_Karnataka"
            ],
            "locType": "place_of_worship"
        },
        "harangi": {
            "closest_to": "talakadu",
            "address": "Harangi, Somawarpet taluk, Kodagu, Karnataka, India",
            "longitude": "75.8392181",
            "latitude": "12.4948912",
            "blogLinks": [
                "http://www.mouthshut.com/review/Mysore-review-ptosqttlunm"
            ],
            "locType": "river"
        },
        "jog falls": {
            "closest_to": "jog falls",
            "address": "Jog Falls, Joga - Kargal, Sagara taluk, Shimoga district, Karnataka, India",
            "longitude": "74.8128715",
            "latitude": "14.2276106",
            "blogLinks": [
                "http://www.holidayiq.com/Shimoga-Sightseeing-748.html",
                "http://travel.india.com/jog-falls/",
                "http://www.holidayiq.com/Karnataka-Waterfalls-A-state-13-11-2.html"
            ],
            "locType": "locality"
        },
        "botanical gardens": {
            "closest_to": "talakadu",
            "address": "Botanical Garden, Cart road, Judicial Layout, Jakkur, Bangalore Urban, Karnataka, 560065, India",
            "longitude": "77.5744817798899",
            "latitude": "13.08099125",
            "blogLinks": [
                "https://www.tripoto.com/weekend-getaways/from-talakadu",
                "http://www.indiamike.com/india/karnataka-f38/places-to-go-in-south-karnataka-t102701/"
            ],
            "locType": "protected_area"
        },
        "bannerghatta national park": {
            "closest_to": "talakadu",
            "address": "Bannerghatta National Park, Anekal Road, Begihalli, Bangalore Urban, Karnataka, 560076, India",
            "longitude": "77.5722783830694",
            "latitude": "12.77900335",
            "blogLinks": [
                "https://en.wikipedia.org/wiki/Tourism_in_Karnataka"
            ],
            "locType": "national_park"
        },
        "udupi": {
            "closest_to": "talakadu",
            "address": "Udupi, Udupi taluku, Udupi district, Karnataka, 576101, India",
            "longitude": "74.7473232",
            "latitude": "13.3419169",
            "blogLinks": [
                "https://en.wikipedia.org/wiki/Tourism_in_Karnataka"
            ],
            "locType": "city"
        },
        "hubli airport": {
            "closest_to": "jog falls",
            "address": "Hubli Airport, \u0c97\u0ccb\u0c95\u0cc1\u0cb2 \u0cb0\u0ccb\u0ca1\u0ccd, Padmaraj Nagar, Gokul, Hubballi taluku, Dharwad district, Karnataka, 580030, India",
            "longitude": "75.0860974",
            "latitude": "15.3598315",
            "blogLinks": [
                "http://travel.goudar.com/2011/04/ranebennur-karnataka-india-with-photos.html"
            ],
            "locType": "aerodrome"
        },
        "kanaganahalli": {
            "closest_to": "talakadu",
            "address": "Kanaganahalli, Pandavapura taluk, Mandya district, Karnataka, India",
            "longitude": "76.5876958",
            "latitude": "12.5588444",
            "blogLinks": [
                "https://en.wikipedia.org/wiki/Tourism_in_Karnataka"
            ],
            "locType": "village"
        },
        "nagarahole national park": {
            "closest_to": "talakadu",
            "address": "Nagarahole National Park, Virajpet taluk, Kodagu, Karnataka, India",
            "longitude": "76.1537073415874",
            "latitude": "12.0600362",
            "blogLinks": [
                "https://en.wikipedia.org/wiki/Tourism_in_Karnataka"
            ],
            "locType": "national_park"
        },
        "malavalli": {
            "closest_to": "talakadu",
            "address": "Malavalli, Malavalli taluk, Mandya district, Karnataka, 571430, India",
            "longitude": "77.0589464",
            "latitude": "12.3864073",
            "blogLinks": [
                "http://wikitravel.org/en/Shivanasamudram"
            ],
            "locType": "town"
        },
        "bhadra river": {
            "closest_to": "talakadu",
            "address": "Bhadra, Chikkamagaluru taluku, Chikkamagaluru district, Karnataka, India",
            "longitude": "75.527118",
            "latitude": "13.4888356",
            "blogLinks": [
                "https://en.wikipedia.org/wiki/Tourism_in_Karnataka"
            ],
            "locType": "river"
        },
        "hogenakkal falls karnataka": {
            "closest_to": "talakadu",
            "address": "Hogenakkal Falls, Kollegala taluk, Chamarajanagar district, Karnataka, India",
            "longitude": "77.7758632",
            "latitude": "12.1184195",
            "blogLinks": [
                "https://www.tripoto.com/travel-guide/karnataka/trips"
            ],
            "locType": "waterfall"
        },
        "belgaum fort": {
            "closest_to": "jog falls",
            "address": "Belgaum Fort, Belagavi, Belagavi taluku, Belgaum district, Karnataka, 590001, India",
            "longitude": "74.5255651",
            "latitude": "15.8581696",
            "blogLinks": [
                "https://en.wikipedia.org/wiki/Tourism_in_Karnataka"
            ],
            "locType": "locality"
        },
        "linganamakki dam": {
            "closest_to": "talakadu",
            "address": "Linganamakki Dam, Sagara taluk, Shimoga district, Karnataka, India",
            "longitude": "74.8464623767123",
            "latitude": "14.1758978",
            "blogLinks": [
                "http://travel.india.com/jog-falls/"
            ],
            "locType": "dam"
        },
        "bagalkot": {
            "closest_to": "jog falls",
            "address": "Bagalakote, Bagalakote taluk, Bagalkote district, Karnataka, India",
            "longitude": "75.6967919",
            "latitude": "16.1853166",
            "blogLinks": [
                "https://www.tripoto.com/trip/karnataka-one-state-many-worlds-2-565ed43147a04"
            ],
            "locType": "city"
        },
        "garrison": {
            "closest_to": "talakadu",
            "address": "Garrison Engineer (R and D )West, Dr. APJ Abdul Kalam Road, Sudgunte Palya, Thippasandra, Benniganahalli, Bangalore Urban, Karnataka, 560075, India",
            "longitude": "77.652828",
            "latitude": "12.9796086",
            "blogLinks": [
                "http://www.indiamike.com/india/karnataka-f38/places-to-go-in-south-karnataka-t102701/"
            ],
            "locType": "government"
        },
        "manjusha museum": {
            "closest_to": "talakadu",
            "address": "Manjusha Museum, SH37, Dharmasthala, Beltangadi taluk, Dakshina Kannada, Karnataka, 574216, India",
            "longitude": "75.3821342838196",
            "latitude": "12.95116975",
            "blogLinks": [
                "https://en.wikipedia.org/wiki/Tourism_in_Karnataka"
            ],
            "locType": "museum"
        },
        "iruppu falls": {
            "closest_to": "talakadu",
            "address": "Iruppu Falls, SH89, Taila, Virajpet taluk, Kodagu, Karnataka, 571217, India",
            "longitude": "75.9839484",
            "latitude": "11.9667954",
            "blogLinks": [
                "https://www.tripoto.com/weekend-getaways/from-talakadu"
            ],
            "locType": "attraction"
        },
        "railway station": {
            "closest_to": "talakadu",
            "address": "Railway Station, Gauribidanuru taluk, Chikkaballapura district, Karnataka, India",
            "longitude": "77.515738",
            "latitude": "13.5029417",
            "blogLinks": [
                "https://www.tripoto.com/weekend-getaways/from-talakadu"
            ],
            "locType": "village"
        },
        "gadag district": {
            "closest_to": "jog falls",
            "address": "Gadag district, Karnataka, India",
            "longitude": "75.6807542794645",
            "latitude": "15.416337",
            "blogLinks": [
                "https://en.wikipedia.org/wiki/Tourism_in_Karnataka"
            ],
            "locType": "administrative"
        },
        "kanakapura road": {
            "closest_to": "talakadu",
            "address": "Kanakapura Road, Rajotsava Nagar, Kaderenahalli, Bengaluru, Bangalore Urban, Karnataka, 560001, India",
            "longitude": "77.5733483",
            "latitude": "12.9064528",
            "blogLinks": [
                "https://en.wikipedia.org/wiki/Tourism_in_Karnataka"
            ],
            "locType": "trunk"
        },
        "tungabhadra": {
            "closest_to": "jog falls",
            "address": "Tungabhadra, Gangavati taluku, Koppal district, Karnataka, India",
            "longitude": "76.4931607",
            "latitude": "15.3446123",
            "blogLinks": [
                "https://en.wikipedia.org/wiki/Tourism_in_Karnataka",
                "http://travel.goudar.com/2011/04/ranebennur-karnataka-india-with-photos.html",
                "https://www.tripoto.com/trip/karnataka-one-state-many-worlds-2-565ed43147a04"
            ],
            "locType": "river"
        },
        "naganur": {
            "closest_to": "jog falls",
            "address": "Naganur, Hukkeri taluku, Belgaum district, Karnataka, India",
            "longitude": "74.4824431",
            "latitude": "16.073351",
            "blogLinks": [
                "https://en.wikipedia.org/wiki/Tourism_in_Karnataka"
            ],
            "locType": "village"
        },