{
    "mangalore": {
        "place_id": "637002",
        "osm_id": "245612641",
        "icon": "https://nominatim.openstreetmap.org/images/mapicons/poi_place_city.p.20.png",
        "osm_type": "node",
        "licence": "Data \u00a9 OpenStreetMap contributors, ODbL 1.0. http://www.openstreetmap.org/copyright",
        "display_name": "Mangaluru, Mangaluru taluk, Dakshina Kannada, Karnataka, 575001, India",
        "type": "city",
        "lon": "74.8430082",
        "boundingbox": [
            "12.7098101",
            "13.0298101",
            "74.6830082",
            "75.0030082"
        ],
        "importance": 0.45,
        "lat": "12.8698101",
        "class": "place"
    },
    "mentions": {
        "kadri manjunatha temple": {
            "closest_to": "mangalore",
            "address": "Kadri Manjunatha Temple, Manjunatha Colony Road, Bikarnakatte, Nanthoor, Mangaluru, Mangaluru taluk, Dakshina Kannada, Karnataka, 575001, India",
            "longitude": "74.85560021854",
            "latitude": "12.88588535",
            "blogLinks": [
                "https://www.thrillophilia.com/places-to-visit-near-mangalore",
                "http://www.nivalink.com/destination/mangalore"
            ],
            "locType": "place_of_worship"
        },
        "coastal karnataka": {
            "closest_to": "mangalore",
            "address": "Bharat Petroleum Mangalore Coastal Installation, Baikampady, Mangaluru taluk, Dakshina Kannada, Karnataka, 575014, India",
            "longitude": "74.8137275833157",
            "latitude": "12.96014675",
            "blogLinks": [
                "http://www.nivalink.com/destination/mangalore"
            ],
            "locType": "industrial"
        },
        "golden woods": {
            "closest_to": "kanakapura",
            "address": "Golden Woods Row Houses, Iblur, Doddakannelli, Bangalore Urban, Karnataka, 560035, India",
            "longitude": "77.6745001421117",
            "latitude": "12.90951585",
            "blogLinks": [
                "https://www.quora.com/What-are-some-good-places-to-visit-near-bangalore-for-a-one-two-day-trip"
            ],
            "locType": "residential"
        },
        "hotel srinivas": {
            "closest_to": "mangalore",
            "address": "Hotel Srinivas, Panje Manjesh Rao Road, Dongerkeri, Attavar, Mangaluru, Mangaluru taluk, Dakshina Kannada, Karnataka, 575001, India",
            "longitude": "74.8404787",
            "latitude": "12.8688507",
            "blogLinks": [
                "http://wikitravel.org/en/Mangalore"
            ],
            "locType": "hotel"
        },
        "mangalore city": {
            "closest_to": "mangalore",
            "address": "Mangaluru, Mangaluru taluk, Dakshina Kannada, Karnataka, 575001, India",
            "longitude": "74.8430082",
            "latitude": "12.8698101",
            "blogLinks": [
                "https://www.thrillophilia.com/places-to-visit-near-mangalore",
                "http://www.amuct.org/more/aifucto-conference/549-places-to-visit-in-and-around-mangalore",
                "http://wikitravel.org/en/Mangalore"
            ],
            "locType": "city"
        },
        "shivaganga": {
            "closest_to": "mangalore",
            "address": "Shivaganga, Holalkere taluk, Chitradurga district, Karnataka, India",
            "longitude": "76.2510807",
            "latitude": "14.0791346",
            "blogLinks": [
                "http://goindia.about.com/od/cities/tp/attractions-around-bangalore.htm"
            ],
            "locType": "village"
        },
        "coimbatore": {
            "closest_to": "mangalore",
            "address": "Gundlupet - Coimbatore Highway, Bandipur, Gundlupet taluk, Chamarajanagar district, Karnataka, India",
            "longitude": "76.6318246",
            "latitude": "11.6793976",
            "blogLinks": [
                "https://www.tripoto.com/weekend-getaways/from-kanakapura"
            ],
            "locType": "trunk"
        },
        "rain-tree": {
            "closest_to": "kanakapura",
            "address": "Rain Tree, 3rd Main Road, Defence Colony, Hoysala Nagar, Bengaluru, Bangalore Urban, Karnataka, 560001, India",
            "longitude": "77.6414765",
            "latitude": "12.9757365",
            "blogLinks": [
                "https://www.tripoto.com/weekend-getaways/from-kanakapura"
            ],
            "locType": "tree"
        },
        "kumara park": {
            "closest_to": "mangalore",
            "address": "Kumara Parvatha, Somawarpet taluk, Kodagu, Karnataka, India",
            "longitude": "75.6865652",
            "latitude": "12.6623315",
            "blogLinks": [
                "https://en.wikipedia.org/wiki/List_of_tourist_attractions_in_Bangalore"
            ],
            "locType": "peak"
        },
        "samse": {
            "closest_to": "mangalore",
            "address": "Samse, Mudigere taluk, Chikkamagaluru district, Karnataka, India",
            "longitude": "75.3332678",
            "latitude": "13.1894244",
            "blogLinks": [
                "https://www.quora.com/What-are-some-good-places-to-visit-near-bangalore-for-a-one-two-day-trip",
                "https://www.quora.com/What-are-the-best-weekend-road-trips-from-Bangalore"
            ],
            "locType": "village"
        },
        "karkala": {
            "closest_to": "mangalore",
            "address": "Karkala, Karkala taluk, Udupi district, Karnataka, 574104, India",
            "longitude": "74.9959586",
            "latitude": "13.2112826",
            "blogLinks": [
                "https://www.thrillophilia.com/places-to-visit-near-mangalore",
                "http://www.nivalink.com/destination/mangalore",
                "https://www.quora.com/What-are-some-good-places-to-visit-near-bangalore-for-a-one-two-day-trip",
                "http://wikitravel.org/en/Mangalore",
                "http://www.amuct.org/more/aifucto-conference/549-places-to-visit-in-and-around-mangalore",
                "https://www.quora.com/What-are-the-best-weekend-road-trips-from-Bangalore",
                "https://www.thrillophilia.com/bangalore-weekend-getaways"
            ],
            "locType": "town"
        },
        "gaganachukki": {
            "closest_to": "mangalore",
            "address": "Gaganachukki Falls, Malavalli taluk, Mandya district, Karnataka, India",
            "longitude": "77.1684763",
            "latitude": "12.2933696",
            "blogLinks": [
                "http://www.mapsofindia.com/karnataka/tourism/"
            ],
            "locType": "waterfall"
        },
        "brigade tech park": {
            "closest_to": "kanakapura",
            "address": "Brigade Tech Park, Kadugodi, Prashanth Extension, Bangalore Urban, Karnataka, 56066, India",
            "longitude": "77.7401216620803",
            "latitude": "12.98628565",
            "blogLinks": [
                "https://en.wikipedia.org/wiki/List_of_tourist_attractions_in_Bangalore"
            ],
            "locType": "commercial"
        },
        "puttige": {
            "closest_to": "kanakapura",
            "address": "Puttige Mutt, Bull Temple Road, 5th Main Road, Yediyur, Hanumantha Nagar, Bengaluru, Bangalore Urban, Karnataka, 560001, India",
            "longitude": "77.567216",
            "latitude": "12.9413592",
            "blogLinks": [
                "http://www.amuct.org/more/aifucto-conference/549-places-to-visit-in-and-around-mangalore"
            ],
            "locType": "place_of_worship"
        },
        "kapu beach": {
            "closest_to": "mangalore",
            "address": "Kapu Beach, NH66, Mallaru, Udupi taluku, Udupi district, Karnataka, India",
            "longitude": "74.7388930883129",
            "latitude": "13.2187564",
            "blogLinks": [
                "http://wikitravel.org/en/Mangalore"
            ],
            "locType": "beach"
        },
        "manjunatha": {
            "closest_to": "mangalore",
            "address": "Manjunatha Colony Road, Bikarnakatte, Nanthoor, Mangaluru, Mangaluru taluk, Dakshina Kannada, Karnataka, 575001, India",
            "longitude": "74.8543195",
            "latitude": "12.8847787",
            "blogLinks": [
                "http://www.nivalink.com/destination/mangalore"
            ],
            "locType": "residential"
        },
        "mallalli falls": {
            "closest_to": "mangalore",
            "address": "Mallalli Falls, Somawarpet taluk, Kodagu, Karnataka, India",
            "longitude": "75.723663",
            "latitude": "12.6813778",
            "blogLinks": [
                "https://www.tripoto.com/weekend-getaways/from-kanakapura"
            ],
            "locType": "waterfall"
        },
        "lalbagh": {
            "closest_to": "mangalore",
            "address": "Lalbagh, Ladyhill, Mangaluru, Mangaluru taluk, Dakshina Kannada, Karnataka, 575001, India",
            "longitude": "74.8391489",
            "latitude": "12.8849518",
            "blogLinks": [
                "http://wikitravel.org/en/Mangalore"
            ],
            "locType": "neighbourhood"
        },
        "lumbini gardens": {
            "closest_to": "kanakapura",
            "address": "Lumbini Gardens, Outer Ring Road, Kanaka Nagar, Amarjyothi Nagara, Dasarahalli, Bangalore Urban, Karnataka, 560024, India",
            "longitude": "77.6102391912575",
            "latitude": "13.0432874",
            "blogLinks": [
                "https://en.wikipedia.org/wiki/List_of_tourist_attractions_in_Bangalore"
            ],
            "locType": "theme_park"
        },
        "mangalore": {
            "closest_to": "mangalore",
            "address": "Mangaluru, Mangaluru taluk, Dakshina Kannada, Karnataka, 575001, India",
            "longitude": "74.8430082",
            "latitude": "12.8698101",
            "blogLinks": [
                "https://www.thrillophilia.com/places-to-visit-near-mangalore",
                "http://www.nivalink.com/destination/mangalore",
                "https://www.tripoto.com/weekend-getaways/from-kanakapura",
                "http://wikitravel.org/en/Mangalore",
                "http://www.amuct.org/more/aifucto-conference/549-places-to-visit-in-and-around-mangalore",
                "https://www.travelblog.org/Asia/India/Karnataka/Kanakapura/blog-773863.html",
                "http://www.mapsofindia.com/karnataka/tourism/",
                "https://www.thrillophilia.com/bangalore-weekend-getaways"
            ],
            "locType": "city"
        },
        "whitefield": {
            "closest_to": "kanakapura",
            "address": "Whitefield, Bangalore Urban, Karnataka, India",
            "longitude": "77.7497448",
            "latitude": "12.9696365",
            "blogLinks": [
                "https://en.wikipedia.org/wiki/List_of_tourist_attractions_in_Bangalore"
            ],
            "locType": "town"
        },
        "gurupura": {
            "closest_to": "mangalore",
            "address": "Gurupura, Tarikere taluku, Chikkamagaluru district, Karnataka, India",
            "longitude": "75.7161587",
            "latitude": "13.6686411",
            "blogLinks": [
                "http://www.amuct.org/more/aifucto-conference/549-places-to-visit-in-and-around-mangalore"
            ],
            "locType": "village"
        },
        "venkatappa art gallery": {
            "closest_to": "kanakapura",
            "address": "Venkatappa Art Gallery, Kasturba Road, Shantala Nagar, MacIvor Town, Bengaluru, Bangalore Urban, Karnataka, 560001, India",
            "longitude": "77.5952077",
            "latitude": "12.9742592",
            "blogLinks": [
                "http://www.mapsofindia.com/karnataka/tourism/"
            ],
            "locType": "museum"
        },
        "malpe": {
            "closest_to": "mangalore",
            "address": "Malpe, Udupi taluku, Udupi district, Karnataka, India",
            "longitude": "74.7036914",
            "latitude": "13.3507423",
            "blogLinks": [
                "https://www.thrillophilia.com/places-to-visit-near-mangalore",
                "http://www.amuct.org/more/aifucto-conference/549-places-to-visit-in-and-around-mangalore"
            ],
            "locType": "village"
        },
        "kumara parvatha": {
            "closest_to": "mangalore",
            "address": "Kumara Parvatha, Somawarpet taluk, Kodagu, Karnataka, India",
            "longitude": "75.6865652",
            "latitude": "12.6623315",
            "blogLinks": [
                "http://www.amuct.org/more/aifucto-conference/549-places-to-visit-in-and-around-mangalore",
                "https://www.thrillophilia.com/bangalore-weekend-getaways"
            ],
            "locType": "peak"
        },
        "saavira kambada basadi": {
            "closest_to": "mangalore",
            "address": "Saavira Kambada Basadi, Solapur-Mangalore Highway, Miyyar, Karkala taluk, Udupi district, Karnataka, 574107, India",
            "longitude": "74.997675763839",
            "latitude": "13.0741706",
            "blogLinks": [
                "https://www.thrillophilia.com/places-to-visit-near-mangalore"
            ],
            "locType": "place_of_worship"
        },
        "kollegala": {
            "closest_to": "mangalore",
            "address": "Kollegal, Kollegala taluk, Chamarajanagar district, Karnataka, 571440, India",
            "longitude": "77.1114856",
            "latitude": "12.1548275",
            "blogLinks": [
                "http://wikitravel.org/en/Shivanasamudram"
            ],
            "locType": "town"
        },
        "sampige road": {
            "closest_to": "mangalore",
            "address": "Sampige Road, Turuvekere taluk, Tumkur district, Karnataka, India",
            "longitude": "76.7623002",
            "latitude": "13.2698532",
            "blogLinks": [
                "https://en.wikipedia.org/wiki/List_of_tourist_attractions_in_Bangalore"
            ],
            "locType": "hamlet"
        },
        "shimoga district of karnataka": {
            "closest_to": "mangalore",
            "address": "Shimoga district, Karnataka, India",
            "longitude": "75.1312533993886",
            "latitude": "14.0558284",
            "blogLinks": [
                "http://www.amuct.org/more/aifucto-conference/549-places-to-visit-in-and-around-mangalore"
            ],
            "locType": "administrative"
        },
        "kudlu falls": {
            "closest_to": "mangalore",
            "address": "Kudlu Falls Road, Karkala taluk, Udupi district, Karnataka, India",
            "longitude": "75.1058201",
            "latitude": "13.4228347",
            "blogLinks": [
                "https://www.thrillophilia.com/bangalore-weekend-getaways"
            ],
            "locType": "track"
        },
        "bylakuppe": {
            "closest_to": "mangalore",
            "address": "Bylakuppe, Piriyapattana taluk, Mysuru district, Karnataka, India",
            "longitude": "75.9953435",
            "latitude": "12.4292508",
            "blogLinks": [
                "http://www.amuct.org/more/aifucto-conference/549-places-to-visit-in-and-around-mangalore"
            ],
            "locType": "village"
        },
        "pearl valley": {
            "closest_to": "kanakapura",
            "address": "Muthyala Maduvu, SH35, Kalanayakanahalli, Bangalore Urban, Karnataka, 562106, India",
            "longitude": "77.6651109",
            "latitude": "12.686232",
            "blogLinks": [
                "http://goindia.about.com/od/cities/tp/attractions-around-bangalore.htm"
            ],
            "locType": "attraction"
        },
        "pandavapura": {
            "closest_to": "mangalore",
            "address": "Pandavapura, Pandavapura taluk, Mandya district, Karnataka, 571484, India",
            "longitude": "76.6731501",
            "latitude": "12.5011414",
            "blogLinks": [
                "https://www.thrillophilia.com/bangalore-weekend-getaways"
            ],
            "locType": "village"
        },
        "river nandini": {
            "closest_to": "mangalore",
            "address": "Nandini, Mangaluru taluk, Dakshina Kannada, Karnataka, India",
            "longitude": "74.8666758",
            "latitude": "13.0371395",
            "blogLinks": [
                "http://www.amuct.org/more/aifucto-conference/549-places-to-visit-in-and-around-mangalore"
            ],
            "locType": "river"
        },
        "ocean pearl": {
            "closest_to": "mangalore",
            "address": "The Ocean Pearl, PVS Road, Dongerkeri, Kudroli, Mangaluru, Mangaluru taluk, Dakshina Kannada, Karnataka, 575001, India",
            "longitude": "74.8404435070879",
            "latitude": "12.87531035",
            "blogLinks": [
                "http://wikitravel.org/en/Mangalore"
            ],
            "locType": "hotel"
        },
        "nilgiris": {
            "closest_to": "kanakapura",
            "address": "Nilgiris, Brigade Road, Tasker Town, Ashok Nagar, Bengaluru, Bangalore Urban, Karnataka, 560001, India",
            "longitude": "77.6069792",
            "latitude": "12.9725052",
            "blogLinks": [
                "https://www.tripoto.com/weekend-getaways/from-kanakapura"
            ],
            "locType": "supermarket"
        },
        "jamalabad fort": {
            "closest_to": "mangalore",
            "address": "Jamalabad Fort, NH73, Halepete, Beltangadi taluk, Dakshina Kannada, Karnataka, 574214, India",
            "longitude": "75.2958407",
            "latitude": "13.0273698",
            "blogLinks": [
                "https://www.thrillophilia.com/places-to-visit-near-mangalore"
            ],
            "locType": "attraction"
        },
        "nandi": {
            "closest_to": "mangalore",
            "address": "Nandi, Tarikere taluku, Chikkamagaluru district, Karnataka, India",
            "longitude": "75.8556266",
            "latitude": "13.6434094",
            "blogLinks": [
                "https://en.wikipedia.org/wiki/List_of_tourist_attractions_in_Bangalore",
                "https://www.quora.com/What-are-the-best-weekend-road-trips-from-Bangalore"
            ],
            "locType": "village"
        },
        "nagawara lake": {
            "closest_to": "kanakapura",
            "address": "Nagawara Lake, Outer Ring Road, Kanaka Nagar, Amarjyothi Nagara, Dasarahalli, Bangalore Urban, Karnataka, 560024, India",
            "longitude": "77.6090799713052",
            "latitude": "13.0449224",
            "blogLinks": [
                "https://en.wikipedia.org/wiki/List_of_tourist_attractions_in_Bangalore"
            ],
            "locType": "water"
        },
        "bhoga nandeeshwara temple": {
            "closest_to": "kanakapura",
            "address": "Bhoga Nandeeshwara Temple, SH74, Sultanapete, Chikkaballapura taluk, Chikkaballapura district, Karnataka, India",
            "longitude": "77.6981219363524",
            "latitude": "13.3867543",
            "blogLinks": [
                "http://goindia.about.com/od/cities/tp/attractions-around-bangalore.htm"
            ],
            "locType": "place_of_worship"
        },
        "kaveri": {
            "closest_to": "mangalore",
            "address": "Kaveri, Kollegala taluk, Chamarajanagar district, Karnataka, India",
            "longitude": "77.0635531",
            "latitude": "12.1687878",
            "blogLinks": [
                "https://www.quora.com/What-are-some-good-places-to-visit-near-bangalore-for-a-one-two-day-trip",
                "https://www.quora.com/What-are-the-best-weekend-road-trips-from-Bangalore"
            ],
            "locType": "river"
        },
        "nethravathi": {
            "closest_to": "kanakapura",
            "address": "Nethravathi, Hesarghatta Road, Singapura, Byalakere, Bangalore Urban, Karnataka, 560090, India",
            "longitude": "77.5424946",
            "latitude": "13.0898321",
            "blogLinks": [
                "http://www.amuct.org/more/aifucto-conference/549-places-to-visit-in-and-around-mangalore"
            ],
            "locType": "bus_stop"
        },
        "savandurga hill": {
            "closest_to": "mangalore",
            "address": "Savandurga, Magadi taluku, Ramanagara district, Karnataka, India",
            "longitude": "77.2977719",
            "latitude": "12.9159605",
            "blogLinks": [
                "http://goindia.about.com/od/cities/tp/attractions-around-bangalore.htm"
            ],
            "locType": "village"
        },
        "linganamakki reservoir": {
            "closest_to": "mangalore",
            "address": "Linganamakki Reservoir, Hosanagara taluk, Shimoga district, Karnataka, India",
            "longitude": "75.0410123818511",
            "latitude": "14.0035104",
            "blogLinks": [
                "https://www.thrillophilia.com/bangalore-weekend-getaways"
            ],
            "locType": "water"
        },
        "ulsoor": {
            "closest_to": "kanakapura",
            "address": "Halasuru, Bengaluru, Bangalore Urban, Karnataka, 560001, India",
            "longitude": "77.6246697",
            "latitude": "12.9778793",
            "blogLinks": [
                "https://en.wikipedia.org/wiki/List_of_tourist_attractions_in_Bangalore"
            ],
            "locType": "suburb"
        },
        "sangama": {
            "closest_to": "kanakapura",
            "address": "Sangam, SH92, Mahalli, Kanakapura taluk, Ramanagara district, Karnataka, India",
            "longitude": "77.4320447",
            "latitude": "12.2880428",
            "blogLinks": [
                "https://www.quora.com/What-are-some-good-places-to-visit-near-bangalore-for-a-one-two-day-trip",
                "https://www.travelblog.org/Asia/India/Karnataka/Kanakapura/blog-773863.html",
                "http://wikitravel.org/en/Shivanasamudram",
                "https://www.quora.com/What-are-the-best-weekend-road-trips-from-Bangalore"
            ],
            "locType": "attraction"
        },
        "panambur beach": {
            "closest_to": "mangalore",
            "address": "Panambur Beach, Panambur Beach Road, Gandhinagar, Panambur, Mangaluru taluk, Dakshina Kannada, Karnataka, 575013, India",
            "longitude": "74.8034667207214",
            "latitude": "12.93907195",
            "blogLinks": [
                "http://wikitravel.org/en/Mangalore"
            ],
            "locType": "beach"
        },
        "mangalore central station": {
            "closest_to": "mangalore",
            "address": "Mangalore Central, Railway Station Road, Pandeshwar, Attavar, Mangaluru, Mangaluru taluk, Dakshina Kannada, Karnataka, 575001, India",
            "longitude": "74.8432387",
            "latitude": "12.8634037",
            "blogLinks": [
                "http://wikitravel.org/en/Mangalore"
            ],
            "locType": "station"
        },
        "garden": {
            "closest_to": "kanakapura",
            "address": "garden, N Hosahalli, Hosakote taluk, Bangalore Rural, Karnataka, India",
            "longitude": "77.9285817637065",
            "latitude": "13.19253335",
            "blogLinks": [
                "http://www.mapsofindia.com/karnataka/tourism/"
            ],
            "locType": "orchard"
        },
        "bangalore": {
            "closest_to": "kanakapura",
            "address": "Bengaluru, Bangalore Urban, Karnataka, 560001, India",
            "longitude": "77.5912997",
            "latitude": "12.9791198",
            "blogLinks": [
                "https://www.thrillophilia.com/places-to-visit-near-mangalore",
                "http://www.nivalink.com/destination/mangalore",
                "https://www.quora.com/What-are-some-good-places-to-visit-near-bangalore-for-a-one-two-day-trip",
                "https://www.tripoto.com/weekend-getaways/from-kanakapura",
                "http://harishoutings.blogspot.com/2008/07/sangam-mekedatu-and-chunchi-falls.html",
                "https://www.tripoto.com/places-to-visit/india/bangalore",
                "https://en.wikipedia.org/wiki/List_of_tourist_attractions_in_Bangalore",
                "http://wikitravel.org/en/Mangalore",
                "http://www.amuct.org/more/aifucto-conference/549-places-to-visit-in-and-around-mangalore",
                "https://www.quora.com/What-are-the-best-weekend-road-trips-from-Bangalore",
                "http://wikitravel.org/en/Shivanasamudram",
                "http://goindia.about.com/od/cities/tp/attractions-around-bangalore.htm",
                "http://www.mapsofindia.com/karnataka/tourism/",
                "https://www.thrillophilia.com/bangalore-weekend-getaways"
            ],
            "locType": "city"
        },
        "bikarnakatte": {
            "closest_to": "mangalore",
            "address": "Bikarnakatte, Nanthoor, Mangaluru, Mangaluru taluk, Dakshina Kannada, Karnataka, 575001, India",
            "longitude": "74.8669178",
            "latitude": "12.8850245",
            "blogLinks": [
                "http://www.amuct.org/more/aifucto-conference/549-places-to-visit-in-and-around-mangalore"
            ],
            "locType": "neighbourhood"
        },
        "tumkur road": {
            "closest_to": "kanakapura",
            "address": "Tumkur Road, Goragunte Palya, Peenya, Bengaluru, Bangalore Urban, Karnataka, 560001, India",
            "longitude": "77.5360458",
            "latitude": "13.0311896",
            "blogLinks": [
                "https://www.tripoto.com/places-to-visit/india/bangalore"
            ],
            "locType": "trunk"
        },
        "jamalabad": {
            "closest_to": "mangalore",
            "address": "Jamalabad Fort, NH73, Halepete, Beltangadi taluk, Dakshina Kannada, Karnataka, 574214, India",
            "longitude": "75.2958407",
            "latitude": "13.0273698",
            "blogLinks": [
                "https://www.thrillophilia.com/places-to-visit-near-mangalore"
            ],
            "locType": "attraction"
        },
        "chittoor district": {
            "closest_to": "kanakapura",
            "address": "Bangalore-Chittoor road, Mulabagilu, Mulubagilu taluk, Kolar district, Karnataka, 563131, India",
            "longitude": "78.4044091",
            "latitude": "13.1560277",
            "blogLinks": [
                "https://www.quora.com/What-are-some-good-places-to-visit-near-bangalore-for-a-one-two-day-trip"
            ],
            "locType": "trunk"
        },
        "outer circle": {
            "closest_to": "kanakapura",
            "address": "Outer Circle, R. Narayanapura, Brookefields, Dodsworth Enclave, Bangalore Urban, Karnataka, 560066, India",
            "longitude": "77.7466932",
            "latitude": "12.9712183",
            "blogLinks": [
                "https://en.wikipedia.org/wiki/List_of_tourist_attractions_in_Bangalore"
            ],
            "locType": "tertiary"
        },
        "brindavan garden": {
            "closest_to": "mangalore",
            "address": "Brindavan Gardens, Krishnaraja Sagara Road, Krushnarajasagara, Srirangapattana taluk, Mandya district, Karnataka, India",
            "longitude": "76.5741029405883",
            "latitude": "12.4208084",
            "blogLinks": [
                "http://www.amuct.org/more/aifucto-conference/549-places-to-visit-in-and-around-mangalore"
            ],
            "locType": "garden"
        },
        "carmel hill": {
            "closest_to": "kanakapura",
            "address": "Mount Carmel College, Palace Road, Chakravarty Layout, Vasantnagar, Bengaluru, Bangalore Urban, Karnataka, 560001, India",
            "longitude": "77.5878579721226",
            "latitude": "12.99345635",
            "blogLinks": [
                "http://www.amuct.org/more/aifucto-conference/549-places-to-visit-in-and-around-mangalore"
            ],
            "locType": "college"
        },
        "kanakpura": {
            "closest_to": "kanakapura",
            "address": "H 902, Mantri Tranquil, Gubbalala, Off Kanakpura Road, Bengaluru - 61, Subramanyapura Main Road, Singapore Gardens, Uttarahalli, Gubbalala, Bangalore Urban, Karnataka, 560086, India",
            "longitude": "77.5438085908703",
            "latitude": "12.8866679",
            "blogLinks": [
                "http://harishoutings.blogspot.com/2008/07/sangam-mekedatu-and-chunchi-falls.html"
            ],
            "locType": "yes"
        },
        "andhra pradesh": {
            "closest_to": "kanakapura",
            "address": "Karnataka, West Mada Street, Srivari Temple, Tirumala, Chittoor, Andhra Pradesh, 517504, India",
            "longitude": "79.3452447",
            "latitude": "13.6841958",
            "blogLinks": [
                "https://www.quora.com/What-are-some-good-places-to-visit-near-bangalore-for-a-one-two-day-trip",
                "https://www.quora.com/What-are-the-best-weekend-road-trips-from-Bangalore"
            ],
            "locType": "hotel"
        },
        "mumbai": {
            "closest_to": "kanakapura",
            "address": "Mumbai Spice, 18/2, 10th Cross, Malleswaram, Vyalikaval, Malleswaram, Bengaluru, Bangalore Urban, Karnataka, 560003, India",
            "longitude": "77.5718472",
            "latitude": "13.0002869",
            "blogLinks": [
                "http://wikitravel.org/en/Mangalore"
            ],
            "locType": "restaurant"
        },
        "gurupur river": {
            "closest_to": "mangalore",
            "address": "Gurupur, Mangaluru taluk, Dakshina Kannada, Karnataka, India",
            "longitude": "74.9294914",
            "latitude": "12.9394527",
            "blogLinks": [
                "http://www.amuct.org/more/aifucto-conference/549-places-to-visit-in-and-around-mangalore"
            ],
            "locType": "village"
        },
        "ocean": {
            "closest_to": "kanakapura",
            "address": "Gayatri Ocean Blue Apartments, Thubarahalli, Siddapura, Bangalore Urban, Karnataka, 560066, India",
            "longitude": "77.7178261979437",
            "latitude": "12.95490595",
            "blogLinks": [
                "http://www.nivalink.com/destination/mangalore"
            ],
            "locType": "residential"
        },
        "pandeshwar": {
            "closest_to": "mangalore",
            "address": "Pandeshwar, Bunder, Mangaluru, Mangaluru taluk, Dakshina Kannada, Karnataka, 575001, India",
            "longitude": "74.8399736",
            "latitude": "12.8582212",
            "blogLinks": [
                "http://wikitravel.org/en/Mangalore"
            ],
            "locType": "neighbourhood"
        },
        "surathkal beach": {
            "closest_to": "mangalore",
            "address": "Surathkal Beach, Surathkal Beach Road, Mukka, Mangaluru taluk, Dakshina Kannada, Karnataka, 575025, India",
            "longitude": "74.7911237623544",
            "latitude": "12.99943005",
            "blogLinks": [
                "http://wikitravel.org/en/Mangalore",
                "https://www.thrillophilia.com/bangalore-weekend-getaways"
            ],
            "locType": "beach"
        },
        "chennakesava temple": {
            "closest_to": "mangalore",
            "address": "Chennakesava Temple, NH73, Navilahalli, Beluru taluk, Hassan district, Karnataka, India",
            "longitude": "75.8603311",
            "latitude": "13.1629239",
            "blogLinks": [
                "http://www.mapsofindia.com/karnataka/tourism/"
            ],
            "locType": "place_of_worship"
        },
        "salarpuria tech park": {
            "closest_to": "kanakapura",
            "address": "GR Salarpuria Tech Park, Kadugodi, Prashanth Extension, Bangalore Urban, Karnataka, 56066, India",
            "longitude": "77.7434450644033",
            "latitude": "12.98532455",
            "blogLinks": [
                "https://en.wikipedia.org/wiki/List_of_tourist_attractions_in_Bangalore"
            ],
            "locType": "commercial"
        },
        "nehru avenue": {
            "closest_to": "mangalore",
            "address": "Nehru Avenue, Lalbagh, Ladyhill, Mangaluru, Mangaluru taluk, Dakshina Kannada, Karnataka, 575001, India",
            "longitude": "74.8357306",
            "latitude": "12.8847426",
            "blogLinks": [
                "http://wikitravel.org/en/Mangalore"
            ],
            "locType": "tertiary"
        },
        "kadu malleshwara temple": {
            "closest_to": "kanakapura",
            "address": "Kadu Malleshwara Temple, Sampige Road, Vyalikaval, Malleswaram, Bengaluru, Bangalore Urban, Karnataka, 560001, India",
            "longitude": "77.5714462",
            "latitude": "13.004966",
            "blogLinks": [
                "https://en.wikipedia.org/wiki/List_of_tourist_attractions_in_Bangalore"
            ],
            "locType": "place_of_worship"
        },
        "pondicherry": {
            "closest_to": "kanakapura",
            "address": "Karnataka Bank, Mission Street, Grand Bazaar, Puducherry, Puducherry district, Puducherry, 605001, India",
            "longitude": "79.831569",
            "latitude": "11.9365727",
            "blogLinks": [
                "https://www.quora.com/What-are-some-good-places-to-visit-near-bangalore-for-a-one-two-day-trip",
                "https://www.thrillophilia.com/bangalore-weekend-getaways",
                "https://www.tripoto.com/weekend-getaways/from-kanakapura",
                "https://www.tripoto.com/places-to-visit/india/bangalore",
                "https://www.quora.com/What-are-the-best-weekend-road-trips-from-Bangalore"
            ],
            "locType": "bank"
        },
        "malleshwaram": {
            "closest_to": "kanakapura",
            "address": "Malleswaram, Bengaluru, Bangalore Urban, Karnataka, 560001, India",
            "longitude": "77.5703253",
            "latitude": "13.0027353",
            "blogLinks": [
                "https://en.wikipedia.org/wiki/List_of_tourist_attractions_in_Bangalore"
            ],
            "locType": "suburb"
        },
        "thippagondanahalli": {
            "closest_to": "mangalore",
            "address": "Thippagondanahalli, Channagiri taluku, Davanagere district, Karnataka, India",
            "longitude": "75.9468344",
            "latitude": "13.9900134",
            "blogLinks": [
                "https://www.quora.com/What-are-some-good-places-to-visit-near-bangalore-for-a-one-two-day-trip"
            ],
            "locType": "village"
        },
        "ganapathi": {
            "closest_to": "kanakapura",
            "address": "Ganapathi, 4th Cross Road, MSO Colony, Cooke Town, Bengaluru, Bangalore Urban, Karnataka, 560001, India",
            "longitude": "77.6297861",
            "latitude": "13.0015272",
            "blogLinks": [
                "http://www.amuct.org/more/aifucto-conference/549-places-to-visit-in-and-around-mangalore"
            ],
            "locType": "clockmaker"
        },
        "south of mangalore": {
            "closest_to": "mangalore",
            "address": "Karnataka Bank Head Office, Kankanady, Mangaluru, Mangaluru taluk, Dakshina Kannada, Karnataka, 575001, India",
            "longitude": "74.8632149706795",
            "latitude": "12.871537",
            "blogLinks": [
                "http://www.nivalink.com/destination/mangalore"
            ],
            "locType": "commercial"
        },
        "lalbagh rock": {
            "closest_to": "kanakapura",
            "address": "Lalbagh Rock, Siddapura Road, Mavalli, Someshwaranagar, Bengaluru, Bangalore Urban, Karnataka, 560001, India",
            "longitude": "77.5892075522266",
            "latitude": "12.94871895",
            "blogLinks": [
                "https://www.tripoto.com/places-to-visit/india/bangalore"
            ],
            "locType": "bare_rock"
        },
        "goa": {
            "closest_to": "kanakapura",
            "address": "Carnival De Goa, Bhaskaran Road, Gupta Layout, Halasuru, Bengaluru, Bangalore Urban, Karnataka, 560001, India",
            "longitude": "77.6200027",
            "latitude": "12.9750047",
            "blogLinks": [
                "http://wikitravel.org/en/Mangalore",
                "https://www.tripoto.com/weekend-getaways/from-kanakapura",
                "https://www.thrillophilia.com/bangalore-weekend-getaways"
            ],
            "locType": "restaurant"
        },
        "tagore park": {
            "closest_to": "kanakapura",
            "address": "Rabindranath Tagore Nagar, Bengaluru, Bangalore Urban, Karnataka, 560001, India",
            "longitude": "77.595715",
            "latitude": "13.0227204",
            "blogLinks": [
                "https://www.thrillophilia.com/places-to-visit-near-mangalore"
            ],
            "locType": "suburb"
        },
        "ghati subramanya": {
            "closest_to": "kanakapura",
            "address": "Subramanya Ghati Temple, SH9, Kelagina Juganahalli, Doddaballapura taluk, Bangalore Rural, Karnataka, India",
            "longitude": "77.5281425",
            "latitude": "13.408538",
            "blogLinks": [
                "https://www.thrillophilia.com/bangalore-weekend-getaways"
            ],
            "locType": "place_of_worship"
        },
        "yelhanka": {
            "closest_to": "kanakapura",
            "address": "Yelhanka Cafe Cofee Day, 3rd A Cross, Gandhinagar, Yelahanka New Town, Anantapura, Bangalore Urban, Karnataka, 560064, India",
            "longitude": "77.5880493",
            "latitude": "13.0992439",
            "blogLinks": [
                "https://www.thrillophilia.com/bangalore-weekend-getaways"
            ],
            "locType": "cafe"
        },
        "east": {
            "closest_to": "kanakapura",
            "address": "East, 43, Velankani Drive, Electronics City Phase 1, Doddathoguru, Bangalore Urban, Karnataka, 560100, India",
            "longitude": "77.6601401",
            "latitude": "12.8504319",
            "blogLinks": [
                "https://www.thrillophilia.com/places-to-visit-near-mangalore"
            ],
            "locType": "restaurant"
        },
        "lighthouse hill": {
            "closest_to": "mangalore",
            "address": "Kapu Lighthouse, NH66, Mallaru, Udupi taluku, Udupi district, Karnataka, India",
            "longitude": "74.7367936",
            "latitude": "13.2239132",
            "blogLinks": [
                "http://www.amuct.org/more/aifucto-conference/549-places-to-visit-in-and-around-mangalore"
            ],
            "locType": "lighthouse"
        },
        "gokarna": {
            "closest_to": "mangalore",
            "address": "Gokarna, Kumata taluk, Uttara Kannada, Karnataka, 581326, India",
            "longitude": "74.3184418",
            "latitude": "14.5439629",
            "blogLinks": [
                "http://www.amuct.org/more/aifucto-conference/549-places-to-visit-in-and-around-mangalore",
                "http://www.mapsofindia.com/karnataka/tourism/",
                "https://www.thrillophilia.com/bangalore-weekend-getaways"
            ],
            "locType": "town"
        },
        "india": {
            "closest_to": "mangalore",
            "address": "Karnataka, India",
            "longitude": "75.7223521",
            "latitude": "14.5203896",
            "blogLinks": [
                "https://en.wikipedia.org/wiki/Kanakapura",
                "https://www.thrillophilia.com/places-to-visit-near-mangalore",
                "http://www.nivalink.com/destination/mangalore",
                "https://www.quora.com/What-are-some-good-places-to-visit-near-bangalore-for-a-one-two-day-trip",
                "http://distancecalculator.globefeed.com/India_Distance_Calculator.asp?state=19",
                "https://www.tripoto.com/weekend-getaways/from-kanakapura",
                "https://en.wikipedia.org/wiki/List_of_tourist_attractions_in_Bangalore",
                "https://www.tripoto.com/places-to-visit/india/bangalore",
                "http://wikitravel.org/en/Mangalore",
                "http://www.amuct.org/more/aifucto-conference/549-places-to-visit-in-and-around-mangalore",
                "https://www.quora.com/What-are-the-best-weekend-road-trips-from-Bangalore",
                "http://wikitravel.org/en/Shivanasamudram",
                "http://goindia.about.com/od/cities/tp/attractions-around-bangalore.htm",
                "http://www.mapsofindia.com/karnataka/tourism/",
                "https://www.thrillophilia.com/bangalore-weekend-getaways"
            ],
            "locType": "administrative"
        },
        "mangalore mangalore": {
            "closest_to": "mangalore",
            "address": "Bharti Shipyard Limited, Mangalore, Mangaluru, Mangaluru taluk, Dakshina Kannada, Karnataka, 575001, India",
            "longitude": "74.8227040793795",
            "latitude": "12.87337955",
            "blogLinks": [
                "http://www.amuct.org/more/aifucto-conference/549-places-to-visit-in-and-around-mangalore"
            ],
            "locType": "boatyard"
        },
        "ulsoor lake": {
            "closest_to": "kanakapura",
            "address": "Halasuru lake, Annaswamy Mudaliar Road, Kothandram Layout, Halasuru, Bengaluru, Bangalore Urban, Karnataka, 560001, India",
            "longitude": "77.6191669052984",
            "latitude": "12.9823891",
            "blogLinks": [
                "http://www.mapsofindia.com/karnataka/tourism/"
            ],
            "locType": "water"
        },
        "temple square": {
            "closest_to": "mangalore",
            "address": "Temple Square, Dongerkeri, Bunder, Mangaluru, Mangaluru taluk, Dakshina Kannada, Karnataka, 575001, India",
            "longitude": "74.8381033",
            "latitude": "12.869703",
            "blogLinks": [
                "http://wikitravel.org/en/Mangalore"
            ],
            "locType": "tertiary_link"
        },
        "harangi dam": {
            "closest_to": "mangalore",
            "address": "Harangi dam, Somawarpet taluk, Kodagu, Karnataka, India",
            "longitude": "75.9056999171375",
            "latitude": "12.4928663",
            "blogLinks": [
                "http://www.amuct.org/more/aifucto-conference/549-places-to-visit-in-and-around-mangalore"
            ],
            "locType": "dam"
        },
        "big lake": {
            "closest_to": "kanakapura",
            "address": "Big Bazaar, Subrahmanya Nagar, Bengaluru, Bangalore Urban, Karnataka, 560001, India",
            "longitude": "77.5534616",
            "latitude": "13.0122674",
            "blogLinks": [
                "https://www.thrillophilia.com/bangalore-weekend-getaways"
            ],
            "locType": "retail"
        },
        "river kaveri": {
            "closest_to": "mangalore",
            "address": "Kaveri, Kollegala taluk, Chamarajanagar district, Karnataka, India",
            "longitude": "77.0635531",
            "latitude": "12.1687878",
            "blogLinks": [
                "https://www.tripoto.com/weekend-getaways/from-kanakapura",
                "http://goindia.about.com/od/cities/tp/attractions-around-bangalore.htm"
            ],
            "locType": "river"
        },
        "ibaco": {
            "closest_to": "kanakapura",
            "address": "ibaco, 12, Wood Street, Shantala Nagar, Ashok Nagar, Bengaluru, Bangalore Urban, Karnataka, 560051, India",
            "longitude": "77.6066202",
            "latitude": "12.9675888",
            "blogLinks": [
                "https://www.tripoto.com/weekend-getaways/from-kanakapura"
            ],
            "locType": "fast_food"
        },
        "mekedaatu": {
            "closest_to": "kanakapura",
            "address": "Mekedatu, SH92, Mahalli, Kanakapura taluk, Ramanagara district, Karnataka, India",
            "longitude": "77.4475194",
            "latitude": "12.2584997",
            "blogLinks": [
                "https://www.quora.com/What-are-some-good-places-to-visit-near-bangalore-for-a-one-two-day-trip"
            ],
            "locType": "attraction"
        },
        "jayamangali": {
            "closest_to": "mangalore",
            "address": "Jayamangali, Koratagere taluku, Tumkur district, Karnataka, India",
            "longitude": "77.2943429",
            "latitude": "13.5646266",
            "blogLinks": [
                "https://en.wikipedia.org/wiki/List_of_tourist_attractions_in_Bangalore"
            ],
            "locType": "river"
        },
        "hebbal": {
            "closest_to": "kanakapura",
            "address": "Hebbal, Bengaluru, Bangalore Urban, Karnataka, 560001, India",
            "longitude": "77.5919",
            "latitude": "13.0382184",
            "blogLinks": [
                "https://en.wikipedia.org/wiki/List_of_tourist_attractions_in_Bangalore"
            ],
            "locType": "suburb"
        },
        "taluk": {
            "closest_to": "mangalore",
            "address": "Karnataka, Shalivahana Road, Nazarbad, Mysuru, Mysuru taluk, Mysuru district, Karnataka, 570001, India",
            "longitude": "76.6639936",
            "latitude": "12.3084901",
            "blogLinks": [
                "https://www.tripoto.com/places-to-visit/india/bangalore"
            ],
            "locType": "atm"
        },
        "kabini": {
            "closest_to": "mangalore",
            "address": "Kabini, Heggadadevanakote taluk, Mysuru district, Karnataka, India",
            "longitude": "76.4152088",
            "latitude": "12.0140065",
            "blogLinks": [
                "https://www.thrillophilia.com/bangalore-weekend-getaways",
                "https://www.quora.com/What-are-the-best-weekend-road-trips-from-Bangalore"
            ],
            "locType": "river"
        },
        "sangam": {
            "closest_to": "kanakapura",
            "address": "Sangam, FM Cariappa Road (Residency Road), Shantala Nagar, MacIvor Town, Bengaluru, Bangalore Urban, Karnataka, 560001, India",
            "longitude": "77.6065672",
            "latitude": "12.9718928",
            "blogLinks": [
                "https://www.travelblog.org/Asia/India/Karnataka/Kanakapura/blog-773863.html",
                "http://harishoutings.blogspot.com/2008/07/sangam-mekedatu-and-chunchi-falls.html"
            ],
            "locType": "restaurant"
        },
        "brindavan gardens": {
            "closest_to": "mangalore",
            "address": "Brindavan Gardens, Krishnaraja Sagara Road, Krushnarajasagara, Srirangapattana taluk, Mandya district, Karnataka, India",
            "longitude": "76.5741029405883",
            "latitude": "12.4208084",
            "blogLinks": [
                "https://en.wikipedia.org/wiki/List_of_tourist_attractions_in_Bangalore"
            ],
            "locType": "garden"
        },
        "dakshina kannada district": {
            "closest_to": "mangalore",
            "address": "Dakshina Kannada, Karnataka, India",
            "longitude": "74.9813132",
            "latitude": "12.9324457",
            "blogLinks": [
                "http://wikitravel.org/en/Mangalore"
            ],
            "locType": "county"
        },
        "lalbagh road": {
            "closest_to": "kanakapura",
            "address": "Lalbagh Road, Sampangirama Nagar, Shanti Nagar, Bengaluru, Bangalore Urban, Karnataka, 560001, India",
            "longitude": "77.5944909",
            "latitude": "12.9622325",
            "blogLinks": [
                "https://www.quora.com/What-are-some-good-places-to-visit-near-bangalore-for-a-one-two-day-trip"
            ],
            "locType": "primary"
        },
        "yeyyadi": {
            "closest_to": "mangalore",
            "address": "Yeyyadi, Konchady, Mangaluru taluk, Dakshina Kannada, Karnataka, India",
            "longitude": "74.861564",
            "latitude": "12.8979468",
            "blogLinks": [
                "http://wikitravel.org/en/Mangalore"
            ],
            "locType": "suburb"
        },
        "koramangala": {
            "closest_to": "kanakapura",
            "address": "Koramangala, Devanahalli taluk, Bangalore Rural, Karnataka, India",
            "longitude": "77.7519261",
            "latitude": "13.2923988",
            "blogLinks": [
                "https://en.wikipedia.org/wiki/List_of_tourist_attractions_in_Bangalore"
            ],
            "locType": "village"
        },
        "mangalore airport": {
            "closest_to": "mangalore",
            "address": "Mangalore International Airport, Airport Entry Road, Gandhinagar, Kenjar, Mangaluru taluk, Dakshina Kannada, Karnataka, 575015, India",
            "longitude": "74.887492668144",
            "latitude": "12.95518575",
            "blogLinks": [
                "https://www.thrillophilia.com/places-to-visit-near-mangalore",
                "http://www.nivalink.com/destination/mangalore"
            ],
            "locType": "aerodrome"
        },
        "chikkaballapur": {
            "closest_to": "kanakapura",
            "address": "Chikkaballapura, Chikkaballapura taluk, Chikkaballapura district, Karnataka, 562101, India",
            "longitude": "77.7306866",
            "latitude": "13.4352549",
            "blogLinks": [
                "https://en.wikipedia.org/wiki/List_of_tourist_attractions_in_Bangalore"
            ],
            "locType": "town"
        },
        "puttur": {
            "closest_to": "mangalore",
            "address": "Putturu, Putturu taluk, Dakshina Kannada, Karnataka, 574200, India",
            "longitude": "75.2018421",
            "latitude": "12.7632858",
            "blogLinks": [
                "http://wikitravel.org/en/Mangalore"
            ],
            "locType": "town"
        },
        "avalabetta": {
            "closest_to": "kanakapura",
            "address": "Avalabetta, Chikkaballapura taluk, Chikkaballapura district, Karnataka, India",
            "longitude": "77.6730413",
            "latitude": "13.5775096",
            "blogLinks": [
                "https://www.quora.com/What-are-the-best-weekend-road-trips-from-Bangalore"
            ],
            "locType": "peak"
        },
        "gurupur": {
            "closest_to": "mangalore",
            "address": "Gurupur, Mangaluru taluk, Dakshina Kannada, Karnataka, India",
            "longitude": "74.9294914",
            "latitude": "12.9394527",
            "blogLinks": [
                "http://www.amuct.org/more/aifucto-conference/549-places-to-visit-in-and-around-mangalore",
                "http://wikitravel.org/en/Mangalore"
            ],
            "locType": "village"
        },
        "sri subramanya": {
            "closest_to": "mangalore",
            "address": "Sri Subramanya, NH766C;SH26, Halkal, \u0c95\u0cc1\u0c82\u0ca6\u0cbe\u0caa\u0cc1\u0cb0 \u0ca4\u0cbe\u0cb2\u0cc2\u0c95\u0cc1, Udupi district, Karnataka, 576220, India",
            "longitude": "74.8148156",
            "latitude": "13.8637597",
            "blogLinks": [
                "https://www.thrillophilia.com/places-to-visit-near-mangalore"
            ],
            "locType": "place_of_worship"
        },
        "ullal": {
            "closest_to": "mangalore",
            "address": "Ullal, Mangaluru taluk, Dakshina Kannada, Karnataka, 574159, India",
            "longitude": "74.8407018",
            "latitude": "12.8201288",
            "blogLinks": [
                "http://www.amuct.org/more/aifucto-conference/549-places-to-visit-in-and-around-mangalore",
                "http://wikitravel.org/en/Mangalore"
            ],
            "locType": "town"
        },
        "mangalore junction": {
            "closest_to": "mangalore",
            "address": "Mangalore Junction, NH73, Padil, Kodakal, Mangaluru taluk, Dakshina Kannada, Karnataka, 575007, India",
            "longitude": "74.8795068",
            "latitude": "12.8664586",
            "blogLinks": [
                "http://wikitravel.org/en/Mangalore"
            ],
            "locType": "station"
        },
        "bagmane tech park": {
            "closest_to": "kanakapura",
            "address": "Bagmane Tech Park, GM Palya, Benniganahalli, Bangalore Urban, Karnataka, 560075, India",
            "longitude": "77.658890396994",
            "latitude": "12.9787884",
            "blogLinks": [
                "https://en.wikipedia.org/wiki/List_of_tourist_attractions_in_Bangalore"
            ],
            "locType": "commercial"
        },
        "ramanagar": {
            "closest_to": "mangalore",
            "address": "Ramanagar-Kanakapura Road, Avverahalli, Ramanagara taluk, Ramanagara district, Karnataka, 562159, India",
            "longitude": "77.3418018",
            "latitude": "12.649356",
            "blogLinks": [
                "https://en.wikipedia.org/wiki/Kanakapura",
                "https://www.tripoto.com/weekend-getaways/from-kanakapura"
            ],
            "locType": "primary"
        },
        "oman": {
            "closest_to": "kanakapura",
            "address": "Oman Topaz, Iblur, Bengaluru, Bangalore Urban, Karnataka, 560001, India",
            "longitude": "77.6521686538304",
            "latitude": "12.92462395",
            "blogLinks": [
                "http://wikitravel.org/en/Mangalore"
            ],
            "locType": "residential"
        },
        "dubare elephant camp": {
            "closest_to": "mangalore",
            "address": "Dubare Elephant Camp, SH91, Dodda Bettageri, Somawarpet taluk, Kodagu, Karnataka, India",
            "longitude": "75.9066719",
            "latitude": "12.3716865",
            "blogLinks": [
                "https://www.tripoto.com/weekend-getaways/from-kanakapura"
            ],
            "locType": "attraction"
        },
        "bangalore-mangalore highway": {
            "closest_to": "mangalore",
            "address": "Bangalore Mangalore Highway, Irubanahalli, Nagamangala taluk, Mandya district, Karnataka, India",
            "longitude": "76.7990601",
            "latitude": "12.9699132",
            "blogLinks": [
                "https://www.quora.com/What-are-the-best-weekend-road-trips-from-Bangalore"
            ],
            "locType": "trunk"
        },
        "sharadamba": {
            "closest_to": "kanakapura",
            "address": "Sharadamba Temple, 7th Main Road, Yediyur, Thyagaraja Nagar, Bengaluru, Bangalore Urban, Karnataka, 560001, India",
            "longitude": "77.5656194",
            "latitude": "12.9321898",
            "blogLinks": [
                "http://www.amuct.org/more/aifucto-conference/549-places-to-visit-in-and-around-mangalore"
            ],
            "locType": "place_of_worship"
        },
        "kudle beach": {
            "closest_to": "mangalore",
            "address": "Kudle Beach, Om beach road, Gokarna, Kumata taluk, Uttara Kannada, Karnataka, 581326, India",
            "longitude": "74.3156783937192",
            "latitude": "14.5281015",
            "blogLinks": [
                "http://www.amuct.org/more/aifucto-conference/549-places-to-visit-in-and-around-mangalore",
                "https://www.thrillophilia.com/bangalore-weekend-getaways"
            ],
            "locType": "beach"
        },
        "mahalakshmi temple": {
            "closest_to": "mangalore",
            "address": "Mahalakshmi Temple, Soppugudde Main Road, Soppugudde, Tirthahalli, Tirthahalli taluk, Shimoga district, Karnataka, 577432, India",
            "longitude": "75.2513776",
            "latitude": "13.7088748",
            "blogLinks": [
                "https://en.wikipedia.org/wiki/List_of_tourist_attractions_in_Bangalore"
            ],
            "locType": "place_of_worship"
        },
        "karanataka": {
            "closest_to": "kanakapura",
            "address": "North Karanataka mess, Dr. Vishnuvardhan Road, Seven Hills Layout, Chikkalasandra, Bengaluru, Bangalore Urban, Karnataka, 560001, India",
            "longitude": "77.5499084",
            "latitude": "12.9094097",
            "blogLinks": [
                "https://www.thrillophilia.com/bangalore-weekend-getaways"
            ],
            "locType": "fast_food"
        },
        "mudipu": {
            "closest_to": "mangalore",
            "address": "Mudipu, Bantwal taluk, Dakshina Kannada, Karnataka, India",
            "longitude": "74.9662656",
            "latitude": "12.796291",
            "blogLinks": [
                "http://www.amuct.org/more/aifucto-conference/549-places-to-visit-in-and-around-mangalore"
            ],
            "locType": "village"
        },
        "mayo hall": {
            "closest_to": "kanakapura",
            "address": "Mayo Hall, Mahatma Gandhi Road, Tasker Town, Ashok Nagar, Bengaluru, Bangalore Urban, Karnataka, 560001, India",
            "longitude": "77.610707574506",
            "latitude": "12.9741169",
            "blogLinks": [
                "https://en.wikipedia.org/wiki/List_of_tourist_attractions_in_Bangalore"
            ],
            "locType": "attraction"
        },
        "kanakapura": {
            "closest_to": "mangalore",
            "address": "Kanakapura, Kanakapura taluk, Ramanagara district, Karnataka, 562117, India",
            "longitude": "77.4199095",
            "latitude": "12.5450268",
            "blogLinks": [
                "https://en.wikipedia.org/wiki/Kanakapura",
                "https://www.quora.com/What-are-some-good-places-to-visit-near-bangalore-for-a-one-two-day-trip",
                "https://www.tripoto.com/weekend-getaways/from-kanakapura",
                "https://en.wikipedia.org/wiki/List_of_tourist_attractions_in_Bangalore",
                "https://www.tripoto.com/places-to-visit/india/bangalore",
                "https://www.quora.com/What-are-the-best-weekend-road-trips-from-Bangalore",
                "https://www.travelblog.org/Asia/India/Karnataka/Kanakapura/blog-773863.html",
                "http://wikitravel.org/en/Shivanasamudram",
                "https://www.thrillophilia.com/bangalore-weekend-getaways"
            ],
            "locType": "town"
        },
        "venkataramana temple": {
            "closest_to": "kanakapura",
            "address": "Venkataramana Temple, 20th Cross Road, Anantnagar, Sampige Nagara, Bangalore Urban, Karnataka, 560099, India",
            "longitude": "77.6895365754579",
            "latitude": "12.8380349",
            "blogLinks": [
                "http://wikitravel.org/en/Mangalore"
            ],
            "locType": "place_of_worship"
        },
        "bahubali": {
            "closest_to": "mangalore",
            "address": "Bahubali Statue, SH8, Shravanabelagola, Channarayapattana taluk, Hassan district, Karnataka, 573135, India",
            "longitude": "76.4846128",
            "latitude": "12.8540505",
            "blogLinks": [
                "https://www.thrillophilia.com/places-to-visit-near-mangalore",
                "http://www.amuct.org/more/aifucto-conference/549-places-to-visit-in-and-around-mangalore",
                "http://www.nivalink.com/destination/mangalore"
            ],
            "locType": "place_of_worship"
        },
        "alangar": {
            "closest_to": "mangalore",
            "address": "Alangar, Mangaluru taluk, Dakshina Kannada, Karnataka, India",
            "longitude": "74.9960022",
            "latitude": "13.0833117",
            "blogLinks": [
                "http://www.amuct.org/more/aifucto-conference/549-places-to-visit-in-and-around-mangalore"
            ],
            "locType": "village"
        },
        "tamil nadu": {
            "closest_to": "kanakapura",
            "address": "KARNATAKA BANK, Diwan Bhadur Road, Five Corner, RS Puram, Coimbatore, Coimbatore district, Tamil Nadu, 641001, India",
            "longitude": "76.9514152",
            "latitude": "11.0025894",
            "blogLinks": [
                "https://www.thrillophilia.com/bangalore-weekend-getaways",
                "https://www.tripoto.com/weekend-getaways/from-kanakapura",
                "https://www.quora.com/What-are-the-best-weekend-road-trips-from-Bangalore"
            ],
            "locType": "bank"
        },
        "kannada": {
            "closest_to": "mangalore",
            "address": "Dakshina Kannada, Karnataka, India",
            "longitude": "75.1008028650794",
            "latitude": "12.8114089",
            "blogLinks": [
                "https://www.thrillophilia.com/places-to-visit-near-mangalore",
                "https://www.quora.com/What-are-some-good-places-to-visit-near-bangalore-for-a-one-two-day-trip",
                "http://harishoutings.blogspot.com/2008/07/sangam-mekedatu-and-chunchi-falls.html",
                "http://www.amuct.org/more/aifucto-conference/549-places-to-visit-in-and-around-mangalore",
                "https://www.quora.com/What-are-the-best-weekend-road-trips-from-Bangalore",
                "https://www.travelblog.org/Asia/India/Karnataka/Kanakapura/blog-773863.html"
            ],
            "locType": "administrative"
        },
        "earth": {
            "closest_to": "kanakapura",
            "address": "Bharat Earth Movers Limited - BEML, GM Palya, Bengaluru, Bangalore Urban, Karnataka, 560001, India",
            "longitude": "77.659986649248",
            "latitude": "12.9740596",
            "blogLinks": [
                "https://www.tripoto.com/weekend-getaways/from-kanakapura"
            ],
            "locType": "industrial"
        },
        "brahmagiri peak": {
            "closest_to": "mangalore",
            "address": "Brahmagiri, Madikeri taluku, Kodagu, Karnataka, India",
            "longitude": "75.490746",
            "latitude": "12.3868578",
            "blogLinks": [
                "https://www.tripoto.com/weekend-getaways/from-kanakapura"
            ],
            "locType": "peak"
        },
        "emerald lake": {
            "closest_to": "kanakapura",
            "address": "Emerald Isle Resort, NH75, Lakshmisagara, Kolar taluk, Kolar district, Karnataka, 563133, India",
            "longitude": "77.8188013",
            "latitude": "13.0833534",
            "blogLinks": [
                "https://www.tripoto.com/weekend-getaways/from-kanakapura"
            ],
            "locType": "hotel"
        },
        "yellapur": {
            "closest_to": "mangalore",
            "address": "Yellapura, Yallapura taluk, Uttara Kannada, Karnataka, 581359, India",
            "longitude": "74.7061458",
            "latitude": "14.9622518",
            "blogLinks": [
                "https://www.quora.com/What-are-some-good-places-to-visit-near-bangalore-for-a-one-two-day-trip"
            ],
            "locType": "town"
        },
        "anekal": {
            "closest_to": "kanakapura",
            "address": "Anekal, Bangalore Urban, Karnataka, 562106, India",
            "longitude": "77.6993972",
            "latitude": "12.7086373",
            "blogLinks": [
                "https://en.wikipedia.org/wiki/List_of_tourist_attractions_in_Bangalore",
                "http://goindia.about.com/od/cities/tp/attractions-around-bangalore.htm"
            ],
            "locType": "town"
        },
        "mahabaleshwara temple": {
            "closest_to": "kanakapura",
            "address": "Mahabaleshwara Temple, Mission Road (Kalinga Rao Road ), Sampangirama Nagar, Shanti Nagar, Bengaluru, Bangalore Urban, Karnataka, 560001, India",
            "longitude": "77.5899749843004",
            "latitude": "12.96264945",
            "blogLinks": [
                "http://www.amuct.org/more/aifucto-conference/549-places-to-visit-in-and-around-mangalore"
            ],
            "locType": "place_of_worship"
        },
        "balmatta": {
            "closest_to": "mangalore",
            "address": "Balmatta Cross Road, Dongerkeri, Attavar, Mangaluru, Mangaluru taluk, Dakshina Kannada, Karnataka, 575001, India",
            "longitude": "74.8464219",
            "latitude": "12.8705202",
            "blogLinks": [
                "http://wikitravel.org/en/Mangalore"
            ],
            "locType": "primary"
        },
        "chandramouleshwara": {
            "closest_to": "mangalore",
            "address": "Chandramouleshwara Temple, Edapally - Panvel Highway, Kolnad, Karnad, Padu Panambur, Mangaluru taluk, Dakshina Kannada, Karnataka, 575025, India",
            "longitude": "74.8024264",
            "latitude": "13.0636768",
            "blogLinks": [
                "https://www.thrillophilia.com/places-to-visit-near-mangalore"
            ],
            "locType": "place_of_worship"
        },
        "venkateshwara temple": {
            "closest_to": "kanakapura",
            "address": "Venkateshwara Temple, C J Venkatesa Das Road, Seven Hills Layout, Padmanabha Nagar, Bengaluru, Bangalore Urban, Karnataka, 560001, India",
            "longitude": "77.5588384",
            "latitude": "12.9167091",
            "blogLinks": [
                "https://www.tripoto.com/places-to-visit/india/bangalore"
            ],
            "locType": "place_of_worship"
        },
        "halebid": {
            "closest_to": "mangalore",
            "address": "Halebidu, Beluru taluk, Hassan district, Karnataka, 573121, India",
            "longitude": "75.9918793",
            "latitude": "13.2167959",
            "blogLinks": [
                "http://www.mapsofindia.com/karnataka/tourism/"
            ],
            "locType": "village"
        },
        "kankanady": {
            "closest_to": "mangalore",
            "address": "Kankanady, Mangaluru, Mangaluru taluk, Dakshina Kannada, Karnataka, 575001, India",
            "longitude": "74.8600033",
            "latitude": "12.8646481",
            "blogLinks": [
                "http://wikitravel.org/en/Mangalore"
            ],
            "locType": "suburb"
        },
        "moodabidri": {
            "closest_to": "mangalore",
            "address": "Moodabidri, Mangaluru taluk, Dakshina Kannada, Karnataka, 574227, India",
            "longitude": "74.9977469",
            "latitude": "13.0699218",
            "blogLinks": [
                "https://www.thrillophilia.com/places-to-visit-near-mangalore",
                "http://www.amuct.org/more/aifucto-conference/549-places-to-visit-in-and-around-mangalore",
                "http://wikitravel.org/en/Mangalore"
            ],
            "locType": "town"
        },
        "salem": {
            "closest_to": "kanakapura",
            "address": "Salem Kitchen, 1st Main Road, AECS Layout B Block, Brookefields, Siddapura, Bangalore Urban, Karnataka, 560066, India",
            "longitude": "77.717708",
            "latitude": "12.9645529",
            "blogLinks": [
                "https://www.thrillophilia.com/bangalore-weekend-getaways"
            ],
            "locType": "restaurant"
        },
        "udupi railway station": {
            "closest_to": "mangalore",
            "address": "Udupi Railway Station, Railway Godown Road, Indrali, Udupi, Udupi taluku, Udupi district, Karnataka, 576101, India",
            "longitude": "74.7710217",
            "latitude": "13.3360878",
            "blogLinks": [
                "https://www.thrillophilia.com/places-to-visit-near-mangalore"
            ],
            "locType": "station"
        },
        "kudremukh": {
            "closest_to": "mangalore",
            "address": "Kudremukha, Mudigere taluk, Chikkamagaluru district, Karnataka, India",
            "longitude": "75.2523304",
            "latitude": "13.2144007",
            "blogLinks": [
                "https://www.thrillophilia.com/places-to-visit-near-mangalore"
            ],
            "locType": "village"
        },
        "dubai": {
            "closest_to": "kanakapura",
            "address": "Dubai Plaza, Rest House Road, Shantala Nagar, Ashok Nagar, Bengaluru, Bangalore Urban, Karnataka, 560001, India",
            "longitude": "77.6067717",
            "latitude": "12.9737065",
            "blogLinks": [
                "http://wikitravel.org/en/Mangalore"
            ],
            "locType": "gift"
        },
        "mangaladevi temple": {
            "closest_to": "mangalore",
            "address": "Shri Mangaladevi Temple, Mangala Devi Temple Road, Mulihitlu, Bolar, Mangaluru, Mangaluru taluk, Dakshina Kannada, Karnataka, 575001, India",
            "longitude": "74.8452646984836",
            "latitude": "12.84923455",
            "blogLinks": [
                "http://www.nivalink.com/destination/mangalore"
            ],
            "locType": "place_of_worship"
        },
        "bharath mall": {
            "closest_to": "mangalore",
            "address": "Bharath Mall, Bejai Kavoor Road, Kuntikan, Ladyhill, Mangaluru, Mangaluru taluk, Dakshina Kannada, Karnataka, 575001, India",
            "longitude": "74.8409906244172",
            "latitude": "12.8864571",
            "blogLinks": [
                "http://wikitravel.org/en/Mangalore"
            ],
            "locType": "mall"
        },
        "srirangapatna": {
            "closest_to": "mangalore",
            "address": "Srirangapatna, Srirangapattana taluk, Mandya district, Karnataka, 571438, India",
            "longitude": "76.6850743",
            "latitude": "12.4225604",
            "blogLinks": [
                "https://www.tripoto.com/places-to-visit/india/bangalore",
                "https://www.quora.com/What-are-the-best-weekend-road-trips-from-Bangalore"
            ],
            "locType": "town"
        },
        "malavalli": {
            "closest_to": "mangalore",
            "address": "Malavalli, Malavalli taluk, Mandya district, Karnataka, 571430, India",
            "longitude": "77.0589464",
            "latitude": "12.3864073",
            "blogLinks": [
                "http://wikitravel.org/en/Shivanasamudram"
            ],
            "locType": "town"
        },
        "river phalguni": {
            "closest_to": "mangalore",
            "address": "Gurupura - Phalguni, Bantwal taluk, Dakshina Kannada, Karnataka, India",
            "longitude": "75.0304308",
            "latitude": "13.005679",
            "blogLinks": [
                "https://www.thrillophilia.com/places-to-visit-near-mangalore"
            ],
            "locType": "river"
        },
        "netravati river": {
            "closest_to": "mangalore",
            "address": "Netravati, Bantwal taluk, Dakshina Kannada, Karnataka, India",
            "longitude": "75.1562182",
            "latitude": "12.8537655",
            "blogLinks": [
                "http://wikitravel.org/en/Mangalore"
            ],
            "locType": "river"
        },
        "yelahanka": {
            "closest_to": "kanakapura",
            "address": "Yelahanka, Jakkur, Bangalore Urban, Karnataka, India",
            "longitude": "77.5963454",
            "latitude": "13.1006982",
            "blogLinks": [
                "https://en.wikipedia.org/wiki/List_of_tourist_attractions_in_Bangalore"
            ],
            "locType": "suburb"
        },
        "mysore": {
            "closest_to": "mangalore",
            "address": "Mysuru, Mysuru taluk, Mysuru district, Karnataka, 570001, India",
            "longitude": "76.6553609",
            "latitude": "12.3051828",
            "blogLinks": [
                "https://www.quora.com/What-are-some-good-places-to-visit-near-bangalore-for-a-one-two-day-trip",
                "https://en.wikipedia.org/wiki/List_of_tourist_attractions_in_Bangalore",
                "https://www.quora.com/What-are-the-best-weekend-road-trips-from-Bangalore"
            ],
            "locType": "city"
        },
        "botanical gardens": {
            "closest_to": "kanakapura",
            "address": "Botanical Garden, Cart road, Judicial Layout, Jakkur, Bangalore Urban, Karnataka, 560065, India",
            "longitude": "77.5744817798899",
            "latitude": "13.08099125",
            "blogLinks": [
                "https://www.tripoto.com/weekend-getaways/from-kanakapura"
            ],
            "locType": "protected_area"
        },
        "deralakatte": {
            "closest_to": "mangalore",
            "address": "Deralakatte, Mangaluru taluk, Dakshina Kannada, Karnataka, India",
            "longitude": "74.8982397",
            "latitude": "12.809008",
            "blogLinks": [
                "http://wikitravel.org/en/Mangalore"
            ],
            "locType": "village"
        },
        "sakleshpur": {
            "closest_to": "mangalore",
            "address": "Sakaleshpura, Sakaleshapura taluk, Hassan district, Karnataka, 573134, India",
            "longitude": "75.7862318",
            "latitude": "12.9434349",
            "blogLinks": [
                "https://www.quora.com/What-are-the-best-weekend-road-trips-from-Bangalore"
            ],
            "locType": "town"
        },
        "hoysaleswara temple": {
            "closest_to": "mangalore",
            "address": "Hoysaleswara Temple, SH21, Halebidu, Beluru taluk, Hassan district, Karnataka, 573121, India",
            "longitude": "75.9941649",
            "latitude": "13.2127193",
            "blogLinks": [
                "http://www.mapsofindia.com/karnataka/tourism/"
            ],
            "locType": "place_of_worship"
        },
        "sullia": {
            "closest_to": "mangalore",
            "address": "Sulya, Sulya taluk, Dakshina Kannada, Karnataka, 574239, India",
            "longitude": "75.3907575",
            "latitude": "12.5576644",
            "blogLinks": [
                "http://www.amuct.org/more/aifucto-conference/549-places-to-visit-in-and-around-mangalore"
            ],
            "locType": "town"
        },
        "golden lake.the": {
            "closest_to": "kanakapura",
            "address": "Golden Incense Factory, JP Nagar 1st Phase, Bengaluru, Bangalore Urban, Karnataka, 560001, India",
            "longitude": "77.5855335564846",
            "latitude": "12.9156084",
            "blogLinks": [
                "https://www.thrillophilia.com/bangalore-weekend-getaways"
            ],
            "locType": "industrial"
        },
        "rao road": {
            "closest_to": "kanakapura",
            "address": "Mission Road (Kalinga Rao Road ), Sampangirama Nagar, Shanti Nagar, Bengaluru, Bangalore Urban, Karnataka, 560001, India",
            "longitude": "77.591801",
            "latitude": "12.9625233",
            "blogLinks": [
                "http://wikitravel.org/en/Mangalore"
            ],
            "locType": "primary"
        },
        "andhra": {
            "closest_to": "kanakapura",
            "address": "Karnataka, West Mada Street, Srivari Temple, Tirumala, Chittoor, Andhra Pradesh, 517504, India",
            "longitude": "79.3452447",
            "latitude": "13.6841958",
            "blogLinks": [
                "https://www.quora.com/What-are-some-good-places-to-visit-near-bangalore-for-a-one-two-day-trip",
                "https://www.quora.com/What-are-the-best-weekend-road-trips-from-Bangalore"
            ],
            "locType": "hotel"
        },
        "river shambhavi": {
            "closest_to": "mangalore",
            "address": "Shambhavi, Karkala taluk, Udupi district, Karnataka, India",
            "longitude": "74.9068128",
            "latitude": "13.1353612",
            "blogLinks": [
                "http://www.amuct.org/more/aifucto-conference/549-places-to-visit-in-and-around-mangalore"
            ],
            "locType": "river"
        },
        "bannerghatta national park": {
            "closest_to": "kanakapura",
            "address": "Bannerghatta National Park, Anekal Road, Begihalli, Bangalore Urban, Karnataka, 560076, India",
            "longitude": "77.5722783830694",
            "latitude": "12.77900335",
            "blogLinks": [
                "https://en.wikipedia.org/wiki/List_of_tourist_attractions_in_Bangalore",
                "https://www.tripoto.com/places-to-visit/india/bangalore"
            ],
            "locType": "national_park"
        },
        "udupi district": {
            "closest_to": "mangalore",
            "address": "Udupi district, Karnataka, India",
            "longitude": "74.7469037178649",
            "latitude": "13.49007305",
            "blogLinks": [
                "http://wikitravel.org/en/Mangalore"
            ],
            "locType": "administrative"
        },
        "ujire": {
            "closest_to": "mangalore",
            "address": "Ujire, Beltangadi taluk, Dakshina Kannada, Karnataka, India",
            "longitude": "75.3301061",
            "latitude": "12.9954619",
            "blogLinks": [
                "https://www.quora.com/What-are-some-good-places-to-visit-near-bangalore-for-a-one-two-day-trip",
                "https://www.quora.com/What-are-the-best-weekend-road-trips-from-Bangalore"
            ],
            "locType": "village"
        },
        "raja seat": {
            "closest_to": "mangalore",
            "address": "Raja Seat, Mahatma Gandhi Road, Madikeri, Madikeri taluku, Kodagu, Karnataka, India",
            "longitude": "75.7369653316478",
            "latitude": "12.41421975",
            "blogLinks": [
                "https://www.tripoto.com/weekend-getaways/from-kanakapura"
            ],
            "locType": "park"
        },
        "belur": {
            "closest_to": "mangalore",
            "address": "Belur, Beluru taluk, Hassan district, Karnataka, 573115, India",
            "longitude": "75.8634851",
            "latitude": "13.1645671",
            "blogLinks": [
                "http://www.mapsofindia.com/karnataka/tourism/"
            ],
            "locType": "town"
        },
        "karnataka": {
            "closest_to": "mangalore",
            "address": "Karnataka, Shalivahana Road, Nazarbad, Mysuru, Mysuru taluk, Mysuru district, Karnataka, 570001, India",
            "longitude": "76.6639936",
            "latitude": "12.3084901",
            "blogLinks": [
                "https://en.wikipedia.org/wiki/Kanakapura",
                "https://www.thrillophilia.com/places-to-visit-near-mangalore",
                "http://www.nivalink.com/destination/mangalore",
                "https://www.quora.com/What-are-some-good-places-to-visit-near-bangalore-for-a-one-two-day-trip",
                "http://distancecalculator.globefeed.com/India_Distance_Calculator.asp?state=19",
                "https://www.tripoto.com/weekend-getaways/from-kanakapura",
                "http://harishoutings.blogspot.com/2008/07/sangam-mekedatu-and-chunchi-falls.html",
                "https://www.tripoto.com/places-to-visit/india/bangalore",
                "https://en.wikipedia.org/wiki/List_of_tourist_attractions_in_Bangalore",
                "http://wikitravel.org/en/Mangalore",
                "http://www.amuct.org/more/aifucto-conference/549-places-to-visit-in-and-around-mangalore",
                "https://www.quora.com/What-are-the-best-weekend-road-trips-from-Bangalore",
                "http://wikitravel.org/en/Shivanasamudram",
                "http://goindia.about.com/od/cities/tp/attractions-around-bangalore.htm",
                "http://www.mapsofindia.com/karnataka/tourism/",
                "https://www.thrillophilia.com/bangalore-weekend-getaways"
            ],
            "locType": "atm"
        },
        "karwar": {
            "closest_to": "mangalore",
            "address": "Karwar, Karavara taluk, Uttara Kannada, Karnataka, 581300, India",
            "longitude": "74.1319229",
            "latitude": "14.8120931",
            "blogLinks": [
                "http://www.amuct.org/more/aifucto-conference/549-places-to-visit-in-and-around-mangalore",
                "https://www.thrillophilia.com/bangalore-weekend-getaways"
            ],
            "locType": "town"
        },
        "kodagu": {
            "closest_to": "mangalore",
            "address": "Kodagu, Karnataka, India",
            "longitude": "75.6677235950852",
            "latitude": "12.38117345",
            "blogLinks": [
                "https://www.quora.com/What-are-some-good-places-to-visit-near-bangalore-for-a-one-two-day-trip",
                "https://www.tripoto.com/weekend-getaways/from-kanakapura",
                "http://www.amuct.org/more/aifucto-conference/549-places-to-visit-in-and-around-mangalore",
                "https://www.quora.com/What-are-the-best-weekend-road-trips-from-Bangalore",
                "http://www.mapsofindia.com/karnataka/tourism/",
                "https://www.thrillophilia.com/bangalore-weekend-getaways"
            ],
            "locType": "administrative"
        },
        "mallalli": {
            "closest_to": "mangalore",
            "address": "Mallalli Falls, Somawarpet taluk, Kodagu, Karnataka, India",
            "longitude": "75.723663",
            "latitude": "12.6813778",
            "blogLinks": [
                "https://www.thrillophilia.com/bangalore-weekend-getaways"
            ],
            "locType": "waterfall"
        },
        "dakshina kannada": {
            "closest_to": "mangalore",
            "address": "Dakshina Kannada, Karnataka, India",
            "longitude": "75.1008028650794",
            "latitude": "12.8114089",
            "blogLinks": [
                "https://www.thrillophilia.com/places-to-visit-near-mangalore",
                "http://www.nivalink.com/destination/mangalore",
                "https://www.quora.com/What-are-some-good-places-to-visit-near-bangalore-for-a-one-two-day-trip",
                "https://www.tripoto.com/weekend-getaways/from-kanakapura",
                "http://wikitravel.org/en/Mangalore",
                "http://www.amuct.org/more/aifucto-conference/549-places-to-visit-in-and-around-mangalore",
                "https://www.quora.com/What-are-the-best-weekend-road-trips-from-Bangalore",
                "https://www.thrillophilia.com/bangalore-weekend-getaways"
            ],
            "locType": "administrative"
        },
        "delhi": {
            "closest_to": "kanakapura",
            "address": "Outer Ring Road, Green Glen Layout, Iblur, Bengaluru, Bangalore Urban, Karnataka, 560001, India",
            "longitude": "77.6666062",
            "latitude": "12.9212473",
            "blogLinks": [
                "http://wikitravel.org/en/Mangalore"
            ],
            "locType": "trunk"
        },
        "kashi": {
            "closest_to": "mangalore",
            "address": "Moodabidri, Mangaluru taluk, Dakshina Kannada, Karnataka, 574227, India",
            "longitude": "74.9977469",
            "latitude": "13.0699218",
            "blogLinks": [
                "http://www.amuct.org/more/aifucto-conference/549-places-to-visit-in-and-around-mangalore"
            ],
            "locType": "town"
        },
        "belvai": {
            "closest_to": "mangalore",
            "address": "Belvai, Mangaluru taluk, Dakshina Kannada, Karnataka, India",
            "longitude": "74.9961914",
            "latitude": "13.1281264",
            "blogLinks": [
                "https://www.thrillophilia.com/places-to-visit-near-mangalore"
            ],
            "locType": "village"
        },
        "bejai": {
            "closest_to": "mangalore",
            "address": "Bejai Main Road, Kuntikan, Kadri, Mangaluru, Mangaluru taluk, Dakshina Kannada, Karnataka, 575001, India",
            "longitude": "74.8534469",
            "latitude": "12.8903184",
            "blogLinks": [
                "http://wikitravel.org/en/Mangalore"
            ],
            "locType": "primary"
        },
        "mangaladevi": {
            "closest_to": "mangalore",
            "address": "Shri Mangaladevi Temple, Mangala Devi Temple Road, Mulihitlu, Bolar, Mangaluru, Mangaluru taluk, Dakshina Kannada, Karnataka, 575001, India",
            "longitude": "74.8452646984836",
            "latitude": "12.84923455",
            "blogLinks": [
                "https://www.thrillophilia.com/places-to-visit-near-mangalore"
            ],
            "locType": "place_of_worship"
        },
        "kasargod": {
            "closest_to": "mangalore",
            "address": "Mangaluru-Kasargod Highway, Bolar, Thokkottu, Mangaluru taluk, Dakshina Kannada, Karnataka, 574159, India",
            "longitude": "74.8585848",
            "latitude": "12.8107348",
            "blogLinks": [
                "https://www.thrillophilia.com/bangalore-weekend-getaways"
            ],
            "locType": "trunk"
        },
        "madikeri fort": {
            "closest_to": "mangalore",
            "address": "Madikeri Museum, Fort Internal Road, Madikeri, Madikeri taluku, Kodagu, Karnataka, India",
            "longitude": "75.7392494",
            "latitude": "12.4203606",
            "blogLinks": [
                "https://www.tripoto.com/weekend-getaways/from-kanakapura"
            ],
            "locType": "museum"
        },
        "chikmagalur": {
            "closest_to": "mangalore",
            "address": "Chikmagalur, Chikkamagaluru district, Karnataka, India",
            "longitude": "75.5",
            "latitude": "13.5",
            "blogLinks": [
                "https://www.thrillophilia.com/places-to-visit-near-mangalore",
                "https://www.quora.com/What-are-the-best-weekend-road-trips-from-Bangalore"
            ],
            "locType": "county"
        },
        "kudupu": {
            "closest_to": "mangalore",
            "address": "Kudupu, Mangaluru taluk, Dakshina Kannada, Karnataka, India",
            "longitude": "74.8928918",
            "latitude": "12.9043343",
            "blogLinks": [
                "http://www.amuct.org/more/aifucto-conference/549-places-to-visit-in-and-around-mangalore"
            ],
            "locType": "village"
        },
        "kiocl": {
            "closest_to": "mangalore",
            "address": "Kudremukh Iron Ore Corporation - KIOCL, Kudremukha, Mudigere taluk, Chikkamagaluru district, Karnataka, India",
            "longitude": "75.2503200807711",
            "latitude": "13.20979135",
            "blogLinks": [
                "http://wikitravel.org/en/Mangalore"
            ],
            "locType": "industrial"
        },
        "frazer town": {
            "closest_to": "kanakapura",
            "address": "Frazer Town, Bengaluru, Bangalore Urban, Karnataka, 560001, India",
            "longitude": "77.6130165",
            "latitude": "12.996845",
            "blogLinks": [
                "https://www.quora.com/What-are-some-good-places-to-visit-near-bangalore-for-a-one-two-day-trip"
            ],
            "locType": "suburb"
        },
        "uttarahalli": {
            "closest_to": "kanakapura",
            "address": "Uttarahalli, Bengaluru, Bangalore Urban, Karnataka, 560001, India",
            "longitude": "77.5455438",
            "latitude": "12.9055682",
            "blogLinks": [
                "https://en.wikipedia.org/wiki/List_of_tourist_attractions_in_Bangalore"
            ],
            "locType": "suburb"
        },
        "moodu": {
            "closest_to": "mangalore",
            "address": "Government Higher Primary School, Beejadi Moodu, NH66, Thekkatte, \u0c95\u0cc1\u0c82\u0ca6\u0cbe\u0caa\u0cc1\u0cb0 \u0ca4\u0cbe\u0cb2\u0cc2\u0c95\u0cc1, Udupi district, Karnataka, 576231, India",
            "longitude": "74.6880462",
            "latitude": "13.5753824",
            "blogLinks": [
                "https://www.thrillophilia.com/places-to-visit-near-mangalore"
            ],
            "locType": "school"
        },
        "sharadamba temple": {
            "closest_to": "kanakapura",
            "address": "Sharadamba Temple, 7th Main Road, Yediyur, Thyagaraja Nagar, Bengaluru, Bangalore Urban, Karnataka, 560001, India",
            "longitude": "77.5656194",
            "latitude": "12.9321898",
            "blogLinks": [
                "http://www.amuct.org/more/aifucto-conference/549-places-to-visit-in-and-around-mangalore"
            ],
            "locType": "place_of_worship"
        },
        "puducherry": {
            "closest_to": "kanakapura",
            "address": "Karnataka Bank, Mission Street, Grand Bazaar, Puducherry, Puducherry district, Puducherry, 605001, India",
            "longitude": "79.831569",
            "latitude": "11.9365727",
            "blogLinks": [
                "https://www.tripoto.com/weekend-getaways/from-kanakapura"
            ],
            "locType": "bank"
        },
        "cauvery river": {
            "closest_to": "kanakapura",
            "address": "Temple Trees Rd, Cauvery Colony, ST Bed Layout, Koramangala, Bengaluru, Bangalore Urban, Karnataka, 560001, India",
            "longitude": "77.635647",
            "latitude": "12.9327668",
            "blogLinks": [
                "http://harishoutings.blogspot.com/2008/07/sangam-mekedatu-and-chunchi-falls.html"
            ],
            "locType": "unclassified"
        },
        "us": {
            "closest_to": "mangalore",
            "address": "Karnataka, India",
            "longitude": "75.7223521",
            "latitude": "14.5203896",
            "blogLinks": [
                "http://distancecalculator.globefeed.com/India_Distance_Calculator.asp?state=19"
            ],
            "locType": "administrative"
        },
        "mandya district": {
            "closest_to": "mangalore",
            "address": "Mandya district, Karnataka, India",
            "longitude": "76.7302318329607",
            "latitude": "12.6336348",
            "blogLinks": [
                "http://goindia.about.com/od/cities/tp/attractions-around-bangalore.htm"
            ],
            "locType": "administrative"
        },
        "kanakapura taluk": {
            "closest_to": "kanakapura",
            "address": "Kanakapura taluk, Ramanagara district, Karnataka, India",
            "longitude": "77.4224204245398",
            "latitude": "12.5199223",
            "blogLinks": [
                "https://en.wikipedia.org/wiki/Kanakapura",
                "https://www.quora.com/What-are-some-good-places-to-visit-near-bangalore-for-a-one-two-day-trip",
                "https://www.quora.com/What-are-the-best-weekend-road-trips-from-Bangalore"
            ],
            "locType": "administrative"
        },
        "canara": {
            "closest_to": "kanakapura",
            "address": "Canara, 4th Cross, Ashwath Nagar, Marathahalli, Sitaramapalya, Bangalore Urban, Karnataka, 560037, India",
            "longitude": "77.7027141",
            "latitude": "12.9582803",
            "blogLinks": [
                "http://wikitravel.org/en/Mangalore"
            ],
            "locType": "atm"
        },
        "annapoorneshwari temple": {
            "closest_to": "mangalore",
            "address": "Sri Ambika Annapoorneshwari Temple, SH101, Sunkadakatte, Mangaluru taluk, Dakshina Kannada, Karnataka, India",
            "longitude": "74.9006001",
            "latitude": "12.97910715",
            "blogLinks": [
                "https://www.quora.com/What-are-some-good-places-to-visit-near-bangalore-for-a-one-two-day-trip",
                "https://www.quora.com/What-are-the-best-weekend-road-trips-from-Bangalore"
            ],
            "locType": "place_of_worship"
        },
        "navabharath circle": {
            "closest_to": "mangalore",
            "address": "Rashtrakavi Govinda Pai Circle, Kodailbail (Navabharath) Circle, Dongerkeri, Kudroli, Mangaluru, Mangaluru taluk, Dakshina Kannada, Karnataka, 575001, India",
            "longitude": "74.8400928",
            "latitude": "12.8746449",
            "blogLinks": [
                "http://wikitravel.org/en/Mangalore"
            ],
            "locType": "yes"
        },
        "manchanabele": {
            "closest_to": "mangalore",
            "address": "Manchanabele, Magadi taluku, Ramanagara district, Karnataka, India",
            "longitude": "77.3344212",
            "latitude": "12.8668921",
            "blogLinks": [
                "https://www.quora.com/What-are-some-good-places-to-visit-near-bangalore-for-a-one-two-day-trip",
                "https://en.wikipedia.org/wiki/List_of_tourist_attractions_in_Bangalore",
                "https://www.quora.com/What-are-the-best-weekend-road-trips-from-Bangalore"
            ],
            "locType": "village"
        },
        "gurupura river": {
            "closest_to": "mangalore",
            "address": "Gurupura - Phalguni, Bantwal taluk, Dakshina Kannada, Karnataka, India",
            "longitude": "75.0304308",
            "latitude": "13.005679",
            "blogLinks": [
                "https://www.thrillophilia.com/places-to-visit-near-mangalore"
            ],
            "locType": "river"
        },
        "chunchi falls": {
            "closest_to": "kanakapura",
            "address": "Chunchi Falls, Kanakapura taluk, Ramanagara district, Karnataka, India",
            "longitude": "77.4459464",
            "latitude": "12.3515083",
            "blogLinks": [
                "https://www.tripoto.com/places-to-visit/india/bangalore"
            ],
            "locType": "waterfall"
        },
        "karnataka chitrakala parishat": {
            "closest_to": "kanakapura",
            "address": "Karnataka Chitrakala Parishath, Kumara Krupa Road, Chakravarty Layout, High Grounds, Bengaluru, Bangalore Urban, Karnataka, 560001, India",
            "longitude": "77.5808003010098",
            "latitude": "12.98925415",
            "blogLinks": [
                "https://en.wikipedia.org/wiki/List_of_tourist_attractions_in_Bangalore"
            ],
            "locType": "college"
        },
        "ramanagar district": {
            "closest_to": "mangalore",
            "address": "Ramanagar-Kanakapura Road, Avverahalli, Ramanagara taluk, Ramanagara district, Karnataka, 562159, India",
            "longitude": "77.3418018",
            "latitude": "12.649356",
            "blogLinks": [
                "https://www.tripoto.com/places-to-visit/india/bangalore"
            ],
            "locType": "primary"
        },
        "mudipu hill": {
            "closest_to": "mangalore",
            "address": "Mudipu, Bantwal taluk, Dakshina Kannada, Karnataka, India",
            "longitude": "74.9662656",
            "latitude": "12.796291",
            "blogLinks": [
                "http://www.amuct.org/more/aifucto-conference/549-places-to-visit-in-and-around-mangalore"
            ],
            "locType": "village"
        },
        "ooty lake": {
            "closest_to": "mangalore",
            "address": "Ooty Road, Vidyaranyapuram, Mysuru, Mysuru taluk, Mysuru district, Karnataka, 570001, India",
            "longitude": "76.6586807",
            "latitude": "12.2774807",
            "blogLinks": [
                "https://www.tripoto.com/weekend-getaways/from-kanakapura"
            ],
            "locType": "primary"
        },
        "lakshmi narasimha swamy temple": {
            "closest_to": "kanakapura",
            "address": "Lakshmi Narasimha Swamy Temple, 5th Main Road, Shampura, Hennur, Bengaluru, Bangalore Urban, Karnataka, 560001, India",
            "longitude": "77.6270726",
            "latitude": "13.0188187",
            "blogLinks": [
                "http://goindia.about.com/od/cities/tp/attractions-around-bangalore.htm"
            ],
            "locType": "place_of_worship"
        },
        "banashankari temple": {
            "closest_to": "kanakapura",
            "address": "Banashankari Temple, Kanakapura Road, JP Nagar 1st Phase, Kaderenahalli, Bengaluru, Bangalore Urban, Karnataka, 560001, India",
            "longitude": "77.5731752886765",
            "latitude": "12.91568785",
            "blogLinks": [
                "https://en.wikipedia.org/wiki/List_of_tourist_attractions_in_Bangalore"
            ],
            "locType": "place_of_worship"
        },
        "kengal hanumanthaiah": {
            "closest_to": "kanakapura",
            "address": "Kengal Hanumanthaiah, Devaraj Urs Road, Cubbonpet, Gandhinagar, Bengaluru, Bangalore Urban, Karnataka, 560001, India",
            "longitude": "77.5901166",
            "latitude": "12.980221",
            "blogLinks": [
                "https://en.wikipedia.org/wiki/List_of_tourist_attractions_in_Bangalore"
            ],
            "locType": "artwork"
        },
        "bandipur": {
            "closest_to": "mangalore",
            "address": "Bandipur, Gundlupet taluk, Chamarajanagar district, Karnataka, India",
            "longitude": "76.6285739",
            "latitude": "11.6662708",
            "blogLinks": [
                "https://www.quora.com/What-are-the-best-weekend-road-trips-from-Bangalore"
            ],
            "locType": "village"
        },
        "bangalore city": {
            "closest_to": "kanakapura",
            "address": "Bengaluru, Bangalore Urban, Karnataka, 560001, India",
            "longitude": "77.5912997",
            "latitude": "12.9791198",
            "blogLinks": [
                "https://en.wikipedia.org/wiki/List_of_tourist_attractions_in_Bangalore",
                "https://www.thrillophilia.com/bangalore-weekend-getaways"
            ],
            "locType": "city"
        },
        "tannirbhavi": {
            "closest_to": "mangalore",
            "address": "Tannirbhavi Beach, Matadakani Road, Bokkapatna, Kudroli, Mangaluru, Mangaluru taluk, Dakshina Kannada, Karnataka, 575001, India",
            "longitude": "74.8132559697314",
            "latitude": "12.8953559",
            "blogLinks": [
                "https://www.thrillophilia.com/places-to-visit-near-mangalore"
            ],
            "locType": "beach"
        },
        "vrishabhavati river": {
            "closest_to": "kanakapura",
            "address": "Vrishabhavati, Bengaluru, Bangalore Urban, Karnataka, 560001, India",
            "longitude": "77.4789747",
            "latitude": "12.897128",
            "blogLinks": [
                "https://en.wikipedia.org/wiki/List_of_tourist_attractions_in_Bangalore"
            ],
            "locType": "river"
        },
        "kannur": {
            "closest_to": "mangalore",
            "address": "Netravati bridge - Kannur Bypass Road (Proposed), Padil, Bajal, Mangaluru taluk, Dakshina Kannada, Karnataka, 575007, India",
            "longitude": "74.8858161",
            "latitude": "12.8487602",
            "blogLinks": [
                "https://www.tripoto.com/weekend-getaways/from-kanakapura",
                "http://www.nivalink.com/destination/mangalore"
            ],
            "locType": "construction"
        },
        "the city centre mall": {
            "closest_to": "mangalore",
            "address": "City Centre Mall, Karnad Sadashiva Rao Road, Dongerkeri, Attavar, Mangaluru, Mangaluru taluk, Dakshina Kannada, Karnataka, 575001, India",
            "longitude": "74.8428308450271",
            "latitude": "12.8712726",
            "blogLinks": [
                "http://wikitravel.org/en/Mangalore"
            ],
            "locType": "mall"
        },