{
    "mentions": {
        "badami": {
            "closest_to": "kundapur",
            "address": "Badami, Badami taluku, Bagalkote district, Karnataka, 587200, India",
            "longitude": "75.6807865",
            "latitude": "15.9203874",
            "blogLinks": [
                "https://www.thrillophilia.com/bangalore-weekend-getaways"
            ],
            "locType": "town"
        },
        "subramanya": {
            "closest_to": "kanakapura",
            "address": "Subramanya Arcade, Marenahalli, Bengaluru, Bangalore Urban, Karnataka, 560001, India",
            "longitude": "77.6015800913134",
            "latitude": "12.9251206",
            "blogLinks": [
                "http://wikitravel.org/en/Mangalore"
            ],
            "locType": "commercial"
        },
        "coastal karnataka": {
            "closest_to": "kundapur",
            "address": "Bharat Petroleum Mangalore Coastal Installation, Baikampady, Mangaluru taluk, Dakshina Kannada, Karnataka, 575014, India",
            "longitude": "74.8137275833157",
            "latitude": "12.96014675",
            "blogLinks": [
                "http://wikitravel.org/en/Udupi",
                "http://www.nivalink.com/destination/kundapura",
                "http://mustseekarnataka.blogspot.com/2011/09/must-see-kundapur.html"
            ],
            "locType": "industrial"
        },
        "bejai": {
            "closest_to": "kundapur",
            "address": "Bejai Main Road, Kuntikan, Kadri, Mangaluru, Mangaluru taluk, Dakshina Kannada, Karnataka, 575001, India",
            "longitude": "74.8534469",
            "latitude": "12.8903184",
            "blogLinks": [
                "http://wikitravel.org/en/Mangalore"
            ],
            "locType": "primary"
        },
        "hotel srinivas": {
            "closest_to": "kundapur",
            "address": "Hotel Srinivas, Panje Manjesh Rao Road, Dongerkeri, Attavar, Mangaluru, Mangaluru taluk, Dakshina Kannada, Karnataka, 575001, India",
            "longitude": "74.8404787",
            "latitude": "12.8688507",
            "blogLinks": [
                "http://wikitravel.org/en/Mangalore"
            ],
            "locType": "hotel"
        },
        "mangalore city": {
            "closest_to": "kundapur",
            "address": "Mangaluru, Mangaluru taluk, Dakshina Kannada, Karnataka, 575001, India",
            "longitude": "74.8430082",
            "latitude": "12.8698101",
            "blogLinks": [
                "http://wikitravel.org/en/Mangalore"
            ],
            "locType": "city"
        },
        "kasargod": {
            "closest_to": "kundapur",
            "address": "Mangaluru-Kasargod Highway, Bolar, Thokkottu, Mangaluru taluk, Dakshina Kannada, Karnataka, 574159, India",
            "longitude": "74.8585848",
            "latitude": "12.8107348",
            "blogLinks": [
                "https://www.thrillophilia.com/bangalore-weekend-getaways"
            ],
            "locType": "trunk"
        },
        "bajpe": {
            "closest_to": "kundapur",
            "address": "Bajpe, Mangaluru taluk, Dakshina Kannada, Karnataka, India",
            "longitude": "74.8847082",
            "latitude": "12.9820549",
            "blogLinks": [
                "http://wikitravel.org/en/Mangalore"
            ],
            "locType": "village"
        },
        "udupi taluk": {
            "closest_to": "kundapur",
            "address": "Thirthahalli - Udupi Highway, Shivapura, Karkala taluk, Udupi district, Karnataka, India",
            "longitude": "74.9592512",
            "latitude": "13.4249325",
            "blogLinks": [
                "http://mustseekarnataka.blogspot.com/2011/09/must-see-kundapur.html"
            ],
            "locType": "trunk"
        },
        "maharashtra": {
            "closest_to": "kanakapura",
            "address": "Bank of Maharashtra, 24th Main, K R Layout, Puttenahalli, Bengaluru, Bangalore Urban, Karnataka, 560001, India",
            "longitude": "77.5856013",
            "latitude": "12.9049455",
            "blogLinks": [
                "http://wikitravel.org/en/Udupi"
            ],
            "locType": "bank"
        },
        "souparnika": {
            "closest_to": "kundapur",
            "address": "Souparnika Bathing Ghat Road, Kollur, \u0c95\u0cc1\u0c82\u0ca6\u0cbe\u0caa\u0cc1\u0cb0 \u0ca4\u0cbe\u0cb2\u0cc2\u0c95\u0cc1, Udupi district, Karnataka, 576220, India",
            "longitude": "74.8095156",
            "latitude": "13.8642453",
            "blogLinks": [
                "http://mustseekarnataka.blogspot.com/2011/09/must-see-kundapur.html"
            ],
            "locType": "unclassified"
        },
        "chennai": {
            "closest_to": "kanakapura",
            "address": "Karnataka Bank, Postal Colony 2nd Street, Postal Colony, Ashok Nagar, Chennai City Corporation Limits, Chennai district, Tamil Nadu, 600033, India",
            "longitude": "80.2197941",
            "latitude": "13.0365141",
            "blogLinks": [
                "https://www.thrillophilia.com/bangalore-weekend-getaways",
                "http://wikitravel.org/en/Mangalore"
            ],
            "locType": "bank"
        },
        "hattiangadi": {
            "closest_to": "kundapur",
            "address": "Hattiangadi, \u0c95\u0cc1\u0c82\u0ca6\u0cbe\u0caa\u0cc1\u0cb0 \u0ca4\u0cbe\u0cb2\u0cc2\u0c95\u0cc1, Udupi district, Karnataka, India",
            "longitude": "74.7327001",
            "latitude": "13.6466541",
            "blogLinks": [
                "http://mustseekarnataka.blogspot.com/2011/09/must-see-kundapur.html"
            ],
            "locType": "village"
        },
        "guddattu temple": {
            "closest_to": "kundapur",
            "address": "Shri Vinayaka Temple Guddattu, Barkur Road, Saibrakatte, Udupi taluku, Udupi district, Karnataka, India",
            "longitude": "74.790761",
            "latitude": "13.5527072",
            "blogLinks": [
                "http://mustseekarnataka.blogspot.com/2011/09/must-see-kundapur.html"
            ],
            "locType": "place_of_worship"
        },
        "mekedatu": {
            "closest_to": "kanakapura",
            "address": "Mekedatu, SH92, Mahalli, Kanakapura taluk, Ramanagara district, Karnataka, India",
            "longitude": "77.4475194",
            "latitude": "12.2584997",
            "blogLinks": [
                "http://harishoutings.blogspot.com/2008/07/sangam-mekedatu-and-chunchi-falls.html"
            ],
            "locType": "attraction"
        },
        "koteshwara": {
            "closest_to": "kundapur",
            "address": "Koteshwara, \u0c95\u0cc1\u0c82\u0ca6\u0cbe\u0caa\u0cc1\u0cb0 \u0ca4\u0cbe\u0cb2\u0cc2\u0c95\u0cc1, Udupi district, Karnataka, India",
            "longitude": "74.6975369",
            "latitude": "13.5883963",
            "blogLinks": [
                "http://mustseekarnataka.blogspot.com/2011/09/must-see-kundapur.html"
            ],
            "locType": "village"
        },
        "ocean": {
            "closest_to": "kanakapura",
            "address": "Gayatri Ocean Blue Apartments, Thubarahalli, Siddapura, Bangalore Urban, Karnataka, 560066, India",
            "longitude": "77.7178261979437",
            "latitude": "12.95490595",
            "blogLinks": [
                "http://www.nivalink.com/destination/kundapura"
            ],
            "locType": "residential"
        },
        "maravanthe": {
            "closest_to": "kundapur",
            "address": "Nethaji Subhash Chandra Bose Government High School, Maravanthe, NH66, Navunda, \u0c95\u0cc1\u0c82\u0ca6\u0cbe\u0caa\u0cc1\u0cb0 \u0ca4\u0cbe\u0cb2\u0cc2\u0c95\u0cc1, Udupi district, Karnataka, 576224, India",
            "longitude": "74.6480358",
            "latitude": "13.7316626",
            "blogLinks": [
                "http://www.nivalink.com/destination/kundapura"
            ],
            "locType": "school"
        },
        "karkala": {
            "closest_to": "kundapur",
            "address": "Karkala, Karkala taluk, Udupi district, Karnataka, 574104, India",
            "longitude": "74.9959586",
            "latitude": "13.2112826",
            "blogLinks": [
                "https://www.thrillophilia.com/bangalore-weekend-getaways",
                "http://wikitravel.org/en/Udupi",
                "http://wikitravel.org/en/Mangalore"
            ],
            "locType": "town"
        },
        "gaganachukki": {
            "closest_to": "kundapur",
            "address": "Gaganachukki Falls, Malavalli taluk, Mandya district, Karnataka, India",
            "longitude": "77.1684763",
            "latitude": "12.2933696",
            "blogLinks": [
                "http://mustseekarnataka.blogspot.com/2011/09/must-see-kundapur.html"
            ],
            "locType": "waterfall"
        },
        "kalaseshwara temple": {
            "closest_to": "kundapur",
            "address": "Kalaseshwara Temple, SH66, Kalasa, Mudigere taluk, Chikkamagaluru district, Karnataka, 577124, India",
            "longitude": "75.363446975",
            "latitude": "13.23228505",
            "blogLinks": [
                "http://www.nivalink.com/destination/kundapura"
            ],
            "locType": "place_of_worship"
        },
        "kamalashile": {
            "closest_to": "kundapur",
            "address": "Government Lower Primary School, Yelaberu, Kamalashile, SH52, Hosangadi, \u0c95\u0cc1\u0c82\u0ca6\u0cbe\u0caa\u0cc1\u0cb0 \u0ca4\u0cbe\u0cb2\u0cc2\u0c95\u0cc1, Udupi district, Karnataka, 576282, India",
            "longitude": "74.8881686",
            "latitude": "13.708506",
            "blogLinks": [
                "http://mustseekarnataka.blogspot.com/2011/09/must-see-kundapur.html"
            ],
            "locType": "school"
        },
        "kapu beach": {
            "closest_to": "kundapur",
            "address": "Kapu Beach, NH66, Mallaru, Udupi taluku, Udupi district, Karnataka, India",
            "longitude": "74.7388930883129",
            "latitude": "13.2187564",
            "blogLinks": [
                "http://wikitravel.org/en/Udupi",
                "http://wikitravel.org/en/Mangalore"
            ],
            "locType": "beach"
        },
        "kabini river": {
            "closest_to": "kundapur",
            "address": "Kabini right bank canal, Nanjanagudu taluk, Mysuru district, Karnataka, India",
            "longitude": "76.6477184",
            "latitude": "12.0780998",
            "blogLinks": [
                "https://www.thrillophilia.com/around-bangalore"
            ],
            "locType": "canal"
        },
        "us": {
            "closest_to": "kundapur",
            "address": "Karnataka, India",
            "longitude": "75.7223521",
            "latitude": "14.5203896",
            "blogLinks": [
                "http://timesofindia.indiatimes.com/city/bengaluru/Bangalore-Kanakapura-Road-to-become-four-lane/articleshow/36688531.cms",
                "http://wikitravel.org/en/Shivanasamudram"
            ],
            "locType": "administrative"
        },
        "gurupur": {
            "closest_to": "kundapur",
            "address": "Gurupur, Mangaluru taluk, Dakshina Kannada, Karnataka, India",
            "longitude": "74.9294914",
            "latitude": "12.9394527",
            "blogLinks": [
                "http://wikitravel.org/en/Mangalore"
            ],
            "locType": "village"
        },
        "ullal": {
            "closest_to": "kundapur",
            "address": "Ullal, Mangaluru taluk, Dakshina Kannada, Karnataka, 574159, India",
            "longitude": "74.8407018",
            "latitude": "12.8201288",
            "blogLinks": [
                "http://wikitravel.org/en/Mangalore"
            ],
            "locType": "town"
        },
        "ayodhya": {
            "closest_to": "kundapur",
            "address": "Ayodhya, Gangavati taluku, Koppal district, Karnataka, India",
            "longitude": "76.5832762",
            "latitude": "15.4313866",
            "blogLinks": [
                "http://wikitravel.org/en/Mangalore"
            ],
            "locType": "village"
        },
        "ganesh": {
            "closest_to": "kundapur",
            "address": "Ganesh, Shimoga - Chitradurga Highway, Holalkere, Holalkere taluk, Chitradurga district, Karnataka, 577526, India",
            "longitude": "76.1846316",
            "latitude": "14.0473984",
            "blogLinks": [
                "http://mustseekarnataka.blogspot.com/2011/09/must-see-kundapur.html"
            ],
            "locType": "place_of_worship"
        },
        "canara": {
            "closest_to": "kanakapura",
            "address": "Canara, 4th Cross, Ashwath Nagar, Marathahalli, Sitaramapalya, Bangalore Urban, Karnataka, 560037, India",
            "longitude": "77.7027141",
            "latitude": "12.9582803",
            "blogLinks": [
                "http://wikitravel.org/en/Mangalore"
            ],
            "locType": "atm"
        },
        "navabharath circle": {
            "closest_to": "kundapur",
            "address": "Rashtrakavi Govinda Pai Circle, Kodailbail (Navabharath) Circle, Dongerkeri, Kudroli, Mangaluru, Mangaluru taluk, Dakshina Kannada, Karnataka, 575001, India",
            "longitude": "74.8400928",
            "latitude": "12.8746449",
            "blogLinks": [
                "http://wikitravel.org/en/Mangalore"
            ],
            "locType": "yes"
        },
        "golden palms": {
            "closest_to": "kanakapura",
            "address": "Golden Palms Apartments, Thanisandra, Shabarinagara, Bangalore Urban, Karnataka, 560045, India",
            "longitude": "77.6387955187635",
            "latitude": "13.0633668",
            "blogLinks": [
                "https://www.thrillophilia.com/around-bangalore"
            ],
            "locType": "residential"
        },
        "mallalli": {
            "closest_to": "kundapur",
            "address": "Mallalli Falls, Somawarpet taluk, Kodagu, Karnataka, India",
            "longitude": "75.723663",
            "latitude": "12.6813778",
            "blogLinks": [
                "https://www.thrillophilia.com/bangalore-weekend-getaways"
            ],
            "locType": "waterfall"
        },
        "malpe": {
            "closest_to": "kundapur",
            "address": "Malpe, Udupi taluku, Udupi district, Karnataka, India",
            "longitude": "74.7036914",
            "latitude": "13.3507423",
            "blogLinks": [
                "http://wikitravel.org/en/Udupi"
            ],
            "locType": "village"
        },
        "panaji": {
            "closest_to": "kundapur",
            "address": "Belgaum - Panaji Highway, Londa, Khanapura taluku, Belgaum district, Karnataka, India",
            "longitude": "74.4876784",
            "latitude": "15.4422981",
            "blogLinks": [
                "https://www.tripoto.com/weekend-getaways/from-kundapur"
            ],
            "locType": "trunk"
        },
        "kollur": {
            "closest_to": "kundapur",
            "address": "Kollur, \u0c95\u0cc1\u0c82\u0ca6\u0cbe\u0caa\u0cc1\u0cb0 \u0ca4\u0cbe\u0cb2\u0cc2\u0c95\u0cc1, Udupi district, Karnataka, 576220, India",
            "longitude": "74.8137959",
            "latitude": "13.8634049",
            "blogLinks": [
                "http://mustseekarnataka.blogspot.com/2011/09/must-see-kundapur.html"
            ],
            "locType": "village"
        },
        "kollegala": {
            "closest_to": "kundapur",
            "address": "Kollegal, Kollegala taluk, Chamarajanagar district, Karnataka, 571440, India",
            "longitude": "77.1114856",
            "latitude": "12.1548275",
            "blogLinks": [
                "http://wikitravel.org/en/Shivanasamudram"
            ],
            "locType": "town"
        },
        "bandipur": {
            "closest_to": "kundapur",
            "address": "Bandipur, Gundlupet taluk, Chamarajanagar district, Karnataka, India",
            "longitude": "76.6285739",
            "latitude": "11.6662708",
            "blogLinks": [
                "https://www.thrillophilia.com/around-bangalore"
            ],
            "locType": "village"
        },
        "bandipur national park": {
            "closest_to": "kundapur",
            "address": "Bandipur National Park, Kozhikode - Kollegal Highway, Gundlupet taluk, Chamarajanagar district, Karnataka, India",
            "longitude": "76.4314968740264",
            "latitude": "11.76682425",
            "blogLinks": [
                "https://www.thrillophilia.com/around-bangalore"
            ],
            "locType": "national_park"
        },
        "kudlu falls": {
            "closest_to": "kundapur",
            "address": "Kudlu Falls Road, Karkala taluk, Udupi district, Karnataka, India",
            "longitude": "75.1058201",
            "latitude": "13.4228347",
            "blogLinks": [
                "https://www.thrillophilia.com/bangalore-weekend-getaways"
            ],
            "locType": "track"
        },
        "antaragange": {
            "closest_to": "kanakapura",
            "address": "Antaragange, Kolar taluk, Kolar district, Karnataka, India",
            "longitude": "78.0978427",
            "latitude": "13.1493543",
            "blogLinks": [
                "https://www.thrillophilia.com/around-bangalore"
            ],
            "locType": "peak"
        },
        "kannur": {
            "closest_to": "kundapur",
            "address": "Netravati bridge - Kannur Bypass Road (Proposed), Padil, Bajal, Mangaluru taluk, Dakshina Kannada, Karnataka, 575007, India",
            "longitude": "74.8858161",
            "latitude": "12.8487602",
            "blogLinks": [
                "http://www.nivalink.com/destination/kundapura"
            ],
            "locType": "construction"
        },
        "the city centre mall": {
            "closest_to": "kundapur",
            "address": "City Centre Mall, Karnad Sadashiva Rao Road, Dongerkeri, Attavar, Mangaluru, Mangaluru taluk, Dakshina Kannada, Karnataka, 575001, India",
            "longitude": "74.8428308450271",
            "latitude": "12.8712726",
            "blogLinks": [
                "http://wikitravel.org/en/Mangalore"
            ],
            "locType": "mall"
        },
        "pandavapura": {
            "closest_to": "kundapur",
            "address": "Pandavapura, Pandavapura taluk, Mandya district, Karnataka, 571484, India",
            "longitude": "76.6731501",
            "latitude": "12.5011414",
            "blogLinks": [
                "https://www.thrillophilia.com/bangalore-weekend-getaways"
            ],
            "locType": "village"
        },
        "ocean pearl": {
            "closest_to": "kundapur",
            "address": "The Ocean Pearl, PVS Road, Dongerkeri, Kudroli, Mangaluru, Mangaluru taluk, Dakshina Kannada, Karnataka, 575001, India",
            "longitude": "74.8404435070879",
            "latitude": "12.87531035",
            "blogLinks": [
                "http://wikitravel.org/en/Mangalore"
            ],
            "locType": "hotel"
        },
        "mirjan fort": {
            "closest_to": "kundapur",
            "address": "Mirjana Fort, Edapally- Panvel Highway, Kimani, Kumata taluk, Uttara Kannada, Karnataka, 581344, India",
            "longitude": "74.4174838158512",
            "latitude": "14.48905715",
            "blogLinks": [
                "https://www.thrillophilia.com/around-bangalore"
            ],
            "locType": "attraction"
        },
        "guhantara": {
            "closest_to": "kundapur",
            "address": "Guhantara Cave Resort, Kanakapura Road, Banjarapalya, Udayapura, Bangalore Urban, Karnataka, 560076, India",
            "longitude": "77.4918189885896",
            "latitude": "12.8004555",
            "blogLinks": [
                "https://www.thrillophilia.com/around-bangalore"
            ],
            "locType": "hotel"
        },
        "kanakpura": {
            "closest_to": "kanakapura",
            "address": "H 902, Mantri Tranquil, Gubbalala, Off Kanakpura Road, Bengaluru - 61, Subramanyapura Main Road, Singapore Gardens, Uttarahalli, Gubbalala, Bangalore Urban, Karnataka, 560086, India",
            "longitude": "77.5438085908703",
            "latitude": "12.8866679",
            "blogLinks": [
                "http://harishoutings.blogspot.com/2008/07/sangam-mekedatu-and-chunchi-falls.html"
            ],
            "locType": "yes"
        },
        "shiriyara": {
            "closest_to": "kundapur",
            "address": "Shiriyara, Udupi taluku, Udupi district, Karnataka, India",
            "longitude": "74.7926017",
            "latitude": "13.537104",
            "blogLinks": [
                "http://mustseekarnataka.blogspot.com/2011/09/must-see-kundapur.html"
            ],
            "locType": "village"
        },
        "south": {
            "closest_to": "kanakapura",
            "address": "s, Vijayapura, Devanahalli taluk, Bangalore Rural, Karnataka, 562135, India",
            "longitude": "77.8040874",
            "latitude": "13.2942848",
            "blogLinks": [
                "http://wikitravel.org/en/Udupi"
            ],
            "locType": "residential"
        },
        "belve village": {
            "closest_to": "kundapur",
            "address": "Belve, \u0c95\u0cc1\u0c82\u0ca6\u0cbe\u0caa\u0cc1\u0cb0 \u0ca4\u0cbe\u0cb2\u0cc2\u0c95\u0cc1, Udupi district, Karnataka, India",
            "longitude": "74.9249251",
            "latitude": "13.5271121",
            "blogLinks": [
                "http://wikitravel.org/en/Udupi"
            ],
            "locType": "village"
        },
        "paradise beach": {
            "closest_to": "kundapur",
            "address": "Paradise Beach, Om beach road, Gokarna, Kumata taluk, Uttara Kannada, Karnataka, 581326, India",
            "longitude": "74.3375798576938",
            "latitude": "14.5181133",
            "blogLinks": [
                "https://www.thrillophilia.com/bangalore-weekend-getaways"
            ],
            "locType": "beach"
        },
        "dakshina kannada": {
            "closest_to": "kundapur",
            "address": "Dakshina Kannada, Karnataka, India",
            "longitude": "75.1008028650794",
            "latitude": "12.8114089",
            "blogLinks": [
                "https://www.thrillophilia.com/bangalore-weekend-getaways",
                "http://wikitravel.org/en/Udupi",
                "http://wikitravel.org/en/Mangalore"
            ],
            "locType": "administrative"
        },
        "linganamakki reservoir": {
            "closest_to": "kundapur",
            "address": "Linganamakki Reservoir, Hosanagara taluk, Shimoga district, Karnataka, India",
            "longitude": "75.0410123818511",
            "latitude": "14.0035104",
            "blogLinks": [
                "https://www.thrillophilia.com/bangalore-weekend-getaways"
            ],
            "locType": "water"
        },
        "kanakpura road": {
            "closest_to": "kanakapura",
            "address": "H 902, Mantri Tranquil, Gubbalala, Off Kanakpura Road, Bengaluru - 61, Subramanyapura Main Road, Singapore Gardens, Uttarahalli, Gubbalala, Bangalore Urban, Karnataka, 560086, India",
            "longitude": "77.5438085908703",
            "latitude": "12.8866679",
            "blogLinks": [
                "https://www.thrillophilia.com/around-bangalore",
                "http://wikitravel.org/en/Shivanasamudram"
            ],
            "locType": "yes"
        },
        "udipi": {
            "closest_to": "kanakapura",
            "address": "Udipi Park, 2nd Cross Road, Muniyappa Layout, Murugeshpalaya, Belure Ambedkar Nagar, Bangalore Urban, Karnataka, 560067, India",
            "longitude": "77.652888",
            "latitude": "12.9530588",
            "blogLinks": [
                "http://www.nivalink.com/destination/kundapura"
            ],
            "locType": "restaurant"
        },
        "taluk office": {
            "closest_to": "kanakapura",
            "address": "Taluk Office, Chintamani, Chintamani taluk, Chikkaballapura district, Karnataka, India",
            "longitude": "78.0517635286665",
            "latitude": "13.3976392",
            "blogLinks": [
                "http://wikitravel.org/en/Udupi"
            ],
            "locType": "commercial"
        },
        "sangama": {
            "closest_to": "kanakapura",
            "address": "Sangam, SH92, Mahalli, Kanakapura taluk, Ramanagara district, Karnataka, India",
            "longitude": "77.4320447",
            "latitude": "12.2880428",
            "blogLinks": [
                "http://wikitravel.org/en/Shivanasamudram"
            ],
            "locType": "attraction"
        },
        "panambur beach": {
            "closest_to": "kundapur",
            "address": "Panambur Beach, Panambur Beach Road, Gandhinagar, Panambur, Mangaluru taluk, Dakshina Kannada, Karnataka, 575013, India",
            "longitude": "74.8034667207214",
            "latitude": "12.93907195",
            "blogLinks": [
                "http://wikitravel.org/en/Mangalore"
            ],
            "locType": "beach"
        },
        "mangalore central station": {
            "closest_to": "kundapur",
            "address": "Mangalore Central, Railway Station Road, Pandeshwar, Attavar, Mangaluru, Mangaluru taluk, Dakshina Kannada, Karnataka, 575001, India",
            "longitude": "74.8432387",
            "latitude": "12.8634037",
            "blogLinks": [
                "http://wikitravel.org/en/Mangalore"
            ],
            "locType": "station"
        },
        "varahi river": {
            "closest_to": "kundapur",
            "address": "Varahi, \u0c95\u0cc1\u0c82\u0ca6\u0cbe\u0caa\u0cc1\u0cb0 \u0ca4\u0cbe\u0cb2\u0cc2\u0c95\u0cc1, Udupi district, Karnataka, India",
            "longitude": "74.9489117",
            "latitude": "13.6582668",
            "blogLinks": [
                "http://mustseekarnataka.blogspot.com/2011/09/must-see-kundapur.html"
            ],
            "locType": "river"
        },
        "lalbagh": {
            "closest_to": "kundapur",
            "address": "Lalbagh, Ladyhill, Mangaluru, Mangaluru taluk, Dakshina Kannada, Karnataka, 575001, India",
            "longitude": "74.8391489",
            "latitude": "12.8849518",
            "blogLinks": [
                "http://wikitravel.org/en/Mangalore"
            ],
            "locType": "neighbourhood"
        },
        "madhva sarovara": {
            "closest_to": "kundapur",
            "address": "Sri Madhva Sarovara, Rathabidi, Indiranagara, Udupi, Udupi taluku, Udupi district, Karnataka, 576101, India",
            "longitude": "74.7523631573063",
            "latitude": "13.3412371",
            "blogLinks": [
                "http://wikitravel.org/en/Udupi"
            ],
            "locType": "water"
        },
        "light house hill road": {
            "closest_to": "kundapur",
            "address": "Light House Hill Road, Dongerkeri, Attavar, Mangaluru, Mangaluru taluk, Dakshina Kannada, Karnataka, 575001, India",
            "longitude": "74.8457711",
            "latitude": "12.871557",
            "blogLinks": [
                "http://wikitravel.org/en/Mangalore"
            ],
            "locType": "primary"
        },
        "airport": {
            "closest_to": "kanakapura",
            "address": "HAL Airport, Kariyammana Agrahara Road, Annasandra Palya, Yemalur, Belure Ambedkar Nagar, Bangalore Urban, Karnataka, 560017, India",
            "longitude": "77.6706174862667",
            "latitude": "12.95146575",
            "blogLinks": [
                "http://wikitravel.org/en/Mangalore"
            ],
            "locType": "aerodrome"
        },
        "railway station": {
            "closest_to": "kundapur",
            "address": "Railway Station, Gauribidanuru taluk, Chikkaballapura district, Karnataka, India",
            "longitude": "77.515738",
            "latitude": "13.5029417",
            "blogLinks": [
                "http://wikitravel.org/en/Mangalore"
            ],
            "locType": "village"
        },
        "kotilingeshwara": {
            "closest_to": "kanakapura",
            "address": "Kotilingeshwara Temple, SH95, Robertsonpet, Pichchahalli, Bangarapet taluk, Kolar district, Karnataka, 563122, India",
            "longitude": "78.2953283564827",
            "latitude": "12.99473275",
            "blogLinks": [
                "http://www.nivalink.com/destination/kundapura"
            ],
            "locType": "place_of_worship"
        },
        "kambala": {
            "closest_to": "kundapur",
            "address": "Kuloor Ferry Road (Kambala Road), Alake, Kudroli, Mangaluru, Mangaluru taluk, Dakshina Kannada, Karnataka, 575001, India",
            "longitude": "74.8334129",
            "latitude": "12.8758173",
            "blogLinks": [
                "http://mustseekarnataka.blogspot.com/2011/09/must-see-kundapur.html"
            ],
            "locType": "secondary"
        },
        "state bank": {
            "closest_to": "kanakapura",
            "address": "State Bank, 100 Feet Road( S K Karim Khan Road), Appareddipalaya, Indiranagar, Bengaluru, Bangalore Urban, Karnataka, 560001, India",
            "longitude": "77.6405732",
            "latitude": "12.9802948",
            "blogLinks": [
                "http://wikitravel.org/en/Mangalore"
            ],
            "locType": "bank"
        },
        "north kerala": {
            "closest_to": "kanakapura",
            "address": "New Life Kerala Mess, Sai Baba Mandira Road, Mottappanapalaya, Indiranagar, Bengaluru, Bangalore Urban, Karnataka, 560001, India",
            "longitude": "77.6382683",
            "latitude": "12.9726449",
            "blogLinks": [
                "http://www.nivalink.com/destination/kundapura"
            ],
            "locType": "restaurant"
        },
        "mariyamma temple": {
            "closest_to": "kanakapura",
            "address": "Mariyamma temple, Railway Platform Road, Balepet, Seshadripuram, Bengaluru, Bangalore Urban, Karnataka, 560001, India",
            "longitude": "77.5713911",
            "latitude": "12.9884301",
            "blogLinks": [
                "http://mustseekarnataka.blogspot.com/2011/09/must-see-kundapur.html"
            ],
            "locType": "place_of_worship"
        },
        "shankaranarayana": {
            "closest_to": "kundapur",
            "address": "Shankaranarayana, \u0c95\u0cc1\u0c82\u0ca6\u0cbe\u0caa\u0cc1\u0cb0 \u0ca4\u0cbe\u0cb2\u0cc2\u0c95\u0cc1, Udupi district, Karnataka, 576227, India",
            "longitude": "74.8600862",
            "latitude": "13.6058955",
            "blogLinks": [
                "http://mustseekarnataka.blogspot.com/2011/09/must-see-kundapur.html"
            ],
            "locType": "village"
        },
        "court road": {
            "closest_to": "kundapur",
            "address": "Court Road, Ballari, Bellary taluk, Bellary district, Karnataka, 583103, India",
            "longitude": "76.9334095",
            "latitude": "15.147449",
            "blogLinks": [
                "http://wikitravel.org/en/Udupi"
            ],
            "locType": "tertiary"
        },
        "surathkal": {
            "closest_to": "kundapur",
            "address": "Surathkal, SH101, Suratkal, Mangaluru taluk, Dakshina Kannada, Karnataka, 575014, India",
            "longitude": "74.8055181",
            "latitude": "12.9902598",
            "blogLinks": [
                "http://wikitravel.org/en/Mangalore"
            ],
            "locType": "station"
        },
        "ooty": {
            "closest_to": "kundapur",
            "address": "Ooty Road, Vidyaranyapuram, Mysuru, Mysuru taluk, Mysuru district, Karnataka, 570001, India",
            "longitude": "76.6586807",
            "latitude": "12.2774807",
            "blogLinks": [
                "https://www.thrillophilia.com/around-bangalore",
                "https://www.thrillophilia.com/bangalore-weekend-getaways"
            ],
            "locType": "primary"
        },
        "nandi hills": {
            "closest_to": "kanakapura",
            "address": "Nandi Upahara, Nandhi Hills Road, Kottige Thimmanahalli, Devanahalli taluk, Bangalore Rural, Karnataka, India",
            "longitude": "77.7194741670394",
            "latitude": "13.268142",
            "blogLinks": [
                "https://www.thrillophilia.com/around-bangalore",
                "https://www.thrillophilia.com/bangalore-weekend-getaways"
            ],
            "locType": "hotel"
        },
        "summer park": {
            "closest_to": "kanakapura",
            "address": "Tippu's Summer Palace, A V Road, Ranasingpet, Kalasipalya, Bengaluru, Bangalore Urban, Karnataka, 560 002, India",
            "longitude": "77.5736841970666",
            "latitude": "12.95964655",
            "blogLinks": [
                "http://wikitravel.org/en/Udupi"
            ],
            "locType": "attraction"
        },
        "hosadoddi lake": {
            "closest_to": "kanakapura",
            "address": "Hosadoddi, Kanakapura taluk, Ramanagara district, Karnataka, India",
            "longitude": "77.5101083",
            "latitude": "12.4283878",
            "blogLinks": [
                "https://www.thrillophilia.com/around-bangalore"
            ],
            "locType": "village"
        },
        "bangalore": {
            "closest_to": "kanakapura",
            "address": "Bengaluru, Bangalore Urban, Karnataka, 560001, India",
            "longitude": "77.5912997",
            "latitude": "12.9791198",
            "blogLinks": [
                "http://www.nivalink.com/destination/kundapura",
                "http://distancecalculator.globefeed.com/India_Distance_Calculator.asp?state=19",
                "http://harishoutings.blogspot.com/2008/07/sangam-mekedatu-and-chunchi-falls.html",
                "http://wikitravel.org/en/Mangalore",
                "http://wikitravel.org/en/Udupi",
                "https://www.thrillophilia.com/around-bangalore",
                "http://timesofindia.indiatimes.com/city/bengaluru/Bangalore-Kanakapura-Road-to-become-four-lane/articleshow/36688531.cms",
                "http://wikitravel.org/en/Shivanasamudram",
                "https://www.thrillophilia.com/bangalore-weekend-getaways"
            ],
            "locType": "city"
        },
        "kaveri river": {
            "closest_to": "kundapur",
            "address": "Kaveri, Malavalli taluk, Mandya district, Karnataka, India",
            "longitude": "77.1600751",
            "latitude": "12.2873835",
            "blogLinks": [
                "https://www.thrillophilia.com/around-bangalore"
            ],
            "locType": "river"
        },
        "kundeshwara temple": {
            "closest_to": "kundapur",
            "address": "Kundeshwara Temple, Church Road, Vaderahobali, Kundapura, \u0c95\u0cc1\u0c82\u0ca6\u0cbe\u0caa\u0cc1\u0cb0 \u0ca4\u0cbe\u0cb2\u0cc2\u0c95\u0cc1, Udupi district, Karnataka, 576200, India",
            "longitude": "74.6883382002292",
            "latitude": "13.62498995",
            "blogLinks": [
                "http://mustseekarnataka.blogspot.com/2011/09/must-see-kundapur.html"
            ],
            "locType": "place_of_worship"
        },
        "kundapur": {
            "closest_to": "kundapur",
            "address": "United Basel mission church Higher Primary School, Kundapur, Chikkansal Road, Vaderahobali, Kundapura, \u0c95\u0cc1\u0c82\u0ca6\u0cbe\u0caa\u0cc1\u0cb0 \u0ca4\u0cbe\u0cb2\u0cc2\u0c95\u0cc1, Udupi district, Karnataka, 576200, India",
            "longitude": "74.6906749",
            "latitude": "13.6343509",
            "blogLinks": [
                "https://www.tripoto.com/weekend-getaways/from-kundapur",
                "http://www.nivalink.com/destination/kundapura",
                "http://mustseekarnataka.blogspot.com/2011/09/must-see-kundapur.html",
                "http://wikitravel.org/en/Mangalore",
                "http://wikitravel.org/en/Udupi",
                "https://www.tripoto.com/travel-guide/kundapur/hotels"
            ],
            "locType": "school"
        },
        "basavanagudi": {
            "closest_to": "kundapur",
            "address": "Basavanagudi, Bhadravati taluk, Shimoga district, Karnataka, India",
            "longitude": "75.7339359",
            "latitude": "13.8345913",
            "blogLinks": [
                "http://timesofindia.indiatimes.com/city/bengaluru/Bangalore-Kanakapura-Road-to-become-four-lane/articleshow/36688531.cms"
            ],
            "locType": "village"
        },
        "bunts hostel road": {
            "closest_to": "kundapur",
            "address": "Vijaya Clinic Bunts Hostel, Bunt's Hostel Circle, Dongerkeri, Mallikatte, Mangaluru, Mangaluru taluk, Dakshina Kannada, Karnataka, 575001, India",
            "longitude": "74.8480608559956",
            "latitude": "12.8758369",
            "blogLinks": [
                "http://wikitravel.org/en/Mangalore"
            ],
            "locType": "hospital"
        },
        "mumbai": {
            "closest_to": "kanakapura",
            "address": "Mumbai Spice, 18/2, 10th Cross, Malleswaram, Vyalikaval, Malleswaram, Bengaluru, Bangalore Urban, Karnataka, 560003, India",
            "longitude": "77.5718472",
            "latitude": "13.0002869",
            "blogLinks": [
                "http://wikitravel.org/en/Udupi",
                "http://wikitravel.org/en/Mangalore"
            ],
            "locType": "restaurant"
        },
        "bombay": {
            "closest_to": "kundapur",
            "address": "Bombay tea hotel, Hosahalli Main Road, Rajajinagar 6th Block, Goripalya, Bengaluru, Bangalore Urban, Karnataka, 560001, India",
            "longitude": "77.5500256",
            "latitude": "12.9632318",
            "blogLinks": [
                "http://timesofindia.indiatimes.com/city/bengaluru/Bangalore-Kanakapura-Road-to-become-four-lane/articleshow/36688531.cms"
            ],
            "locType": "cafe"
        },
        "botanical garden": {
            "closest_to": "kundapur",
            "address": "Botanical Garden, Cart road, Judicial Layout, Jakkur, Bangalore Urban, Karnataka, 560065, India",
            "longitude": "77.5744817798899",
            "latitude": "13.08099125",
            "blogLinks": [
                "https://www.thrillophilia.com/bangalore-weekend-getaways"
            ],
            "locType": "protected_area"
        },
        "pandeshwar": {
            "closest_to": "kundapur",
            "address": "Pandeshwar, Bunder, Mangaluru, Mangaluru taluk, Dakshina Kannada, Karnataka, 575001, India",
            "longitude": "74.8399736",
            "latitude": "12.8582212",
            "blogLinks": [
                "http://wikitravel.org/en/Mangalore"
            ],
            "locType": "neighbourhood"
        },
        "surathkal beach": {
            "closest_to": "kundapur",
            "address": "Surathkal Beach, Surathkal Beach Road, Mukka, Mangaluru taluk, Dakshina Kannada, Karnataka, 575025, India",
            "longitude": "74.7911237623544",
            "latitude": "12.99943005",
            "blogLinks": [
                "https://www.thrillophilia.com/bangalore-weekend-getaways",
                "http://wikitravel.org/en/Mangalore"
            ],
            "locType": "beach"
        },
        "om beach": {
            "closest_to": "kundapur",
            "address": "Om Beach, Om beach road, Gokarna, Kumata taluk, Uttara Kannada, Karnataka, 581326, India",
            "longitude": "74.3254331800289",
            "latitude": "14.5190376",
            "blogLinks": [
                "https://www.thrillophilia.com/bangalore-weekend-getaways"
            ],
            "locType": "beach"
        },
        "n.h.": {
            "closest_to": "kanakapura",
            "address": "Family & Labour Courts, 6/69, H. Siddiah Road, Mavalli, Shanti Nagar, Bengaluru, Bangalore Urban, Karnataka, 560027, India",
            "longitude": "77.5904647",
            "latitude": "12.9544176",
            "blogLinks": [
                "http://wikitravel.org/en/Udupi"
            ],
            "locType": "courthouse"
        },
        "byndoor": {
            "closest_to": "kundapur",
            "address": "Bainduru, \u0c95\u0cc1\u0c82\u0ca6\u0cbe\u0caa\u0cc1\u0cb0 \u0ca4\u0cbe\u0cb2\u0cc2\u0c95\u0cc1, Udupi district, Karnataka, 576214, India",
            "longitude": "74.6270036",
            "latitude": "13.8662536",
            "blogLinks": [
                "http://mustseekarnataka.blogspot.com/2011/09/must-see-kundapur.html"
            ],
            "locType": "village"
        },
        "hubli": {
            "closest_to": "kundapur",
            "address": "Hubballi - \u0cb9\u0cc1\u0cac\u0ccd\u0cac\u0cb3\u0ccd\u0cb3\u0cbf, Hubballi taluku, Dharwad district, Karnataka, 580020, India",
            "longitude": "75.1379848",
            "latitude": "15.3518378",
            "blogLinks": [
                "http://www.nivalink.com/destination/kundapura"
            ],
            "locType": "city"
        },
        "pondicherry": {
            "closest_to": "kanakapura",
            "address": "Karnataka Bank, Mission Street, Grand Bazaar, Puducherry, Puducherry district, Puducherry, 605001, India",
            "longitude": "79.831569",
            "latitude": "11.9365727",
            "blogLinks": [
                "https://www.thrillophilia.com/around-bangalore",
                "https://www.thrillophilia.com/bangalore-weekend-getaways"
            ],
            "locType": "bank"
        },
        "souparnika river": {
            "closest_to": "kundapur",
            "address": "Souparnika Bathing Ghat Road, Kollur, \u0c95\u0cc1\u0c82\u0ca6\u0cbe\u0caa\u0cc1\u0cb0 \u0ca4\u0cbe\u0cb2\u0cc2\u0c95\u0cc1, Udupi district, Karnataka, 576220, India",
            "longitude": "74.8095156",
            "latitude": "13.8642453",
            "blogLinks": [
                "http://mustseekarnataka.blogspot.com/2011/09/must-see-kundapur.html"
            ],
            "locType": "unclassified"
        },
        "margao": {
            "closest_to": "kundapur",
            "address": "Karnataka bank, NH66, Aquem, Fatorda, Margao, South Goa, Goa, 403600, India",
            "longitude": "73.9583411",
            "latitude": "15.2740083",
            "blogLinks": [
                "https://www.tripoto.com/weekend-getaways/from-kundapur"
            ],
            "locType": "bank"
        },
        "new mangalore port": {
            "closest_to": "kundapur",
            "address": "New Mangalore Port, Kuloor, Mangaluru taluk, Dakshina Kannada, Karnataka, India",
            "longitude": "74.8219606",
            "latitude": "12.9318976",
            "blogLinks": [
                "http://wikitravel.org/en/Mangalore"
            ],
            "locType": "locality"
        },
        "japanese garden": {
            "closest_to": "kanakapura",
            "address": "Hae Kum Gang (Korean/Japanese), 20, Castle Street, Shantala Nagar, Ashok Nagar, Bengaluru, Bangalore Urban, Karnataka, 560001, India",
            "longitude": "77.6055915",
            "latitude": "12.9655328",
            "blogLinks": [
                "https://www.tripoto.com/weekend-getaways/from-kundapur"
            ],
            "locType": "restaurant"
        },
        "goa": {
            "closest_to": "kanakapura",
            "address": "Carnival De Goa, Bhaskaran Road, Gupta Layout, Halasuru, Bengaluru, Bangalore Urban, Karnataka, 560001, India",
            "longitude": "77.6200027",
            "latitude": "12.9750047",
            "blogLinks": [
                "https://www.thrillophilia.com/bangalore-weekend-getaways",
                "http://wikitravel.org/en/Udupi",
                "https://www.tripoto.com/weekend-getaways/from-kundapur",
                "http://wikitravel.org/en/Mangalore"
            ],
            "locType": "restaurant"
        },
        "malavalli": {
            "closest_to": "kundapur",
            "address": "Malavalli, Malavalli taluk, Mandya district, Karnataka, 571430, India",
            "longitude": "77.0589464",
            "latitude": "12.3864073",
            "blogLinks": [
                "http://wikitravel.org/en/Shivanasamudram"
            ],
            "locType": "town"
        },
        "yelhanka": {
            "closest_to": "kundapur",
            "address": "Yelhanka Cafe Cofee Day, 3rd A Cross, Gandhinagar, Yelahanka New Town, Anantapura, Bangalore Urban, Karnataka, 560064, India",
            "longitude": "77.5880493",
            "latitude": "13.0992439",
            "blogLinks": [
                "https://www.thrillophilia.com/around-bangalore",
                "https://www.thrillophilia.com/bangalore-weekend-getaways"
            ],
            "locType": "cafe"
        },
        "udupi district": {
            "closest_to": "kundapur",
            "address": "Udupi district, Karnataka, India",
            "longitude": "74.7469037178649",
            "latitude": "13.49007305",
            "blogLinks": [
                "http://wikitravel.org/en/Mangalore"
            ],
            "locType": "administrative"
        },
        "gokarna": {
            "closest_to": "kundapur",
            "address": "Gokarna, Kumata taluk, Uttara Kannada, Karnataka, 581326, India",
            "longitude": "74.3184418",
            "latitude": "14.5439629",
            "blogLinks": [
                "https://www.thrillophilia.com/around-bangalore",
                "https://www.thrillophilia.com/bangalore-weekend-getaways"
            ],
            "locType": "town"
        },
        "india": {
            "closest_to": "kundapur",
            "address": "Karnataka, India",
            "longitude": "75.7223521",
            "latitude": "14.5203896",
            "blogLinks": [
                "https://www.tripoto.com/weekend-getaways/from-kundapur",
                "http://www.nivalink.com/destination/kundapura",
                "http://distancecalculator.globefeed.com/India_Distance_Calculator.asp?state=19",
                "http://mustseekarnataka.blogspot.com/2011/09/must-see-kundapur.html",
                "http://wikitravel.org/en/Mangalore",
                "http://wikitravel.org/en/Udupi",
                "https://www.thrillophilia.com/around-bangalore",
                "http://timesofindia.indiatimes.com/city/bengaluru/Bangalore-Kanakapura-Road-to-become-four-lane/articleshow/36688531.cms",
                "https://www.thrillophilia.com/bangalore-weekend-getaways"
            ],
            "locType": "administrative"
        },
        "delhi": {
            "closest_to": "kanakapura",
            "address": "Outer Ring Road, Green Glen Layout, Iblur, Bengaluru, Bangalore Urban, Karnataka, 560001, India",
            "longitude": "77.6666062",
            "latitude": "12.9212473",
            "blogLinks": [
                "http://timesofindia.indiatimes.com/city/bengaluru/Bangalore-Kanakapura-Road-to-become-four-lane/articleshow/36688531.cms",
                "http://wikitravel.org/en/Mangalore"
            ],
            "locType": "trunk"
        },
        "kodandarama temple": {
            "closest_to": "kanakapura",
            "address": "Kodandarama Temple, Bellandur Main Road, Green Glen Layout, Bellandur, Belure Ambedkar Nagar, Bangalore Urban, Karnataka, 560103, India",
            "longitude": "77.6763884",
            "latitude": "12.9265333",
            "blogLinks": [
                "http://mustseekarnataka.blogspot.com/2011/09/must-see-kundapur.html"
            ],
            "locType": "place_of_worship"
        },
        "malpe beach": {
            "closest_to": "kundapur",
            "address": "Malpe Beach, Malpe Road, Adi Udupi, Malpe, Udupi taluku, Udupi district, Karnataka, 576101, India",
            "longitude": "74.6977767",
            "latitude": "13.3610748",
            "blogLinks": [
                "https://www.thrillophilia.com/bangalore-weekend-getaways",
                "http://wikitravel.org/en/Udupi",
                "http://wikitravel.org/en/Mangalore"
            ],
            "locType": "marina"
        },
        "kentucky": {
            "closest_to": "kanakapura",
            "address": "Kentucky Fried Chicken, Total Mall, Hosur Road, Maruthi Nagar, Madivala, Bengaluru, Bangalore Urban, Karnataka, 560068, India",
            "longitude": "77.6200068",
            "latitude": "12.9219827",
            "blogLinks": [
                "http://wikitravel.org/en/Mangalore"
            ],
            "locType": "restaurant"
        },
        "mysore road": {
            "closest_to": "kundapur",
            "address": "Mysore Road, Avalahalli, Bengaluru, Bangalore Urban, Karnataka, 560001, India",
            "longitude": "77.5337558",
            "latitude": "12.9477396",
            "blogLinks": [
                "https://www.thrillophilia.com/bangalore-weekend-getaways"
            ],
            "locType": "trunk"
        },
        "barapole river": {
            "closest_to": "kundapur",
            "address": "Barapole, Virajpet taluk, Kodagu, Karnataka, India",
            "longitude": "75.8218551",
            "latitude": "12.0738308",
            "blogLinks": [
                "https://www.thrillophilia.com/around-bangalore"
            ],
            "locType": "river"
        },
        "big lake": {
            "closest_to": "kundapur",
            "address": "Big Bazaar, Subrahmanya Nagar, Bengaluru, Bangalore Urban, Karnataka, 560001, India",
            "longitude": "77.5534616",
            "latitude": "13.0122674",
            "blogLinks": [
                "https://www.thrillophilia.com/bangalore-weekend-getaways"
            ],
            "locType": "retail"
        },
        "dwaraka": {
            "closest_to": "kanakapura",
            "address": "Dwaraka Apartments, Hoysala Nagar, Bengaluru, Bangalore Urban, Karnataka, 560001, India",
            "longitude": "77.6405574369381",
            "latitude": "12.97984005",
            "blogLinks": [
                "http://wikitravel.org/en/Udupi"
            ],
            "locType": "residential"
        },
        "tungabhadra river": {
            "closest_to": "kundapur",
            "address": "Tungabhadra, Gangavati taluku, Koppal district, Karnataka, India",
            "longitude": "76.4931607",
            "latitude": "15.3446123",
            "blogLinks": [
                "https://www.thrillophilia.com/bangalore-weekend-getaways"
            ],
            "locType": "river"
        },
        "mangalore central railway station": {
            "closest_to": "kundapur",
            "address": "Mangalore Central, Railway Station Road, Pandeshwar, Attavar, Mangaluru, Mangaluru taluk, Dakshina Kannada, Karnataka, 575001, India",
            "longitude": "74.8432387",
            "latitude": "12.8634037",
            "blogLinks": [
                "http://wikitravel.org/en/Mangalore"
            ],
            "locType": "station"
        },
        "gangolli": {
            "closest_to": "kundapur",
            "address": "Konchadi Radha Shyne Government Higher Primary School, Kharvikeri, Gangolli, NH66, Navunda, \u0c95\u0cc1\u0c82\u0ca6\u0cbe\u0caa\u0cc1\u0cb0 \u0ca4\u0cbe\u0cb2\u0cc2\u0c95\u0cc1, Udupi district, Karnataka, 576224, India",
            "longitude": "74.6642475",
            "latitude": "13.6554353",
            "blogLinks": [
                "http://www.nivalink.com/destination/kundapura",
                "http://mustseekarnataka.blogspot.com/2011/09/must-see-kundapur.html"
            ],
            "locType": "school"
        },
        "kali": {
            "closest_to": "kundapur",
            "address": "Kali, Joida taluk, Uttara Kannada, Karnataka, India",
            "longitude": "74.5802901",
            "latitude": "15.0145378",
            "blogLinks": [
                "https://www.thrillophilia.com/bangalore-weekend-getaways"
            ],
            "locType": "river"
        },
        "kota": {
            "closest_to": "kundapur",
            "address": "Kota, Hukkeri taluku, Belgaum district, Karnataka, India",
            "longitude": "74.4225448",
            "latitude": "16.0939839",
            "blogLinks": [
                "http://mustseekarnataka.blogspot.com/2011/09/must-see-kundapur.html"
            ],
            "locType": "village"
        },
        "shankar building": {
            "closest_to": "kanakapura",
            "address": "Ginger Greens, 122/4, Outer Ring Road, GNR Gardens, Kalyan Nagar, Chelekere, Bangalore Urban, Karnataka, 560043, India",
            "longitude": "77.6405519",
            "latitude": "13.0259923",
            "blogLinks": [
                "http://wikitravel.org/en/Udupi"
            ],
            "locType": "restaurant"
        },
        "town hall": {
            "closest_to": "kanakapura",
            "address": "Town Hall, Silver Jubilee Park Road, Ganigarpet, Chickpet, Bengaluru, Bangalore Urban, Karnataka, 560001, India",
            "longitude": "77.5842738",
            "latitude": "12.9638535",
            "blogLinks": [
                "http://wikitravel.org/en/Mangalore"
            ],
            "locType": "bus_stop"
        },
        "taluk": {
            "closest_to": "kundapur",
            "address": "Karnataka, Shalivahana Road, Nazarbad, Mysuru, Mysuru taluk, Mysuru district, Karnataka, 570001, India",
            "longitude": "76.6639936",
            "latitude": "12.3084901",
            "blogLinks": [
                "http://wikitravel.org/en/Udupi"
            ],
            "locType": "atm"
        },
        "kemmannu": {
            "closest_to": "kundapur",
            "address": "Kemmannu, Udupi taluku, Udupi district, Karnataka, India",
            "longitude": "74.7091185",
            "latitude": "13.4007564",
            "blogLinks": [
                "http://wikitravel.org/en/Udupi",
                "http://harishoutings.blogspot.com/2008/07/sangam-mekedatu-and-chunchi-falls.html"
            ],
            "locType": "village"
        },
        "panambur": {
            "closest_to": "kundapur",
            "address": "Panambur, Mangaluru taluk, Dakshina Kannada, Karnataka, India",
            "longitude": "74.8031577",
            "latitude": "12.9535736",
            "blogLinks": [
                "http://wikitravel.org/en/Mangalore"
            ],
            "locType": "village"
        },
        "kabini": {
            "closest_to": "kundapur",
            "address": "Kabini, Heggadadevanakote taluk, Mysuru district, Karnataka, India",
            "longitude": "76.4152088",
            "latitude": "12.0140065",
            "blogLinks": [
                "https://www.thrillophilia.com/bangalore-weekend-getaways"
            ],
            "locType": "river"
        },
        "sangam": {
            "closest_to": "kanakapura",
            "address": "Sangam, FM Cariappa Road (Residency Road), Shantala Nagar, MacIvor Town, Bengaluru, Bangalore Urban, Karnataka, 560001, India",
            "longitude": "77.6065672",
            "latitude": "12.9718928",
            "blogLinks": [
                "http://harishoutings.blogspot.com/2008/07/sangam-mekedatu-and-chunchi-falls.html"
            ],
            "locType": "restaurant"
        },
        "north goa": {
            "closest_to": "kanakapura",
            "address": "Carnival De Goa, Bhaskaran Road, Gupta Layout, Halasuru, Bengaluru, Bangalore Urban, Karnataka, 560001, India",
            "longitude": "77.6200027",
            "latitude": "12.9750047",
            "blogLinks": [
                "https://www.tripoto.com/weekend-getaways/from-kundapur"
            ],
            "locType": "restaurant"
        },
        "dakshina kannada district": {
            "closest_to": "kundapur",
            "address": "Dakshina Kannada, Karnataka, India",
            "longitude": "74.9813132",
            "latitude": "12.9324457",
            "blogLinks": [
                "http://wikitravel.org/en/Mangalore"
            ],
            "locType": "county"
        },
        "tunga": {
            "closest_to": "kundapur",
            "address": "Tunga, Tirthahalli taluk, Shimoga district, Karnataka, India",
            "longitude": "75.3221835",
            "latitude": "13.6632221",
            "blogLinks": [
                "https://www.thrillophilia.com/bangalore-weekend-getaways"
            ],
            "locType": "river"
        },
        "kerala": {
            "closest_to": "kanakapura",
            "address": "New Life Kerala Mess, Sai Baba Mandira Road, Mottappanapalaya, Indiranagar, Bengaluru, Bangalore Urban, Karnataka, 560001, India",
            "longitude": "77.6382683",
            "latitude": "12.9726449",
            "blogLinks": [
                "https://www.thrillophilia.com/bangalore-weekend-getaways",
                "http://wikitravel.org/en/Udupi",
                "http://wikitravel.org/en/Mangalore"
            ],
            "locType": "restaurant"
        },
        "yeyyadi": {
            "closest_to": "kundapur",
            "address": "Yeyyadi, Konchady, Mangaluru taluk, Dakshina Kannada, Karnataka, India",
            "longitude": "74.861564",
            "latitude": "12.8979468",
            "blogLinks": [
                "http://wikitravel.org/en/Mangalore"
            ],
            "locType": "suburb"
        },
        "malayalam": {
            "closest_to": "kanakapura",
            "address": "Lowry Adventist Malayalam Church, A Narayanapura Main Road, Darga Mohalla, Udaya Nagar, A Narayanapura, Bangalore Urban, Karnataka, 560016, India",
            "longitude": "77.6774283",
            "latitude": "12.9985726",
            "blogLinks": [
                "http://wikitravel.org/en/Mangalore"
            ],
            "locType": "place_of_worship"
        },
        "karanataka": {
            "closest_to": "kanakapura",
            "address": "North Karanataka mess, Dr. Vishnuvardhan Road, Seven Hills Layout, Chikkalasandra, Bengaluru, Bangalore Urban, Karnataka, 560001, India",
            "longitude": "77.5499084",
            "latitude": "12.9094097",
            "blogLinks": [
                "https://www.thrillophilia.com/bangalore-weekend-getaways"
            ],
            "locType": "fast_food"
        },
        "karavali": {
            "closest_to": "kanakapura",
            "address": "Karavali Lunch Home, 45, Kathriguppe Main Road, Seven Hills Layout, Kathriguppe, Bengaluru, Bangalore Urban, Karnataka, 560085, India",
            "longitude": "77.5535559",
            "latitude": "12.9306311",
            "blogLinks": [
                "http://wikitravel.org/en/Udupi"
            ],
            "locType": "restaurant"
        },
        "cauvery river": {
            "closest_to": "kanakapura",
            "address": "Temple Trees Rd, Cauvery Colony, ST Bed Layout, Koramangala, Bengaluru, Bangalore Urban, Karnataka, 560001, India",
            "longitude": "77.635647",
            "latitude": "12.9327668",
            "blogLinks": [
                "http://harishoutings.blogspot.com/2008/07/sangam-mekedatu-and-chunchi-falls.html"
            ],
            "locType": "unclassified"
        },
        "temple square": {
            "closest_to": "kundapur",
            "address": "Temple Square, Dongerkeri, Bunder, Mangaluru, Mangaluru taluk, Dakshina Kannada, Karnataka, 575001, India",
            "longitude": "74.8381033",
            "latitude": "12.869703",
            "blogLinks": [
                "http://wikitravel.org/en/Mangalore"
            ],
            "locType": "tertiary_link"
        },
        "puttur": {
            "closest_to": "kundapur",
            "address": "Putturu, Putturu taluk, Dakshina Kannada, Karnataka, 574200, India",
            "longitude": "75.2018421",
            "latitude": "12.7632858",
            "blogLinks": [
                "http://wikitravel.org/en/Mangalore"
            ],
            "locType": "town"
        },
        "hebri": {
            "closest_to": "kundapur",
            "address": "Hebri, Karkala taluk, Udupi district, Karnataka, India",
            "longitude": "74.9911872",
            "latitude": "13.4586986",
            "blogLinks": [
                "http://wikitravel.org/en/Udupi"
            ],
            "locType": "village"
        },
        "barkuru": {
            "closest_to": "kundapur",
            "address": "Barkuru, Udupi taluku, Udupi district, Karnataka, India",
            "longitude": "74.7536442",
            "latitude": "13.4674306",
            "blogLinks": [
                "http://mustseekarnataka.blogspot.com/2011/09/must-see-kundapur.html"
            ],
            "locType": "village"
        },
        "pushpagiri": {
            "closest_to": "kundapur",
            "address": "Pushpagiri Nagar, Bengaluru, Bangalore Urban, Karnataka, 560001, India",
            "longitude": "77.5333268",
            "latitude": "12.9297622",
            "blogLinks": [
                "https://www.thrillophilia.com/bangalore-weekend-getaways"
            ],
            "locType": "locality"
        },
        "mangalore-udupi": {
            "closest_to": "kundapur",
            "address": "Mangalore Tiles Pvt Ltd, Vaderahobali, Kodi, \u0c95\u0cc1\u0c82\u0ca6\u0cbe\u0caa\u0cc1\u0cb0 \u0ca4\u0cbe\u0cb2\u0cc2\u0c95\u0cc1, Udupi district, Karnataka, 576201, India",
            "longitude": "74.6783124676725",
            "latitude": "13.628752",
            "blogLinks": [
                "http://wikitravel.org/en/Mangalore"
            ],
            "locType": "industrial"
        },
        "sri krishna": {
            "closest_to": "kanakapura",
            "address": "Sri Krishna Nagar, Bangalore Urban, Karnataka, India",
            "longitude": "77.6535472",
            "latitude": "13.0775838",
            "blogLinks": [
                "http://wikitravel.org/en/Udupi"
            ],
            "locType": "village"
        },
        "tadiandamol peak": {
            "closest_to": "kundapur",
            "address": "Tadiandamol, Madikeri taluku, Kodagu, Karnataka, India",
            "longitude": "75.608815",
            "latitude": "12.2175641",
            "blogLinks": [
                "https://www.thrillophilia.com/around-bangalore"
            ],
            "locType": "peak"
        },
        "mangalore junction": {
            "closest_to": "kundapur",
            "address": "Mangalore Junction, NH73, Padil, Kodakal, Mangaluru taluk, Dakshina Kannada, Karnataka, 575007, India",
            "longitude": "74.8795068",
            "latitude": "12.8664586",
            "blogLinks": [
                "http://wikitravel.org/en/Mangalore"
            ],
            "locType": "station"
        },
        "anegudde": {
            "closest_to": "kundapur",
            "address": "Anegudde Ganapathi Temple, Anugudde Ganapathi Temple Road, Vaderahobali, Kumbhashi, \u0c95\u0cc1\u0c82\u0ca6\u0cbe\u0caa\u0cc1\u0cb0 \u0ca4\u0cbe\u0cb2\u0cc2\u0c95\u0cc1, Udupi district, Karnataka, 576231, India",
            "longitude": "74.70466635",
            "latitude": "13.56926545",
            "blogLinks": [
                "http://mustseekarnataka.blogspot.com/2011/09/must-see-kundapur.html"
            ],
            "locType": "place_of_worship"
        },
        "oman": {
            "closest_to": "kanakapura",
            "address": "Oman Topaz, Iblur, Bengaluru, Bangalore Urban, Karnataka, 560001, India",
            "longitude": "77.6521686538304",
            "latitude": "12.92462395",
            "blogLinks": [
                "http://wikitravel.org/en/Mangalore"
            ],
            "locType": "residential"
        },
        "nagodi": {
            "closest_to": "kundapur",
            "address": "Nagodi, Hosanagara taluk, Shimoga district, Karnataka, India",
            "longitude": "74.8606716",
            "latitude": "13.9124489",
            "blogLinks": [
                "http://mustseekarnataka.blogspot.com/2011/09/must-see-kundapur.html"
            ],
            "locType": "village"
        },
        "mangalore": {
            "closest_to": "kundapur",
            "address": "Mangaluru, Mangaluru taluk, Dakshina Kannada, Karnataka, 575001, India",
            "longitude": "74.8430082",
            "latitude": "12.8698101",
            "blogLinks": [
                "https://www.tripoto.com/weekend-getaways/from-kundapur",
                "http://www.nivalink.com/destination/kundapura",
                "http://mustseekarnataka.blogspot.com/2011/09/must-see-kundapur.html",
                "http://wikitravel.org/en/Mangalore",
                "http://wikitravel.org/en/Udupi",
                "https://www.thrillophilia.com/bangalore-weekend-getaways"
            ],
            "locType": "city"
        },
        "kumara parvatha": {
            "closest_to": "kundapur",
            "address": "Kumara Parvatha, Somawarpet taluk, Kodagu, Karnataka, India",
            "longitude": "75.6865652",
            "latitude": "12.6623315",
            "blogLinks": [
                "https://www.thrillophilia.com/bangalore-weekend-getaways"
            ],
            "locType": "peak"
        },
        "barapole": {
            "closest_to": "kundapur",
            "address": "Barapole, Virajpet taluk, Kodagu, Karnataka, India",
            "longitude": "75.8218551",
            "latitude": "12.0738308",
            "blogLinks": [
                "https://www.thrillophilia.com/around-bangalore"
            ],
            "locType": "river"
        },
        "kudle beach": {
            "closest_to": "kundapur",
            "address": "Kudle Beach, Om beach road, Gokarna, Kumata taluk, Uttara Kannada, Karnataka, 581326, India",
            "longitude": "74.3156783937192",
            "latitude": "14.5281015",
            "blogLinks": [
                "https://www.thrillophilia.com/bangalore-weekend-getaways"
            ],
            "locType": "beach"
        },
        "kunti betta": {
            "closest_to": "kundapur",
            "address": "Kunti Betta, Pandavapura taluk, Mandya district, Karnataka, India",
            "longitude": "76.6982646",
            "latitude": "12.5082433",
            "blogLinks": [
                "https://www.thrillophilia.com/around-bangalore",
                "https://www.thrillophilia.com/bangalore-weekend-getaways"
            ],
            "locType": "peak"
        },
        "gitanjali": {
            "closest_to": "kanakapura",
            "address": "Gitanjali Layout, Thippasandra, Bengaluru, Bangalore Urban, Karnataka, 560001, India",
            "longitude": "77.6537885",
            "latitude": "12.9758758",
            "blogLinks": [
                "http://wikitravel.org/en/Udupi"
            ],
            "locType": "neighbourhood"
        },
        "bangalore city": {
            "closest_to": "kanakapura",
            "address": "Bengaluru, Bangalore Urban, Karnataka, 560001, India",
            "longitude": "77.5912997",
            "latitude": "12.9791198",
            "blogLinks": [
                "https://www.thrillophilia.com/bangalore-weekend-getaways"
            ],
            "locType": "city"
        },
        "kanakapura": {
            "closest_to": "kanakapura",
            "address": "Kanakapura, Kanakapura taluk, Ramanagara district, Karnataka, 562117, India",
            "longitude": "77.4199095",
            "latitude": "12.5450268",
            "blogLinks": [
                "http://distancecalculator.globefeed.com/India_Distance_Calculator.asp?state=19",
                "http://wikitravel.org/en/Shivanasamudram",
                "https://www.thrillophilia.com/bangalore-weekend-getaways"
            ],
            "locType": "town"
        },
        "venkataramana temple": {
            "closest_to": "kanakapura",
            "address": "Venkataramana Temple, 20th Cross Road, Anantnagar, Sampige Nagara, Bangalore Urban, Karnataka, 560099, India",
            "longitude": "77.6895365754579",
            "latitude": "12.8380349",
            "blogLinks": [
                "http://wikitravel.org/en/Mangalore"
            ],
            "locType": "place_of_worship"
        },
        "brahmagiri": {
            "closest_to": "kundapur",
            "address": "Brahmagiri, Madikeri taluku, Kodagu, Karnataka, India",
            "longitude": "75.490746",
            "latitude": "12.3868578",
            "blogLinks": [
                "https://www.thrillophilia.com/around-bangalore",
                "https://www.thrillophilia.com/bangalore-weekend-getaways"
            ],
            "locType": "peak"
        },
        "nehru avenue": {
            "closest_to": "kundapur",
            "address": "Nehru Avenue, Lalbagh, Ladyhill, Mangaluru, Mangaluru taluk, Dakshina Kannada, Karnataka, 575001, India",
            "longitude": "74.8357306",
            "latitude": "12.8847426",
            "blogLinks": [
                "http://wikitravel.org/en/Mangalore"
            ],
            "locType": "tertiary"
        },
        "tamil nadu": {
            "closest_to": "kanakapura",
            "address": "KARNATAKA BANK, Diwan Bhadur Road, Five Corner, RS Puram, Coimbatore, Coimbatore district, Tamil Nadu, 641001, India",
            "longitude": "76.9514152",
            "latitude": "11.0025894",
            "blogLinks": [
                "http://timesofindia.indiatimes.com/city/bengaluru/Bangalore-Kanakapura-Road-to-become-four-lane/articleshow/36688531.cms",
                "https://www.thrillophilia.com/bangalore-weekend-getaways"
            ],
            "locType": "bank"
        },
        "kannada": {
            "closest_to": "kundapur",
            "address": "Dakshina Kannada, Karnataka, India",
            "longitude": "75.1008028650794",
            "latitude": "12.8114089",
            "blogLinks": [
                "http://harishoutings.blogspot.com/2008/07/sangam-mekedatu-and-chunchi-falls.html"
            ],
            "locType": "administrative"
        },
        "mangalore international airport": {
            "closest_to": "kundapur",
            "address": "Mangalore International Airport, Airport Entry Road, Gandhinagar, Kenjar, Mangaluru taluk, Dakshina Kannada, Karnataka, 575015, India",
            "longitude": "74.887492668144",
            "latitude": "12.95518575",
            "blogLinks": [
                "http://wikitravel.org/en/Udupi",
                "http://wikitravel.org/en/Mangalore"
            ],
            "locType": "aerodrome"
        },
        "kodachadri peak": {
            "closest_to": "kundapur",
            "address": "Kodachadri, \u0c95\u0cc1\u0c82\u0ca6\u0cbe\u0caa\u0cc1\u0cb0 \u0ca4\u0cbe\u0cb2\u0cc2\u0c95\u0cc1, Udupi district, Karnataka, India",
            "longitude": "74.8705395",
            "latitude": "13.8565758",
            "blogLinks": [
                "http://mustseekarnataka.blogspot.com/2011/09/must-see-kundapur.html"
            ],
            "locType": "peak"
        },
        "siddhivinayaka temple": {
            "closest_to": "kundapur",
            "address": "Sri Siddhivinayaka Temple, NH766C;SH26, Guddekoppa, Hosanagara taluk, Shimoga district, Karnataka, India",
            "longitude": "75.0599098",
            "latitude": "13.8676974",
            "blogLinks": [
                "http://www.nivalink.com/destination/kundapura"
            ],
            "locType": "place_of_worship"
        },
        "children park": {
            "closest_to": "kundapur",
            "address": "Children' play park, 42nd Cross Road, Rajajinagar 4th Block, Rajaji Nagar, Bengaluru, Bangalore Urban, Karnataka, 560001, India",
            "longitude": "77.5571952997296",
            "latitude": "12.98990995",
            "blogLinks": [
                "http://wikitravel.org/en/Mangalore"
            ],
            "locType": "park"
        },
        "kadri": {
            "closest_to": "kundapur",
            "address": "Kadri, Mangaluru, Mangaluru taluk, Dakshina Kannada, Karnataka, 575001, India",
            "longitude": "74.8501424",
            "latitude": "12.8897288",
            "blogLinks": [
                "http://wikitravel.org/en/Mangalore"
            ],
            "locType": "suburb"
        },
        "coorg": {
            "closest_to": "kundapur",
            "address": "Madikeri, Madikeri taluku, Kodagu, Karnataka, India",
            "longitude": "75.740031",
            "latitude": "12.4204003",
            "blogLinks": [
                "https://www.thrillophilia.com/around-bangalore",
                "https://www.thrillophilia.com/bangalore-weekend-getaways"
            ],
            "locType": "town"
        },
        "kodachadri": {
            "closest_to": "kundapur",
            "address": "Kodachadri, \u0c95\u0cc1\u0c82\u0ca6\u0cbe\u0caa\u0cc1\u0cb0 \u0ca4\u0cbe\u0cb2\u0cc2\u0c95\u0cc1, Udupi district, Karnataka, India",
            "longitude": "74.8705395",
            "latitude": "13.8565758",
            "blogLinks": [
                "https://www.thrillophilia.com/around-bangalore",
                "http://mustseekarnataka.blogspot.com/2011/09/must-see-kundapur.html"
            ],
            "locType": "peak"
        },
        "siddapur": {
            "closest_to": "kundapur",
            "address": "Siddapur, \u0c95\u0cc1\u0c82\u0ca6\u0cbe\u0caa\u0cc1\u0cb0 \u0ca4\u0cbe\u0cb2\u0cc2\u0c95\u0cc1, Udupi district, Karnataka, 576229, India",
            "longitude": "74.911019",
            "latitude": "13.6626885",
            "blogLinks": [
                "http://mustseekarnataka.blogspot.com/2011/09/must-see-kundapur.html"
            ],
            "locType": "village"
        },
        "kiocl": {
            "closest_to": "kundapur",
            "address": "Kudremukh Iron Ore Corporation - KIOCL, Kudremukha, Mudigere taluk, Chikkamagaluru district, Karnataka, India",
            "longitude": "75.2503200807711",
            "latitude": "13.20979135",
            "blogLinks": [
                "http://wikitravel.org/en/Mangalore"
            ],
            "locType": "industrial"
        },
        "balmatta": {
            "closest_to": "kundapur",
            "address": "Balmatta Cross Road, Dongerkeri, Attavar, Mangaluru, Mangaluru taluk, Dakshina Kannada, Karnataka, 575001, India",
            "longitude": "74.8464219",
            "latitude": "12.8705202",
            "blogLinks": [
                "http://wikitravel.org/en/Mangalore"
            ],
            "locType": "primary"
        },
        "kirimanjeshwara": {
            "closest_to": "kundapur",
            "address": "Government Lower Primary Kannada School, Nagoor, Kirimanjeshwara, NH66, Navunda, \u0c95\u0cc1\u0c82\u0ca6\u0cbe\u0caa\u0cc1\u0cb0 \u0ca4\u0cbe\u0cb2\u0cc2\u0c95\u0cc1, Udupi district, Karnataka, 576224, India",
            "longitude": "74.6402601",
            "latitude": "13.7931089",
            "blogLinks": [
                "http://mustseekarnataka.blogspot.com/2011/09/must-see-kundapur.html"
            ],
            "locType": "school"
        },
        "kankanady": {
            "closest_to": "kundapur",
            "address": "Kankanady, Mangaluru, Mangaluru taluk, Dakshina Kannada, Karnataka, 575001, India",
            "longitude": "74.8600033",
            "latitude": "12.8646481",
            "blogLinks": [
                "http://wikitravel.org/en/Mangalore"
            ],
            "locType": "suburb"
        },
        "moodabidri": {
            "closest_to": "kundapur",
            "address": "Moodabidri, Mangaluru taluk, Dakshina Kannada, Karnataka, 574227, India",
            "longitude": "74.9977469",
            "latitude": "13.0699218",
            "blogLinks": [
                "http://wikitravel.org/en/Mangalore"
            ],
            "locType": "town"
        },
        "salem": {
            "closest_to": "kanakapura",
            "address": "Salem Kitchen, 1st Main Road, AECS Layout B Block, Brookefields, Siddapura, Bangalore Urban, Karnataka, 560066, India",
            "longitude": "77.717708",
            "latitude": "12.9645529",
            "blogLinks": [
                "https://www.thrillophilia.com/bangalore-weekend-getaways"
            ],
            "locType": "restaurant"
        },
        "udupi railway station": {
            "closest_to": "kundapur",
            "address": "Udupi Railway Station, Railway Godown Road, Indrali, Udupi, Udupi taluku, Udupi district, Karnataka, 576101, India",
            "longitude": "74.7710217",
            "latitude": "13.3360878",
            "blogLinks": [
                "http://wikitravel.org/en/Udupi"
            ],
            "locType": "station"
        },
        "banashankari": {
            "closest_to": "kundapur",
            "address": "Banashankari, Badami taluku, Bagalkote district, Karnataka, India",
            "longitude": "75.7046777",
            "latitude": "15.8876779",
            "blogLinks": [
                "http://harishoutings.blogspot.com/2008/07/sangam-mekedatu-and-chunchi-falls.html"
            ],
            "locType": "hamlet"
        },
        "dubai": {
            "closest_to": "kanakapura",
            "address": "Dubai Plaza, Rest House Road, Shantala Nagar, Ashok Nagar, Bengaluru, Bangalore Urban, Karnataka, 560001, India",
            "longitude": "77.6067717",
            "latitude": "12.9737065",
            "blogLinks": [
                "http://wikitravel.org/en/Mangalore"
            ],
            "locType": "gift"
        },
        "balmatta road": {
            "closest_to": "kundapur",
            "address": "Balmatta Road, Dongerkeri, Mallikatte, Mangaluru, Mangaluru taluk, Dakshina Kannada, Karnataka, 575001, India",
            "longitude": "74.8524497",
            "latitude": "12.8736052",
            "blogLinks": [
                "http://wikitravel.org/en/Mangalore"
            ],
            "locType": "primary"
        },
        "bharath mall": {
            "closest_to": "kundapur",
            "address": "Bharath Mall, Bejai Kavoor Road, Kuntikan, Ladyhill, Mangaluru, Mangaluru taluk, Dakshina Kannada, Karnataka, 575001, India",
            "longitude": "74.8409906244172",
            "latitude": "12.8864571",
            "blogLinks": [
                "http://wikitravel.org/en/Mangalore"
            ],
            "locType": "mall"
        },
        "udupi": {
            "closest_to": "kundapur",
            "address": "Udupi, Udupi taluku, Udupi district, Karnataka, 576101, India",
            "longitude": "74.7473232",
            "latitude": "13.3419169",
            "blogLinks": [
                "http://wikitravel.org/en/Udupi",
                "http://mustseekarnataka.blogspot.com/2011/09/must-see-kundapur.html",
                "http://wikitravel.org/en/Mangalore"
            ],
            "locType": "city"
        },
        "ratha beedi": {
            "closest_to": "kundapur",
            "address": "Ratha Beedi, Ujire, Beltangadi taluk, Dakshina Kannada, Karnataka, India",
            "longitude": "75.3322859",
            "latitude": "12.9966235",
            "blogLinks": [
                "http://wikitravel.org/en/Udupi"
            ],
            "locType": "path"
        },
        "ghati subramanya": {
            "closest_to": "kundapur",
            "address": "Subramanya Ghati Temple, SH9, Kelagina Juganahalli, Doddaballapura taluk, Bangalore Rural, Karnataka, India",
            "longitude": "77.5281425",
            "latitude": "13.408538",
            "blogLinks": [
                "https://www.thrillophilia.com/bangalore-weekend-getaways"
            ],
            "locType": "place_of_worship"
        },
        "uppinakudru": {
            "closest_to": "kundapur",
            "address": "Uppinakudru, \u0c95\u0cc1\u0c82\u0ca6\u0cbe\u0caa\u0cc1\u0cb0 \u0ca4\u0cbe\u0cb2\u0cc2\u0c95\u0cc1, Udupi district, Karnataka, India",
            "longitude": "74.6908524",
            "latitude": "13.6587767",
            "blogLinks": [
                "http://mustseekarnataka.blogspot.com/2011/09/must-see-kundapur.html"
            ],
            "locType": "village"
        },
        "bhadra river": {
            "closest_to": "kundapur",
            "address": "Bhadra, Chikkamagaluru taluku, Chikkamagaluru district, Karnataka, India",
            "longitude": "75.527118",
            "latitude": "13.4888356",
            "blogLinks": [
                "https://www.thrillophilia.com/bangalore-weekend-getaways"
            ],
            "locType": "river"
        },
        "netravati river": {
            "closest_to": "kundapur",
            "address": "Netravati, Bantwal taluk, Dakshina Kannada, Karnataka, India",
            "longitude": "75.1562182",
            "latitude": "12.8537655",
            "blogLinks": [
                "http://wikitravel.org/en/Mangalore"
            ],
            "locType": "river"
        },
        "swarna": {
            "closest_to": "kanakapura",
            "address": "Swarna Heavens Apartments, Kadugodi, Prashanth Extension, Bangalore Urban, Karnataka, 56066, India",
            "longitude": "77.7470609309447",
            "latitude": "12.9824947",
            "blogLinks": [
                "http://wikitravel.org/en/Udupi"
            ],
            "locType": "residential"
        },
        "wonderla": {
            "closest_to": "kundapur",
            "address": "Wonderla, Wonder La Road, Manchanayakanahalli, Ramanagara taluk, Ramanagara district, Karnataka, India",
            "longitude": "77.4026822",
            "latitude": "12.8382986",
            "blogLinks": [
                "https://www.thrillophilia.com/around-bangalore"
            ],
            "locType": "bus_stop"
        },
        "dharmasthala": {
            "closest_to": "kundapur",
            "address": "Dharmasthala, Beltangadi taluk, Dakshina Kannada, Karnataka, 574216, India",
            "longitude": "75.3813122",
            "latitude": "12.9519571",
            "blogLinks": [
                "http://wikitravel.org/en/Mangalore"
            ],
            "locType": "village"
        },
        "deralakatte": {
            "closest_to": "kundapur",
            "address": "Deralakatte, Mangaluru taluk, Dakshina Kannada, Karnataka, India",
            "longitude": "74.8982397",
            "latitude": "12.809008",
            "blogLinks": [
                "http://wikitravel.org/en/Mangalore"
            ],
            "locType": "village"
        },
        "golden lake.the": {
            "closest_to": "kanakapura",
            "address": "Golden Incense Factory, JP Nagar 1st Phase, Bengaluru, Bangalore Urban, Karnataka, 560001, India",
            "longitude": "77.5855335564846",
            "latitude": "12.9156084",
            "blogLinks": [
                "https://www.thrillophilia.com/bangalore-weekend-getaways"
            ],
            "locType": "industrial"
        },
        "rao road": {
            "closest_to": "kanakapura",
            "address": "Mission Road (Kalinga Rao Road ), Sampangirama Nagar, Shanti Nagar, Bengaluru, Bangalore Urban, Karnataka, 560001, India",
            "longitude": "77.591801",
            "latitude": "12.9625233",
            "blogLinks": [
                "http://wikitravel.org/en/Mangalore"
            ],
            "locType": "primary"
        },
        "shantadurga": {
            "closest_to": "kundapur",
            "address": "Shantadurga Temple, NH66, Kodibag, Chittakula, Karavara taluk, Uttara Kannada, Karnataka, 581352, India",
            "longitude": "74.1334229242931",
            "latitude": "14.84849645",
            "blogLinks": [
                "https://www.thrillophilia.com/bangalore-weekend-getaways"
            ],
            "locType": "place_of_worship"
        },
        "kali river": {
            "closest_to": "kundapur",
            "address": "Kali, Joida taluk, Uttara Kannada, Karnataka, India",
            "longitude": "74.5802901",
            "latitude": "15.0145378",
            "blogLinks": [
                "https://www.thrillophilia.com/around-bangalore",
                "https://www.thrillophilia.com/bangalore-weekend-getaways"
            ],
            "locType": "river"
        },
        "south goa": {
            "closest_to": "kundapur",
            "address": "Karnataka bank, NH66, Aquem, Fatorda, Margao, South Goa, Goa, 403600, India",
            "longitude": "73.9583411",
            "latitude": "15.2740083",
            "blogLinks": [
                "https://www.tripoto.com/weekend-getaways/from-kundapur"
            ],
            "locType": "bank"
        },
        "jyothi circle": {
            "closest_to": "kundapur",
            "address": "Jyothi Nagar, Chikkamagaluru, Chikkamagaluru taluku, Chikkamagaluru district, Karnataka, 577101, India",
            "longitude": "75.791516",
            "latitude": "13.3323715",
            "blogLinks": [
                "http://wikitravel.org/en/Mangalore"
            ],
            "locType": "suburb"
        },
        "kanchipuram": {
            "closest_to": "kanakapura",
            "address": "Karnataka, West Mada Street, Srivari Temple, Tirumala, Chittoor, Andhra Pradesh, 517504, India",
            "longitude": "79.3452447",
            "latitude": "13.6841958",
            "blogLinks": [
                "http://wikitravel.org/en/Udupi"
            ],
            "locType": "hotel"
        },
        "bannerghatta national park": {
            "closest_to": "kanakapura",
            "address": "Bannerghatta National Park, Anekal Road, Begihalli, Bangalore Urban, Karnataka, 560076, India",
            "longitude": "77.5722783830694",
            "latitude": "12.77900335",
            "blogLinks": [
                "https://www.thrillophilia.com/around-bangalore"
            ],
            "locType": "national_park"
        },
        "mandovi river": {
            "closest_to": "kanakapura",
            "address": "Mandovi Motors, Wheeler Road Flyover, MSO Colony, Cox Town, Bengaluru, Bangalore Urban, Karnataka, 560001, India",
            "longitude": "77.6190505",
            "latitude": "12.9965335",
            "blogLinks": [
                "https://www.tripoto.com/weekend-getaways/from-kundapur"
            ],
            "locType": "car"
        },
        "sarovara": {
            "closest_to": "kanakapura",
            "address": "Sarovara, 14th Main Road, Jagruthi Colony, Puttenahalli, Bengaluru, Bangalore Urban, Karnataka, 560001, India",
            "longitude": "77.5818071",
            "latitude": "12.8943291",
            "blogLinks": [
                "http://wikitravel.org/en/Udupi"
            ],
            "locType": "restaurant"
        },
        "karnataka": {
            "closest_to": "kundapur",
            "address": "Karnataka, Shalivahana Road, Nazarbad, Mysuru, Mysuru taluk, Mysuru district, Karnataka, 570001, India",
            "longitude": "76.6639936",
            "latitude": "12.3084901",
            "blogLinks": [
                "http://www.nivalink.com/destination/kundapura",
                "http://distancecalculator.globefeed.com/India_Distance_Calculator.asp?state=19",
                "http://harishoutings.blogspot.com/2008/07/sangam-mekedatu-and-chunchi-falls.html",
                "http://mustseekarnataka.blogspot.com/2011/09/must-see-kundapur.html",
                "http://wikitravel.org/en/Mangalore",
                "http://wikitravel.org/en/Udupi",
                "https://www.thrillophilia.com/around-bangalore",
                "http://wikitravel.org/en/Shivanasamudram",
                "https://www.thrillophilia.com/bangalore-weekend-getaways"
            ],
            "locType": "atm"
        },
        "karwar": {
            "closest_to": "kundapur",
            "address": "Karwar, Karavara taluk, Uttara Kannada, Karnataka, 581300, India",
            "longitude": "74.1319229",
            "latitude": "14.8120931",
            "blogLinks": [
                "https://www.thrillophilia.com/bangalore-weekend-getaways"
            ],
            "locType": "town"
        },
        "brahmavar": {
            "closest_to": "kundapur",
            "address": "Brahmavar Market Road, Brahmavara, Udupi taluku, Udupi district, Karnataka, 576213, India",
            "longitude": "74.7453719",
            "latitude": "13.4373633",
            "blogLinks": [
                "http://wikitravel.org/en/Udupi",
                "http://mustseekarnataka.blogspot.com/2011/09/must-see-kundapur.html"
            ],
            "locType": "tertiary"
        },
        "kodagu": {
            "closest_to": "kundapur",
            "address": "Kodagu, Karnataka, India",
            "longitude": "75.6677235950852",
            "latitude": "12.38117345",
            "blogLinks": [
                "https://www.thrillophilia.com/around-bangalore",
                "https://www.thrillophilia.com/bangalore-weekend-getaways"
            ],
            "locType": "administrative"
        },
        "kalpana": {
            "closest_to": "kundapur",
            "address": "Kalpana, Kavi Muddana Marg, Indiranagara, Udupi, Udupi taluku, Udupi district, Karnataka, 576101, India",
            "longitude": "74.7506815",
            "latitude": "13.3360433",
            "blogLinks": [
                "http://wikitravel.org/en/Udupi"
            ],
            "locType": "cinema"
        },
        "dandeli": {
            "closest_to": "kundapur",
            "address": "Dandeli, Haliyala taluku, Uttara Kannada, Karnataka, 581325, India",
            "longitude": "74.6236037",
            "latitude": "15.2490284",
            "blogLinks": [
                "https://www.thrillophilia.com/around-bangalore",
                "https://www.thrillophilia.com/bangalore-weekend-getaways"
            ],
            "locType": "town"
        },
        "kundapura": {
            "closest_to": "kundapur",
            "address": "Kundapura, \u0c95\u0cc1\u0c82\u0ca6\u0cbe\u0caa\u0cc1\u0cb0 \u0ca4\u0cbe\u0cb2\u0cc2\u0c95\u0cc1, Udupi district, Karnataka, 576200, India",
            "longitude": "74.6915722",
            "latitude": "13.6250993",
            "blogLinks": [
                "http://wikitravel.org/en/Udupi",
                "http://www.nivalink.com/destination/kundapura",
                "http://mustseekarnataka.blogspot.com/2011/09/must-see-kundapur.html"
            ],
            "locType": "town"
        },
        "venur": {
            "closest_to": "kundapur",
            "address": "Venoor, Beltangadi taluk, Dakshina Kannada, Karnataka, 574242, India",
            "longitude": "75.1443252",
            "latitude": "13.0122097",
            "blogLinks": [
                "http://wikitravel.org/en/Mangalore"
            ],
            "locType": "village"
        },
        "urban valley": {
            "closest_to": "kundapur",
            "address": "Bangalore Urban, Karnataka, India",
            "longitude": "77.5536449997113",
            "latitude": "12.94514225",
            "blogLinks": [
                "https://www.thrillophilia.com/around-bangalore"
            ],
            "locType": "administrative"
        },
        "mullayanagiri mountain": {
            "closest_to": "kundapur",
            "address": "Mullayyanagiri, Chikkamagaluru, Chikkamagaluru taluku, Chikkamagaluru district, Karnataka, 577101, India",
            "longitude": "75.7214034",
            "latitude": "13.3909217",
            "blogLinks": [
                "https://www.thrillophilia.com/bangalore-weekend-getaways"
            ],
            "locType": "peak"
        }
    },
    "kundapur": {
        "place_id": "33849904",
        "osm_id": "2806096352",
        "icon": "https://nominatim.openstreetmap.org/images/mapicons/education_school.p.20.png",
        "osm_type": "node",
        "licence": "Data \u00a9 OpenStreetMap contributors, ODbL 1.0. http://www.openstreetmap.org/copyright",
        "display_name": "United Basel mission church Higher Primary School, Kundapur, Chikkansal Road, Vaderahobali, Kundapura, \u0c95\u0cc1\u0c82\u0ca6\u0cbe\u0caa\u0cc1\u0cb0 \u0ca4\u0cbe\u0cb2\u0cc2\u0c95\u0cc1, Udupi district, Karnataka, 576200, India",
        "type": "school",
        "lon": "74.6906749",
        "boundingbox": [
            "13.6343009",
            "13.6344009",
            "74.6906249",
            "74.6907249"
        ],
        "importance": 0.201,
        "lat": "13.6343509",
        "class": "amenity"
    },
    "kanakapura": {
        "place_id": "1366054",
        "osm_id": "313178025",
        "icon": "https://nominatim.openstreetmap.org/images/mapicons/poi_place_town.p.20.png",
        "osm_type": "node",
        "licence": "Data \u00a9 OpenStreetMap contributors, ODbL 1.0. http://www.openstreetmap.org/copyright",
        "display_name": "Kanakapura, Kanakapura taluk, Ramanagara district, Karnataka, 562117, India",
        "type": "town",
        "lon": "77.4199095",
        "boundingbox": [
            "12.5050268",
            "12.5850268",
            "77.3799095",
            "77.4599095"
        ],
        "importance": 0.5,
        "lat": "12.5450268",
        "class": "place"
    }
}