{
    "sakleshpur": {
        "lat": "12.9434349",
        "importance": 0.4,
        "osm_type": "node",
        "class": "place",
        "boundingbox": [
            "12.9034349",
            "12.9834349",
            "75.7462318",
            "75.8262318"
        ],
        "icon": "https://nominatim.openstreetmap.org/images/mapicons/poi_place_town.p.20.png",
        "osm_id": "670593480",
        "licence": "Data \u00a9 OpenStreetMap contributors, ODbL 1.0. http://www.openstreetmap.org/copyright",
        "lon": "75.7862318",
        "place_id": "6499206",
        "display_name": "Sakaleshpura, Sakaleshapura taluk, Hassan district, Karnataka, 573134, India",
        "type": "town"
    },
    "tumkur": {
        "lat": "13.4999406",
        "importance": 0.65,
        "osm_type": "node",
        "class": "place",
        "boundingbox": [
            "12.8599406",
            "14.1399406",
            "76.3602445",
            "77.6402445"
        ],
        "icon": "https://nominatim.openstreetmap.org/images/mapicons/poi_boundary_administrative.p.20.png",
        "osm_id": "316417304",
        "licence": "Data \u00a9 OpenStreetMap contributors, ODbL 1.0. http://www.openstreetmap.org/copyright",
        "lon": "77.0002445",
        "place_id": "1397122",
        "display_name": "Tumakuru, Tumkur district, Karnataka, India",
        "type": "county"
    },
    "mentions": {
        "karkala": {
            "closest_to": "sakleshpur",
            "latitude": "13.2112826",
            "blogLinks": [
                "https://en.wikipedia.org/wiki/Tourism_in_Karnataka",
                "https://www.quora.com/What-are-the-best-weekend-road-trips-from-Bangalore"
            ],
            "address": "Karkala, Karkala taluk, Udupi district, Karnataka, 574104, India",
            "locType": "town",
            "longitude": "74.9959586"
        },
        "mysore lake": {
            "closest_to": "tumkur",
            "latitude": "12.3051828",
            "blogLinks": [
                "https://www.tripoto.com/places-to-visit/india/karnataka"
            ],
            "address": "Mysuru, Mysuru taluk, Mysuru district, Karnataka, 570001, India",
            "locType": "city",
            "longitude": "76.6553609"
        },
        "hasanamba temple": {
            "closest_to": "tumkur",
            "latitude": "13.0027589",
            "blogLinks": [
                "http://www.nivalink.com/destination/hassan"
            ],
            "address": "Sri Hasanamba Temple, Hosaline Road, Ravindra Nagar, Santhe Pete, Hassan, Hasana taluk, Hassan district, Karnataka, 573201, India",
            "locType": "place_of_worship",
            "longitude": "76.0946142"
        },
        "kambadahalli": {
            "closest_to": "tumkur",
            "latitude": "13.6843692",
            "blogLinks": [
                "https://en.wikipedia.org/wiki/Tourism_in_Karnataka"
            ],
            "address": "Kambadahalli, Madhugiri taluk, Tumkur district, Karnataka, India",
            "locType": "village",
            "longitude": "77.1671918"
        },
        "bengal": {
            "closest_to": "tumkur",
            "latitude": "13.0492646",
            "blogLinks": [
                "https://www.tripoto.com/places-to-visit/india/karnataka",
                "https://www.tripoto.com/weekend-getaways/from-sakleshpur"
            ],
            "address": "Bengal Lamps, Konadasapura, Bangalore Urban, Karnataka, 560066, India",
            "locType": "industrial",
            "longitude": "77.7517038151245"
        },
        "chamundeshwari": {
            "closest_to": "tumkur",
            "latitude": "12.9658588",
            "blogLinks": [
                "https://www.tripoto.com/places-to-visit/india/karnataka"
            ],
            "address": "Chamundeshwari, Chidananda Maharashi Ashram Road, Sampangi Rama Nagara, MacIvor Town, Bengaluru, Bangalore Urban, Karnataka, 560027, India",
            "locType": "clothes",
            "longitude": "77.5924927"
        },
        "bylakuppe": {
            "closest_to": "sakleshpur",
            "latitude": "12.4292508",
            "blogLinks": [
                "https://www.tripoto.com/places-to-visit/india/karnataka"
            ],
            "address": "Bylakuppe, Piriyapattana taluk, Mysuru district, Karnataka, India",
            "locType": "village",
            "longitude": "75.9953435"
        },
        "gulmohar": {
            "closest_to": "tumkur",
            "latitude": "12.9841671",
            "blogLinks": [
                "https://www.quora.com/What-are-the-best-weekend-road-trips-from-Bangalore"
            ],
            "address": "MIMS Gulmohar Villas, Kadugodi, Prashanth Extension, Bangalore Urban, Karnataka, 56066, India",
            "locType": "residential",
            "longitude": "77.745811757371"
        },
        "belur": {
            "closest_to": "tumkur",
            "latitude": "13.1645671",
            "blogLinks": [
                "http://www.nivalink.com/destination/sakleshpur",
                "https://www.tripoto.com/places-to-visit/india/karnataka",
                "http://www.nivalink.com/destination/hassan",
                "http://visitingplacesofgreatindia.blogspot.com/2013/07/hassan-district-karnataka.html"
            ],
            "address": "Belur, Beluru taluk, Hassan district, Karnataka, 573115, India",
            "locType": "town",
            "longitude": "75.8634851"
        },
        "gaganachukki": {
            "closest_to": "tumkur",
            "latitude": "12.2933696",
            "blogLinks": [
                "https://www.tripoto.com/places-to-visit/india/karnataka"
            ],
            "address": "Gaganachukki Falls, Malavalli taluk, Mandya district, Karnataka, India",
            "locType": "waterfall",
            "longitude": "77.1684763"
        },
        "netravati river": {
            "closest_to": "sakleshpur",
            "latitude": "12.8537655",
            "blogLinks": [
                "https://en.wikipedia.org/wiki/Sakleshpur"
            ],
            "address": "Netravati, Bantwal taluk, Dakshina Kannada, Karnataka, India",
            "locType": "river",
            "longitude": "75.1562182"
        },
        "chennakeshava temple": {
            "closest_to": "tumkur",
            "latitude": "13.3748908",
            "blogLinks": [
                "https://www.tripoto.com/places-to-visit/india/karnataka"
            ],
            "address": "Chennakeshava Temple, NH73, Arakere, Arasikere taluku, Hassan district, Karnataka, 573112, India",
            "locType": "place_of_worship",
            "longitude": "76.1294164"
        },
        "bagamandala": {
            "closest_to": "sakleshpur",
            "latitude": "12.388062",
            "blogLinks": [
                "https://en.wikipedia.org/wiki/Tourism_in_Karnataka"
            ],
            "address": "Madikeri - Bagamandala ,Tala Kaveri Road, Mekeri, Madikeri taluku, Kodagu, Karnataka, India",
            "locType": "primary",
            "longitude": "75.748408"
        },
        "hosur road": {
            "closest_to": "tumkur",
            "latitude": "12.9147705",
            "blogLinks": [
                "https://www.tripoto.com/places-to-visit/india/karnataka"
            ],
            "address": "Hosur Road, BTM 2nd Stage, Bommanahalli, Bengaluru, Bangalore Urban, Karnataka, 560001, India",
            "locType": "trunk",
            "longitude": "77.6241106"
        },
        "nataraja": {
            "closest_to": "tumkur",
            "latitude": "12.9900332",
            "blogLinks": [
                "https://www.tripoto.com/places-to-visit/india/karnataka"
            ],
            "address": "Nataraja, Sirur Park Road, Vyalikaval, Seshadripuram, Bengaluru, Bangalore Urban, Karnataka, 560001, India",
            "locType": "cinema",
            "longitude": "77.5730381173154"
        },
        "chikkaballapur": {
            "closest_to": "tumkur",
            "latitude": "13.4352549",
            "blogLinks": [
                "https://www.tripoto.com/places-to-visit/india/karnataka",
                "http://www.mapsofindia.com/maps/karnataka/"
            ],
            "address": "Chikkaballapura, Chikkaballapura taluk, Chikkaballapura district, Karnataka, 562101, India",
            "locType": "town",
            "longitude": "77.7306866"
        },
        "bhagamandala": {
            "closest_to": "sakleshpur",
            "latitude": "12.3857285",
            "blogLinks": [
                "https://www.tripoto.com/places-to-visit/india/karnataka"
            ],
            "address": "Bhagamandala, Madikeri taluku, Kodagu, Karnataka, India",
            "locType": "village",
            "longitude": "75.5290234"
        },
        "west": {
            "closest_to": "tumkur",
            "latitude": "12.8759384",
            "blogLinks": [
                "http://www.thrillophilia.com/blog/20-places-you-need-to-visit-in-india-with-your-best-friend/"
            ],
            "address": "w, Balmuri Main Road, Hulimavu,, Bannerghatta Road, Mico Arekere Layout 1st Stage, Hulimavu, Bengaluru, Bangalore Urban, Karnataka, 560076, India",
            "locType": "clothes",
            "longitude": "77.5960999"
        },
        "ooty lake": {
            "closest_to": "tumkur",
            "latitude": "12.2774807",
            "blogLinks": [
                "https://www.tripoto.com/weekend-getaways/from-sakleshpur"
            ],
            "address": "Ooty Road, Vidyaranyapuram, Mysuru, Mysuru taluk, Mysuru district, Karnataka, 570001, India",
            "locType": "primary",
            "longitude": "76.6586807"
        },
        "kulkunda": {
            "closest_to": "sakleshpur",
            "latitude": "12.6883675",
            "blogLinks": [
                "https://en.wikipedia.org/wiki/Sakleshpur"
            ],
            "address": "Kulkunda, Sulya taluk, Dakshina Kannada, Karnataka, India",
            "locType": "village",
            "longitude": "75.6095522"
        },
        "lal bagh": {
            "closest_to": "sakleshpur",
            "latitude": "12.8859223",
            "blogLinks": [
                "https://www.tripoto.com/places-to-visit/india/karnataka",
                "https://www.tripoto.com/weekend-getaways/from-sakleshpur"
            ],
            "address": "Lal Bagh Bus Stop, Mahatma Gandhi Road, Lalbagh, Ladyhill, Mangaluru, Mangaluru taluk, Dakshina Kannada, Karnataka, 575001, India",
            "locType": "bus_stop",
            "longitude": "74.8386152"
        },
        "rain-tree": {
            "closest_to": "tumkur",
            "latitude": "12.9757365",
            "blogLinks": [
                "https://www.tripoto.com/places-to-visit/india/karnataka",
                "https://www.tripoto.com/weekend-getaways/from-sakleshpur"
            ],
            "address": "Rain Tree, 3rd Main Road, Defence Colony, Hoysala Nagar, Bengaluru, Bangalore Urban, Karnataka, 560001, India",
            "locType": "tree",
            "longitude": "77.6414765"
        },
        "hanuman temple": {
            "closest_to": "tumkur",
            "latitude": "13.0343487",
            "blogLinks": [
                "https://www.tripoto.com/places-to-visit/india/karnataka"
            ],
            "address": "Hanuman Temple, 1st Cross Road, MEI Colony, Peenya, Bengaluru, Bangalore Urban, Karnataka, 560001, India",
            "locType": "place_of_worship",
            "longitude": "77.5273276"
        },
        "shimoga district": {
            "closest_to": "sakleshpur",
            "latitude": "14.0558284",
            "blogLinks": [
                "https://en.wikipedia.org/wiki/Tourism_in_Karnataka"
            ],
            "address": "Shimoga district, Karnataka, India",
            "locType": "administrative",
            "longitude": "75.1312533993886"
        },
        "mullodi": {
            "closest_to": "sakleshpur",
            "latitude": "13.1622376",
            "blogLinks": [
                "https://www.tripoto.com/places-to-visit/india/karnataka"
            ],
            "address": "Mullodi, Balgallu, Mudigere taluk, Chikkamagaluru district, Karnataka, India",
            "locType": "locality",
            "longitude": "75.3068537"
        },
        "omkareshwara temple": {
            "closest_to": "sakleshpur",
            "latitude": "12.420546",
            "blogLinks": [
                "https://www.tripoto.com/places-to-visit/india/karnataka",
                "https://www.tripoto.com/weekend-getaways/from-sakleshpur"
            ],
            "address": "Omkareshwara Temple, Main Road, Madikeri, Madikeri taluku, Kodagu, Karnataka, India",
            "locType": "place_of_worship",
            "longitude": "75.741304"
        },
        "hoysala": {
            "closest_to": "tumkur",
            "latitude": "12.97813815",
            "blogLinks": [
                "https://en.wikipedia.org/wiki/Tourism_in_Karnataka",
                "https://www.tripoto.com/places-to-visit/india/karnataka",
                "http://visitingplacesofgreatindia.blogspot.com/2013/07/hassan-district-karnataka.html"
            ],
            "address": "Hoysala Nagar, Bengaluru, Bangalore Urban, Karnataka, 560001, India",
            "locType": "administrative",
            "longitude": "77.6375990817051"
        },
        "lakshmana tirtha falls": {
            "closest_to": "sakleshpur",
            "latitude": "11.9667954",
            "blogLinks": [
                "https://www.tripoto.com/places-to-visit/india/karnataka"
            ],
            "address": "Iruppu Falls, SH89, Taila, Virajpet taluk, Kodagu, Karnataka, 571217, India",
            "locType": "attraction",
            "longitude": "75.9839484"
        },
        "vittala": {
            "closest_to": "tumkur",
            "latitude": "12.30129655",
            "blogLinks": [
                "https://www.tripoto.com/places-to-visit/india/karnataka",
                "https://www.tripoto.com/weekend-getaways/from-sakleshpur"
            ],
            "address": "Vijaya Vittala PU College, Sahukar Chennaiah Road, Sarasvatipuram, Mysuru, Mysuru taluk, Mysuru district, Karnataka, 570001, India",
            "locType": "yes",
            "longitude": "76.6237847175927"
        },
        "rose garden": {
            "closest_to": "tumkur",
            "latitude": "12.97371325",
            "blogLinks": [
                "https://www.tripoto.com/places-to-visit/india/karnataka"
            ],
            "address": "Rose Garden, Dr B R Ambedkar Veedhi, Shantala Nagar, Gandhinagar, Bengaluru, Bangalore Urban, Karnataka, 560001, India",
            "locType": "garden",
            "longitude": "77.590382853852"
        },
        "river hemavathi": {
            "closest_to": "tumkur",
            "latitude": "12.8267596",
            "blogLinks": [
                "http://www.nivalink.com/destination/hassan"
            ],
            "address": "Hemavathi Reservoir, Hasana taluk, Hassan district, Karnataka, India",
            "locType": "dam",
            "longitude": "76.0556931"
        },
        "tumkur": {
            "closest_to": "tumkur",
            "latitude": "13.4999406",
            "blogLinks": [
                "https://www.tripoto.com/places-to-visit/india/karnataka",
                "http://www.team-bhp.com/forum/route-travel-queries/42482-bangalore-shimoga-route-queries.html",
                "https://en.wikipedia.org/wiki/Sakleshpur",
                "https://en.wikipedia.org/wiki/Tourism_in_Karnataka",
                "http://www.holidayiq.com/How-To-Reach/From-Bangalore-To-Sakleshpur-293-628",
                "http://www.mapsofindia.com/maps/karnataka/"
            ],
            "address": "Tumakuru, Tumkur district, Karnataka, India",
            "locType": "county",
            "longitude": "77.0002445"
        },
        "nilgiri": {
            "closest_to": "tumkur",
            "latitude": "12.304105",
            "blogLinks": [
                "http://visitingplacesofgreatindia.blogspot.com/2013/07/hassan-district-karnataka.html"
            ],
            "address": "Bangalore Nilgiri Road, Ittigegudu, Mysuru, Mysuru taluk, Mysuru district, Karnataka, 570001, India",
            "locType": "primary",
            "longitude": "76.658639"
        },
        "tadiandamol": {
            "closest_to": "sakleshpur",
            "latitude": "12.2175641",
            "blogLinks": [
                "https://www.tripoto.com/places-to-visit/india/karnataka"
            ],
            "address": "Tadiandamol, Madikeri taluku, Kodagu, Karnataka, India",
            "locType": "peak",
            "longitude": "75.608815"
        },
        "kabini river": {
            "closest_to": "sakleshpur",
            "latitude": "12.0780998",
            "blogLinks": [
                "https://en.wikipedia.org/wiki/Tourism_in_Karnataka",
                "https://www.tripoto.com/places-to-visit/india/karnataka"
            ],
            "address": "Kabini right bank canal, Nanjanagudu taluk, Mysuru district, Karnataka, India",
            "locType": "canal",
            "longitude": "76.6477184"
        },
        "mercara": {
            "closest_to": "sakleshpur",
            "latitude": "12.4204003",
            "blogLinks": [
                "https://en.wikipedia.org/wiki/Tourism_in_Karnataka",
                "https://www.tripoto.com/places-to-visit/india/karnataka"
            ],
            "address": "Madikeri, Madikeri taluku, Kodagu, Karnataka, India",
            "locType": "town",
            "longitude": "75.740031"
        },
        "coastal karnataka": {
            "closest_to": "sakleshpur",
            "latitude": "12.96014675",
            "blogLinks": [
                "https://en.wikipedia.org/wiki/Tourism_in_Karnataka"
            ],
            "address": "Bharat Petroleum Mangalore Coastal Installation, Baikampady, Mangaluru taluk, Dakshina Kannada, Karnataka, 575014, India",
            "locType": "industrial",
            "longitude": "74.8137275833157"
        },
        "belavadi": {
            "closest_to": "sakleshpur",
            "latitude": "13.5284899",
            "blogLinks": [
                "https://en.wikipedia.org/wiki/Tourism_in_Karnataka"
            ],
            "address": "Belavadi, Koppa taluk, Chikkamagaluru district, Karnataka, India",
            "locType": "village",
            "longitude": "75.3760773"
        },
        "river hemavati": {
            "closest_to": "tumkur",
            "latitude": "12.8179996",
            "blogLinks": [
                "https://en.wikipedia.org/wiki/Sakleshpur"
            ],
            "address": "Hemavati, Hasana taluk, Hassan district, Karnataka, India",
            "locType": "river",
            "longitude": "76.0723187"
        },
        "bellary road": {
            "closest_to": "tumkur",
            "latitude": "13.0465345",
            "blogLinks": [
                "https://www.tripoto.com/places-to-visit/india/karnataka",
                "https://www.quora.com/What-are-the-best-weekend-road-trips-from-Bangalore"
            ],
            "address": "Bellary Road, Kanaka Nagar, Hebbal, Bengaluru, Bangalore Urban, Karnataka, 560001, India",
            "locType": "trunk",
            "longitude": "77.5915237"
        },
        "belthangadi": {
            "closest_to": "sakleshpur",
            "latitude": "12.9903521",
            "blogLinks": [
                "https://www.tripoto.com/places-to-visit/india/karnataka"
            ],
            "address": "Belthangadi, Beltangadi taluk, Dakshina Kannada, Karnataka, 574214, India",
            "locType": "village",
            "longitude": "75.2825052"
        },
        "maragunda": {
            "closest_to": "sakleshpur",
            "latitude": "12.9867236",
            "blogLinks": [
                "http://www.holidayiq.com/destinations/sakleshpur/",
                "https://en.wikipedia.org/wiki/Sakleshpur"
            ],
            "address": "Maragunda, Sakaleshapura taluk, Hassan district, Karnataka, India",
            "locType": "village",
            "longitude": "75.6201653"
        },
        "kodagu taluk": {
            "closest_to": "sakleshpur",
            "latitude": "12.2335192",
            "blogLinks": [
                "https://www.tripoto.com/places-to-visit/india/karnataka"
            ],
            "address": "Kodagu Kaloni, Hunasuru taluk, Mysuru district, Karnataka, India",
            "locType": "village",
            "longitude": "76.2818865"
        },
        "siddheshwara": {
            "closest_to": "tumkur",
            "latitude": "13.0797146",
            "blogLinks": [
                "https://en.wikipedia.org/wiki/Tourism_in_Karnataka"
            ],
            "address": "Siddheshwara Medicals, Judicial Layout, Allalasandra, Bangalore, 7th Main Road, Judicial Layout, Bengaluru, Bangalore Urban, Karnataka, 560001, India",
            "locType": "pharmacy",
            "longitude": "77.5876527"
        },
        "ooty": {
            "closest_to": "tumkur",
            "latitude": "12.2774807",
            "blogLinks": [
                "https://www.tripoto.com/weekend-getaways/from-sakleshpur"
            ],
            "address": "Ooty Road, Vidyaranyapuram, Mysuru, Mysuru taluk, Mysuru district, Karnataka, 570001, India",
            "locType": "primary",
            "longitude": "76.6586807"
        },
        "food park": {
            "closest_to": "tumkur",
            "latitude": "12.3093358",
            "blogLinks": [
                "https://www.tripoto.com/places-to-visit/india/karnataka"
            ],
            "address": "Defence Food Research Laboratory, Bannur Road, Alanahalli, Gayathripuram, Mysuru, Mysuru taluk, Mysuru district, Karnataka, 570001, India",
            "locType": "research",
            "longitude": "76.6791809"
        },
        "sringeri": {
            "closest_to": "sakleshpur",
            "latitude": "13.4261724",
            "blogLinks": [
                "https://www.tripoto.com/places-to-visit/india/karnataka",
                "https://www.quora.com/What-are-the-best-weekend-road-trips-from-Bangalore"
            ],
            "address": "Sringeri, Sringeri taluku, Chikkamagaluru district, Karnataka, 577592, India",
            "locType": "town",
            "longitude": "75.2553718"
        },
        "bhadravati": {
            "closest_to": "sakleshpur",
            "latitude": "13.8474574",
            "blogLinks": [
                "http://www.team-bhp.com/forum/route-travel-queries/42482-bangalore-shimoga-route-queries.html"
            ],
            "address": "Bhadravathi, Bhadravati taluk, Shimoga district, Karnataka, 577300, India",
            "locType": "town",
            "longitude": "75.7030138"
        },
        "bangalore": {
            "closest_to": "tumkur",
            "latitude": "12.9791198",
            "blogLinks": [
                "http://www.nivalink.com/destination/sakleshpur",
                "http://www.thrillophilia.com/blog/20-places-you-need-to-visit-in-india-with-your-best-friend/",
                "https://www.mekanagadde.com/location/",
                "http://www.nivalink.com/destination/hassan",
                "http://visitingplacesofgreatindia.blogspot.com/2013/07/hassan-district-karnataka.html",
                "https://www.tripoto.com/places-to-visit/india/karnataka",
                "http://www.team-bhp.com/forum/route-travel-queries/42482-bangalore-shimoga-route-queries.html",
                "https://www.tripoto.com/weekend-getaways/from-sakleshpur",
                "http://www.nivalink.com/destination/chitradurga",
                "https://www.quora.com/What-are-the-best-weekend-road-trips-from-Bangalore",
                "https://en.wikipedia.org/wiki/Tourism_in_Karnataka",
                "http://www.holidayiq.com/How-To-Reach/From-Bangalore-To-Sakleshpur-293-628",
                "http://www.holidayiq.com/destinations/sakleshpur/"
            ],
            "address": "Bengaluru, Bangalore Urban, Karnataka, 560001, India",
            "locType": "city",
            "longitude": "77.5912997"
        },
        "shanthinagar": {
            "closest_to": "sakleshpur",
            "latitude": "12.9218248",
            "blogLinks": [
                "https://www.tripoto.com/places-to-visit/india/karnataka"
            ],
            "address": "Shanthinagar, Gandhinagar, \u0caa\u0c82\u0c9c\u0cbf\u0cae\u0cca\u0c97\u0cb0\u0cc1, Mangaluru taluk, Dakshina Kannada, Karnataka, 575015, India",
            "locType": "neighbourhood",
            "longitude": "74.8474067"
        },
        "kunti betta": {
            "closest_to": "tumkur",
            "latitude": "12.5082433",
            "blogLinks": [
                "https://www.tripoto.com/places-to-visit/india/karnataka"
            ],
            "address": "Kunti Betta, Pandavapura taluk, Mandya district, Karnataka, India",
            "locType": "peak",
            "longitude": "76.6982646"
        },
        "north kerala": {
            "closest_to": "tumkur",
            "latitude": "12.9726449",
            "blogLinks": [
                "http://www.nivalink.com/destination/sakleshpur",
                "http://www.nivalink.com/destination/hassan"
            ],
            "address": "New Life Kerala Mess, Sai Baba Mandira Road, Mottappanapalaya, Indiranagar, Bengaluru, Bangalore Urban, Karnataka, 560001, India",
            "locType": "restaurant",
            "longitude": "77.6382683"
        },
        "malnad": {
            "closest_to": "tumkur",
            "latitude": "13.3160351",
            "blogLinks": [
                "https://www.quora.com/What-are-the-best-weekend-road-trips-from-Bangalore",
                "http://www.nivalink.com/destination/sakleshpur",
                "http://www.holidayiq.com/destinations/sakleshpur/",
                "http://visitingplacesofgreatindia.blogspot.com/2013/07/hassan-district-karnataka.html"
            ],
            "address": "Malnad Hospital, Mudigere-Kadur Road, Chikkamagaluru, Chikkamagaluru taluku, Chikkamagaluru district, Karnataka, 577101, India",
            "locType": "hospital",
            "longitude": "75.7715495"
        },
        "brindavan gardens": {
            "closest_to": "tumkur",
            "latitude": "12.4208084",
            "blogLinks": [
                "https://www.tripoto.com/places-to-visit/india/karnataka"
            ],
            "address": "Brindavan Gardens, Krishnaraja Sagara Road, Krushnarajasagara, Srirangapattana taluk, Mandya district, Karnataka, India",
            "locType": "garden",
            "longitude": "76.5741029405883"
        },
        "manchanabele": {
            "closest_to": "tumkur",
            "latitude": "12.8668921",
            "blogLinks": [
                "https://www.quora.com/What-are-the-best-weekend-road-trips-from-Bangalore"
            ],
            "address": "Manchanabele, Magadi taluku, Ramanagara district, Karnataka, India",
            "locType": "village",
            "longitude": "77.3344212"
        },
        "gorur": {
            "closest_to": "tumkur",
            "latitude": "12.8238999",
            "blogLinks": [
                "http://visitingplacesofgreatindia.blogspot.com/2013/07/hassan-district-karnataka.html"
            ],
            "address": "Gorur, Hasana taluk, Hassan district, Karnataka, 573120, India",
            "locType": "village",
            "longitude": "76.0644435"
        },
        "sakleshpur": {
            "closest_to": "tumkur",
            "latitude": "12.9434349",
            "blogLinks": [
                "http://www.nivalink.com/destination/sakleshpur",
                "https://www.mekanagadde.com/location/",
                "http://visitingplacesofgreatindia.blogspot.com/2013/07/hassan-district-karnataka.html",
                "https://www.tripoto.com/places-to-visit/india/karnataka",
                "https://www.tripoto.com/weekend-getaways/from-sakleshpur",
                "https://www.quora.com/What-are-the-best-weekend-road-trips-from-Bangalore",
                "http://www.holidayiq.com/How-To-Reach/From-Bangalore-To-Sakleshpur-293-628",
                "http://www.holidayiq.com/destinations/sakleshpur/",
                "https://www.yatra.com/india-tourism/tumkur/weather"
            ],
            "address": "Sakaleshpura, Sakaleshapura taluk, Hassan district, Karnataka, 573134, India",
            "locType": "town",
            "longitude": "75.7862318"
        },
        "nandi hills": {
            "closest_to": "tumkur",
            "latitude": "13.268142",
            "blogLinks": [
                "https://www.tripoto.com/places-to-visit/india/karnataka",
                "https://www.quora.com/What-are-the-best-weekend-road-trips-from-Bangalore"
            ],
            "address": "Nandi Upahara, Nandhi Hills Road, Kottige Thimmanahalli, Devanahalli taluk, Bangalore Rural, Karnataka, India",
            "locType": "hotel",
            "longitude": "77.7194741670394"
        },
        "north karnataka": {
            "closest_to": "tumkur",
            "latitude": "13.0217151",
            "blogLinks": [
                "https://en.wikipedia.org/wiki/Tourism_in_Karnataka",
                "https://www.tripoto.com/places-to-visit/india/karnataka"
            ],
            "address": "N, Chaithanya Samarpan, Kadugodi, Kannamangala, Bangalore Urban, Karnataka, 560066, India",
            "locType": "service",
            "longitude": "77.7660547"
        },
        "coorg": {
            "closest_to": "sakleshpur",
            "latitude": "12.4204003",
            "blogLinks": [
                "https://www.tripoto.com/places-to-visit/india/karnataka",
                "https://www.tripoto.com/weekend-getaways/from-sakleshpur"
            ],
            "address": "Madikeri, Madikeri taluku, Kodagu, Karnataka, India",
            "locType": "town",
            "longitude": "75.740031"
        },
        "lucknow": {
            "closest_to": "tumkur",
            "latitude": "13.0367811",
            "blogLinks": [
                "http://www.thrillophilia.com/blog/20-places-you-need-to-visit-in-india-with-your-best-friend/"
            ],
            "address": "Via Lucknow, New BEL Road, Dollar Colony, Raj Mahal Vilas, Jaladarshini Layout, Bangalore Urban, Karnataka, 560094, India",
            "locType": "restaurant",
            "longitude": "77.5660503"
        },
        "chunchi falls": {
            "closest_to": "tumkur",
            "latitude": "12.3515083",
            "blogLinks": [
                "https://www.tripoto.com/places-to-visit/india/karnataka"
            ],
            "address": "Chunchi Falls, Kanakapura taluk, Ramanagara district, Karnataka, India",
            "locType": "waterfall",
            "longitude": "77.4459464"
        },
        "kannur": {
            "closest_to": "sakleshpur",
            "latitude": "12.8487602",
            "blogLinks": [
                "http://www.nivalink.com/destination/sakleshpur",
                "http://www.thrillophilia.com/blog/20-places-you-need-to-visit-in-india-with-your-best-friend/",
                "https://www.tripoto.com/weekend-getaways/from-sakleshpur",
                "http://www.nivalink.com/destination/hassan"
            ],
            "address": "Netravati bridge - Kannur Bypass Road (Proposed), Padil, Bajal, Mangaluru taluk, Dakshina Kannada, Karnataka, 575007, India",
            "locType": "construction",
            "longitude": "74.8858161"
        },
        "agumbe": {
            "closest_to": "sakleshpur",
            "latitude": "13.5094998",
            "blogLinks": [
                "https://www.tripoto.com/places-to-visit/india/karnataka"
            ],
            "address": "Agumbe, Tirthahalli taluk, Shimoga district, Karnataka, 577411, India",
            "locType": "village",
            "longitude": "75.0965525"
        },
        "bandaje falls": {
            "closest_to": "sakleshpur",
            "latitude": "13.0801279",
            "blogLinks": [
                "https://www.quora.com/What-are-the-best-weekend-road-trips-from-Bangalore"
            ],
            "address": "Bandaje to Bandaje falls, Bangadi, Beltangadi taluk, Dakshina Kannada, Karnataka, 574290, India",
            "locType": "track",
            "longitude": "75.3809448"
        },
        "lakshmidevi": {
            "closest_to": "tumkur",
            "latitude": "13.0189809",
            "blogLinks": [
                "http://visitingplacesofgreatindia.blogspot.com/2013/07/hassan-district-karnataka.html"
            ],
            "address": "Lakshmidevi Nagar Cross, 2nd Cross Road, MEI Colony, Laggere, Bengaluru, Bangalore Urban, Karnataka, 560058, India",
            "locType": "bus_stop",
            "longitude": "77.5226018"
        },
        "orissa": {
            "closest_to": "tumkur",
            "latitude": "12.9622425",
            "blogLinks": [
                "https://www.tripoto.com/places-to-visit/india/karnataka"
            ],
            "address": "Little Orissa, 18th Main Road, Babasaheb Colony, Kodihalli, Bengaluru, Bangalore Urban, Karnataka, 560001, India",
            "locType": "restaurant",
            "longitude": "77.6448007"
        },
        "mysore": {
            "closest_to": "tumkur",
            "latitude": "12.3051828",
            "blogLinks": [
                "https://www.tripoto.com/places-to-visit/india/karnataka",
                "https://www.quora.com/What-are-the-best-weekend-road-trips-from-Bangalore"
            ],
            "address": "Mysuru, Mysuru taluk, Mysuru district, Karnataka, 570001, India",
            "locType": "city",
            "longitude": "76.6553609"
        },
        "summer palace": {
            "closest_to": "tumkur",
            "latitude": "12.95964655",
            "blogLinks": [
                "https://www.tripoto.com/places-to-visit/india/karnataka"
            ],
            "address": "Tippu's Summer Palace, A V Road, Ranasingpet, Kalasipalya, Bengaluru, Bangalore Urban, Karnataka, 560 002, India",
            "locType": "attraction",
            "longitude": "77.5736841970666"
        },
        "mangalore international airport": {
            "closest_to": "sakleshpur",
            "latitude": "12.95518575",
            "blogLinks": [
                "https://www.tripoto.com/weekend-getaways/from-sakleshpur",
                "https://en.wikipedia.org/wiki/Sakleshpur"
            ],
            "address": "Mangalore International Airport, Airport Entry Road, Gandhinagar, Kenjar, Mangaluru taluk, Dakshina Kannada, Karnataka, 575015, India",
            "locType": "aerodrome",
            "longitude": "74.887492668144"
        },
        "bababudan range": {
            "closest_to": "tumkur",
            "latitude": "13.4210884",
            "blogLinks": [
                "https://www.tripoto.com/places-to-visit/india/karnataka"
            ],
            "address": "Baba Budangiri, Chikkamagaluru, Chikkamagaluru taluku, Chikkamagaluru district, Karnataka, 577101, India",
            "locType": "peak",
            "longitude": "75.7606996"
        },
        "kemmangundi": {
            "closest_to": "tumkur",
            "latitude": "13.5463048",
            "blogLinks": [
                "https://en.wikipedia.org/wiki/Tourism_in_Karnataka"
            ],
            "address": "Kemmannagundi, Tarikere taluku, Chikkamagaluru district, Karnataka, India",
            "locType": "village",
            "longitude": "75.7520082"
        },
        "raja seat": {
            "closest_to": "sakleshpur",
            "latitude": "12.41421975",
            "blogLinks": [
                "https://www.tripoto.com/places-to-visit/india/karnataka",
                "https://www.tripoto.com/weekend-getaways/from-sakleshpur"
            ],
            "address": "Raja Seat, Mahatma Gandhi Road, Madikeri, Madikeri taluku, Kodagu, Karnataka, India",
            "locType": "park",
            "longitude": "75.7369653316478"
        },
        "ranganathaswamy temple": {
            "closest_to": "tumkur",
            "latitude": "12.854149",
            "blogLinks": [
                "https://www.tripoto.com/places-to-visit/india/karnataka"
            ],
            "address": "Ranganathaswamy Temple, Steps to Ranganathaswami Temple, Halekote, Hole Narasipura taluk, Hassan district, Karnataka, 573211, India",
            "locType": "place_of_worship",
            "longitude": "76.1812411"
        },
        "kapila river": {
            "closest_to": "tumkur",
            "latitude": "13.016016",
            "blogLinks": [
                "https://www.tripoto.com/places-to-visit/india/karnataka"
            ],
            "address": "Kapila Road, Ravindra Nagar, PWD Colony, Hassan, Hasana taluk, Hassan district, Karnataka, 573201, India",
            "locType": "residential",
            "longitude": "76.1040848"
        },
        "alpine": {
            "closest_to": "tumkur",
            "latitude": "13.0151079",
            "blogLinks": [
                "https://www.tripoto.com/places-to-visit/india/karnataka"
            ],
            "address": "Survey No 139, Alpine Vitsula, Kadugodi, Bengaluru, Bangalore Urban, Karnataka, 560067, India",
            "locType": "residential",
            "longitude": "77.7592512569462"
        },
        "mount abu": {
            "closest_to": "tumkur",
            "latitude": "12.9429538",
            "blogLinks": [
                "http://www.thrillophilia.com/blog/20-places-you-need-to-visit-in-india-with-your-best-friend/"
            ],
            "address": "Masjid Abu Bakr (RAA), 3rd Cross Road, Pukraj Layout, Someshwaranagar, Bengaluru, Bangalore Urban, Karnataka, 560001, India",
            "locType": "place_of_worship",
            "longitude": "77.5927317"
        },
        "beluru": {
            "closest_to": "tumkur",
            "latitude": "13.1645671",
            "blogLinks": [
                "https://en.wikipedia.org/wiki/Tourism_in_Karnataka"
            ],
            "address": "Belur, Beluru taluk, Hassan district, Karnataka, 573115, India",
            "locType": "town",
            "longitude": "75.8634851"
        },
        "kushalanagara": {
            "closest_to": "sakleshpur",
            "latitude": "12.4585525",
            "blogLinks": [
                "https://www.tripoto.com/places-to-visit/india/karnataka"
            ],
            "address": "Kushalanagara, Somawarpet taluk, Kodagu, Karnataka, 571234, India",
            "locType": "town",
            "longitude": "75.961437"
        },
        "malgudi": {
            "closest_to": "tumkur",
            "latitude": "12.9651193",
            "blogLinks": [
                "http://www.holidayiq.com/How-To-Reach/From-Bangalore-To-Sakleshpur-293-628"
            ],
            "address": "Malgudi Southern Cuisine, 3, Outer Ring Road, Ananda Nagara, Doddanekundi, Garudacharpalya, Bangalore Urban, Karnataka, 560037, India",
            "locType": "restaurant",
            "longitude": "77.7017267"
        },
        "north west mysore": {
            "closest_to": "tumkur",
            "latitude": "12.3051828",
            "blogLinks": [
                "https://www.tripoto.com/places-to-visit/india/karnataka"
            ],
            "address": "Mysuru, Mysuru taluk, Mysuru district, Karnataka, 570001, India",
            "locType": "city",
            "longitude": "76.6553609"
        },
        "devaraja market": {
            "closest_to": "tumkur",
            "latitude": "12.31101905",
            "blogLinks": [
                "https://www.tripoto.com/places-to-visit/india/karnataka"
            ],
            "address": "Devaraja Market, Mandi Mohalla, Mysuru, Mysuru taluk, Mysuru district, Karnataka, 570001, India",
            "locType": "retail",
            "longitude": "76.6520220943056"
        },
        "annapoorneshwari temple": {
            "closest_to": "sakleshpur",
            "latitude": "12.97910715",
            "blogLinks": [
                "https://www.tripoto.com/places-to-visit/india/karnataka",
                "https://www.quora.com/What-are-the-best-weekend-road-trips-from-Bangalore"
            ],
            "address": "Sri Ambika Annapoorneshwari Temple, SH101, Sunkadakatte, Mangaluru taluk, Dakshina Kannada, Karnataka, India",
            "locType": "place_of_worship",
            "longitude": "74.9006001"
        },
        "dharma river": {
            "closest_to": "tumkur",
            "latitude": "12.98914885",
            "blogLinks": [
                "https://en.wikipedia.org/wiki/Tourism_in_Karnataka"
            ],
            "address": "Dharma Naidu Udhyanavana, 44th cross, Rajajinagar 4th Block, Rajaji Nagar, Bengaluru, Bangalore Urban, Karnataka, 560001, India",
            "locType": "park",
            "longitude": "77.5575864485219"
        },
        "middle east": {
            "closest_to": "tumkur",
            "latitude": "13.1487605",
            "blogLinks": [
                "https://www.yatra.com/india-tourism/tumkur/weather"
            ],
            "address": "Government Middle And Primary School, NH48, Dodderi, Nelamangala taluk, Bangalore Rural, Karnataka, India",
            "locType": "school",
            "longitude": "77.3394684"
        },
        "tumkur road": {
            "closest_to": "tumkur",
            "latitude": "13.0311896",
            "blogLinks": [
                "https://www.tripoto.com/places-to-visit/india/karnataka"
            ],
            "address": "Tumkur Road, Goragunte Palya, Peenya, Bengaluru, Bangalore Urban, Karnataka, 560001, India",
            "locType": "trunk",
            "longitude": "77.5360458"
        },
        "kolkata": {
            "closest_to": "tumkur",
            "latitude": "12.9845159",
            "blogLinks": [
                "http://www.thrillophilia.com/blog/20-places-you-need-to-visit-in-india-with-your-best-friend/"
            ],
            "address": "Kolkata Biryani And Rolls, 1st Main Basaveshwaranagar, Rajajinagar 3rd Block, Dasarahalli, Bengaluru, Bangalore Urban, Karnataka, 560010, India",
            "locType": "restaurant",
            "longitude": "77.5478044"
        },
        "malpe": {
            "closest_to": "sakleshpur",
            "latitude": "13.3507423",
            "blogLinks": [
                "https://en.wikipedia.org/wiki/Tourism_in_Karnataka",
                "https://www.tripoto.com/places-to-visit/india/karnataka"
            ],
            "address": "Malpe, Udupi taluku, Udupi district, Karnataka, India",
            "locType": "village",
            "longitude": "74.7036914"
        },
        "karnataka state": {
            "closest_to": "tumkur",
            "latitude": "12.315382",
            "blogLinks": [
                "https://www.tripoto.com/places-to-visit/india/karnataka"
            ],
            "address": "Karnataka State Open University, \u0cb9\u0cc1\u0ca3\u0cb8\u0cc2\u0cb0\u0cc1 \u0cb0\u0cb8\u0ccd\u0ca4\u0cc6, Gokulam, Mysuru, Mysuru taluk, Mysuru district, Karnataka, 570001, India",
            "locType": "university",
            "longitude": "76.6236231"
        },
        "doddamakali": {
            "closest_to": "tumkur",
            "latitude": "12.3096676",
            "blogLinks": [
                "http://www.nivalink.com/destination/sakleshpur",
                "http://www.nivalink.com/destination/hassan"
            ],
            "address": "Doddamakali, Dalanakatte, Malavalli taluk, Mandya district, Karnataka, India",
            "locType": "locality",
            "longitude": "77.2173416"
        },
        "hong kong": {
            "closest_to": "tumkur",
            "latitude": "13.020749",
            "blogLinks": [
                "https://www.yatra.com/india-tourism/tumkur/weather"
            ],
            "address": "Hong Kong Noodles, Kalkere Main road, Ramamurthy Nagar, Varanasi, Bangalore Urban, Karnataka, 600042, India",
            "locType": "restaurant",
            "longitude": "77.6768991"
        },
        "brahmagiri": {
            "closest_to": "sakleshpur",
            "latitude": "12.3868578",
            "blogLinks": [
                "https://www.tripoto.com/places-to-visit/india/karnataka"
            ],
            "address": "Brahmagiri, Madikeri taluku, Kodagu, Karnataka, India",
            "locType": "peak",
            "longitude": "75.490746"
        },
        "shantigrama": {
            "closest_to": "tumkur",
            "latitude": "12.983428",
            "blogLinks": [
                "http://visitingplacesofgreatindia.blogspot.com/2013/07/hassan-district-karnataka.html"
            ],
            "address": "Shantigrama, Hasana taluk, Hassan district, Karnataka, India",
            "locType": "village",
            "longitude": "76.2166763"
        },
        "samse": {
            "closest_to": "sakleshpur",
            "latitude": "13.1894244",
            "blogLinks": [
                "https://www.quora.com/What-are-the-best-weekend-road-trips-from-Bangalore"
            ],
            "address": "Samse, Mudigere taluk, Chikkamagaluru district, Karnataka, India",
            "locType": "village",
            "longitude": "75.3332678"
        },
        "kukkarahalli lake": {
            "closest_to": "tumkur",
            "latitude": "12.3103805",
            "blogLinks": [
                "https://www.tripoto.com/places-to-visit/india/karnataka"
            ],
            "address": "Kukkarahalli Kere, Bogadi Road, Sarasvatipuram, Mysuru, Mysuru taluk, Mysuru district, Karnataka, 570001, India",
            "locType": "water",
            "longitude": "76.6304982433348"
        },
        "hassan district": {
            "closest_to": "tumkur",
            "latitude": "13.0315068",
            "blogLinks": [
                "https://en.wikipedia.org/wiki/Tourism_in_Karnataka",
                "http://www.holidayiq.com/destinations/sakleshpur/"
            ],
            "address": "Hassan district, Karnataka, India",
            "locType": "administrative",
            "longitude": "76.1745460751981"
        },
        "golden temple": {
            "closest_to": "sakleshpur",
            "latitude": "12.430821",
            "blogLinks": [
                "https://www.tripoto.com/places-to-visit/india/karnataka"
            ],
            "address": "Padmasambhava Buddhist Vihara (Golden Temple), MDR21, Koppa, Piriyapattana taluk, Mysuru district, Karnataka, India",
            "locType": "place_of_worship",
            "longitude": "75.9674656"
        },
        "mosale": {
            "closest_to": "tumkur",
            "latitude": "13.3275104",
            "blogLinks": [
                "http://visitingplacesofgreatindia.blogspot.com/2013/07/hassan-district-karnataka.html"
            ],
            "address": "Mosale, Arasikere taluku, Hassan district, Karnataka, India",
            "locType": "village",
            "longitude": "76.0947424"
        },
        "manjunatha": {
            "closest_to": "sakleshpur",
            "latitude": "12.8847787",
            "blogLinks": [
                "https://www.tripoto.com/places-to-visit/india/karnataka"
            ],
            "address": "Manjunatha Colony Road, Bikarnakatte, Nanthoor, Mangaluru, Mangaluru taluk, Dakshina Kannada, Karnataka, 575001, India",
            "locType": "residential",
            "longitude": "74.8543195"
        },
        "belthangady": {
            "closest_to": "sakleshpur",
            "latitude": "12.9899316",
            "blogLinks": [
                "https://www.quora.com/What-are-the-best-weekend-road-trips-from-Bangalore"
            ],
            "address": "Government Model Primary School Belthangady, NH73, Guruvayankere, Beltangadi taluk, Dakshina Kannada, Karnataka, India",
            "locType": "school",
            "longitude": "75.2789924801603"
        },
        "sirigere": {
            "closest_to": "tumkur",
            "latitude": "14.2840739",
            "blogLinks": [
                "https://en.wikipedia.org/wiki/Tourism_in_Karnataka"
            ],
            "address": "Sirigere, Chitradurga taluku, Chitradurga district, Karnataka, India",
            "locType": "village",
            "longitude": "76.2051907"
        },
        "belagola": {
            "closest_to": "tumkur",
            "latitude": "12.8581305",
            "blogLinks": [
                "http://visitingplacesofgreatindia.blogspot.com/2013/07/hassan-district-karnataka.html"
            ],
            "address": "Shravanabelagola, Channarayapattana taluk, Hassan district, Karnataka, 573135, India",
            "locType": "town",
            "longitude": "76.4869997"
        },
        "mysuru": {
            "closest_to": "tumkur",
            "latitude": "12.3051828",
            "blogLinks": [
                "https://www.tripoto.com/places-to-visit/india/karnataka",
                "http://www.holidayiq.com/destinations/sakleshpur/",
                "https://en.wikipedia.org/wiki/Sakleshpur"
            ],
            "address": "Mysuru, Mysuru taluk, Mysuru district, Karnataka, 570001, India",
            "locType": "city",
            "longitude": "76.6553609"
        },
        "delhi": {
            "closest_to": "tumkur",
            "latitude": "12.9212473",
            "blogLinks": [
                "http://www.thrillophilia.com/blog/20-places-you-need-to-visit-in-india-with-your-best-friend/",
                "https://www.tripoto.com/places-to-visit/india/karnataka"
            ],
            "address": "Outer Ring Road, Green Glen Layout, Iblur, Bengaluru, Bangalore Urban, Karnataka, 560001, India",
            "locType": "trunk",
            "longitude": "77.6666062"
        },
        "kanakapura road": {
            "closest_to": "tumkur",
            "latitude": "12.9064528",
            "blogLinks": [
                "https://en.wikipedia.org/wiki/Tourism_in_Karnataka",
                "https://www.tripoto.com/places-to-visit/india/karnataka"
            ],
            "address": "Kanakapura Road, Rajotsava Nagar, Kaderenahalli, Bengaluru, Bangalore Urban, Karnataka, 560001, India",
            "locType": "trunk",
            "longitude": "77.5733483"
        },
        "tadiyandamol": {
            "closest_to": "sakleshpur",
            "latitude": "12.2175641",
            "blogLinks": [
                "https://www.tripoto.com/places-to-visit/india/karnataka"
            ],
            "address": "Tadiandamol, Madikeri taluku, Kodagu, Karnataka, India",
            "locType": "peak",
            "longitude": "75.608815"
        },
        "narasimha swamy temple": {
            "closest_to": "tumkur",
            "latitude": "13.0943931",
            "blogLinks": [
                "https://en.wikipedia.org/wiki/Tourism_in_Karnataka"
            ],
            "address": "Narasimha Swamy Temple, Attavara Mudigere Road, Attavara, Hasana taluk, Hassan district, Karnataka, India",
            "locType": "place_of_worship",
            "longitude": "76.2427318"
        },
        "kabini": {
            "closest_to": "sakleshpur",
            "latitude": "12.0140065",
            "blogLinks": [
                "https://en.wikipedia.org/wiki/Tourism_in_Karnataka",
                "https://www.tripoto.com/places-to-visit/india/karnataka",
                "https://www.quora.com/What-are-the-best-weekend-road-trips-from-Bangalore"
            ],
            "address": "Kabini, Heggadadevanakote taluk, Mysuru district, Karnataka, India",
            "locType": "river",
            "longitude": "76.4152088"
        },
        "emirates": {
            "closest_to": "tumkur",
            "latitude": "13.0192135",
            "blogLinks": [
                "https://www.yatra.com/india-tourism/tumkur/weather"
            ],
            "address": "Emirates, Rahman Khan Road, Rajajinagar 1st Block, Yeshwantpur, Deewanarapalya, Bangalore Urban, Karnataka, 560022, India",
            "locType": "restaurant",
            "longitude": "77.5572955"
        },
        "nilgiri range": {
            "closest_to": "tumkur",
            "latitude": "12.304105",
            "blogLinks": [
                "https://www.tripoto.com/weekend-getaways/from-sakleshpur"
            ],
            "address": "Bangalore Nilgiri Road, Ittigegudu, Mysuru, Mysuru taluk, Mysuru district, Karnataka, 570001, India",
            "locType": "primary",
            "longitude": "76.658639"
        },
        "channarayapatna": {
            "closest_to": "tumkur",
            "latitude": "13.2455918",
            "blogLinks": [
                "http://visitingplacesofgreatindia.blogspot.com/2013/07/hassan-district-karnataka.html"
            ],
            "address": "Channarayapatna, Devanahalli taluk, Bangalore Rural, Karnataka, India",
            "locType": "village",
            "longitude": "77.797084"
        },
        "mahabaleshwar": {
            "closest_to": "tumkur",
            "latitude": "12.962625",
            "blogLinks": [
                "http://www.thrillophilia.com/blog/20-places-you-need-to-visit-in-india-with-your-best-friend/"
            ],
            "address": "Mahabaleshwar Temple, Mission Road (Kalinga Rao Road), Sampangirama Nagar, Shanti Nagar, Bengaluru, Bangalore Urban, Karnataka, 560001, India",
            "locType": "place_of_worship",
            "longitude": "77.5899443"
        },
        "switzerland": {
            "closest_to": "tumkur",
            "latitude": "12.9733671",
            "blogLinks": [
                "http://www.thrillophilia.com/blog/20-places-you-need-to-visit-in-india-with-your-best-friend/"
            ],
            "address": "Consulate General of Switzerland, 26, Rest House Crescent Road, Shantala Nagar, Ashok Nagar, Bengaluru, Bangalore Urban, Karnataka, 560001, India",
            "locType": "embassy",
            "longitude": "77.6055981047125"
        },
        "kodagu district": {
            "closest_to": "sakleshpur",
            "latitude": "12.2519249",
            "blogLinks": [
                "https://www.tripoto.com/places-to-visit/india/karnataka"
            ],
            "address": "Kodagu, Karnataka, India",
            "locType": "county",
            "longitude": "75.7412148"
        },
        "mysore palace": {
            "closest_to": "tumkur",
            "latitude": "12.3052915",
            "blogLinks": [
                "https://www.tripoto.com/places-to-visit/india/karnataka"
            ],
            "address": "Mysore Palace, Sayyaji Rao Road, Vani Vilas, Mysuru, Mysuru taluk, Mysuru district, Karnataka, 570001, India",
            "locType": "yes",
            "longitude": "76.6539249338108"
        },
        "emerald lake": {
            "closest_to": "tumkur",
            "latitude": "13.0833534",
            "blogLinks": [
                "https://www.tripoto.com/weekend-getaways/from-sakleshpur"
            ],
            "address": "Emerald Isle Resort, NH75, Lakshmisagara, Kolar taluk, Kolar district, Karnataka, 563133, India",
            "locType": "hotel",
            "longitude": "77.8188013"
        },
        "district of chikmagalur": {
            "closest_to": "tumkur",
            "latitude": "13.3260288",
            "blogLinks": [
                "https://www.tripoto.com/places-to-visit/india/karnataka"
            ],
            "address": "District Treasury Office, SH57, Palu mane, Santaveri, Tarikere taluku, Chikkamagaluru district, Karnataka, 577137, India",
            "locType": "government",
            "longitude": "75.7739538645039"
        },
        "pushpagiri": {
            "closest_to": "tumkur",
            "latitude": "12.9297622",
            "blogLinks": [
                "https://www.tripoto.com/places-to-visit/india/karnataka"
            ],
            "address": "Pushpagiri Nagar, Bengaluru, Bangalore Urban, Karnataka, 560001, India",
            "locType": "locality",
            "longitude": "77.5333268"
        },
        "chikmagalur": {
            "closest_to": "sakleshpur",
            "latitude": "13.5",
            "blogLinks": [
                "https://www.tripoto.com/places-to-visit/india/karnataka",
                "https://www.mekanagadde.com/location/",
                "https://www.quora.com/What-are-the-best-weekend-road-trips-from-Bangalore"
            ],
            "address": "Chikmagalur, Chikkamagaluru district, Karnataka, India",
            "locType": "county",
            "longitude": "75.5"
        },
        "south": {
            "closest_to": "tumkur",
            "latitude": "13.2942848",
            "blogLinks": [
                "https://en.wikipedia.org/wiki/Tourism_in_Karnataka",
                "http://www.thrillophilia.com/blog/20-places-you-need-to-visit-in-india-with-your-best-friend/",
                "https://www.tripoto.com/places-to-visit/india/karnataka",
                "http://www.nivalink.com/destination/hassan"
            ],
            "address": "s, Vijayapura, Devanahalli taluk, Bangalore Rural, Karnataka, 562135, India",
            "locType": "residential",
            "longitude": "77.8040874"
        },
        "kanakpura road": {
            "closest_to": "tumkur",
            "latitude": "12.8866679",
            "blogLinks": [
                "https://www.tripoto.com/weekend-getaways/from-sakleshpur"
            ],
            "address": "H 902, Mantri Tranquil, Gubbalala, Off Kanakpura Road, Bengaluru - 61, Subramanyapura Main Road, Singapore Gardens, Uttarahalli, Gubbalala, Bangalore Urban, Karnataka, 560086, India",
            "locType": "yes",
            "longitude": "77.5438085908703"
        },
        "south karnataka": {
            "closest_to": "tumkur",
            "latitude": "13.2942848",
            "blogLinks": [
                "https://en.wikipedia.org/wiki/Tourism_in_Karnataka"
            ],
            "address": "s, Vijayapura, Devanahalli taluk, Bangalore Rural, Karnataka, 562135, India",
            "locType": "residential",
            "longitude": "77.8040874"
        },
        "ramanagara district": {
            "closest_to": "tumkur",
            "latitude": "12.71338445",
            "blogLinks": [
                "https://www.tripoto.com/places-to-visit/india/karnataka"
            ],
            "address": "Ramanagara district, Karnataka, India",
            "locType": "administrative",
            "longitude": "77.3194722401066"
        },
        "chikmagalur district": {
            "closest_to": "sakleshpur",
            "latitude": "13.5",
            "blogLinks": [
                "https://en.wikipedia.org/wiki/Tourism_in_Karnataka",
                "https://www.tripoto.com/places-to-visit/india/karnataka",
                "http://visitingplacesofgreatindia.blogspot.com/2013/07/hassan-district-karnataka.html"
            ],
            "address": "Chikmagalur, Chikkamagaluru district, Karnataka, India",
            "locType": "county",
            "longitude": "75.5"
        },
        "kalasa": {
            "closest_to": "sakleshpur",
            "latitude": "13.2322235",
            "blogLinks": [
                "https://en.wikipedia.org/wiki/Tourism_in_Karnataka",
                "https://www.quora.com/What-are-the-best-weekend-road-trips-from-Bangalore"
            ],
            "address": "Kalasa, Mudigere taluk, Chikkamagaluru district, Karnataka, 577124, India",
            "locType": "town",
            "longitude": "75.3582366"
        },
        "shiva temple": {
            "closest_to": "tumkur",
            "latitude": "12.9046749",
            "blogLinks": [
                "https://www.tripoto.com/places-to-visit/india/karnataka"
            ],
            "address": "Shiva Temple, Mangammanapalaya Main Road, Sector 2, HSR Layout, Bengaluru, Bangalore Urban, Karnataka, 560001, India",
            "locType": "place_of_worship",
            "longitude": "77.6406296"
        },
        "lokapavani river": {
            "closest_to": "tumkur",
            "latitude": "12.6108167",
            "blogLinks": [
                "https://www.tripoto.com/places-to-visit/india/karnataka"
            ],
            "address": "Lokapavani, Mandya taluk, Mandya district, Karnataka, India",
            "locType": "river",
            "longitude": "76.7301496"
        },
        "karnataka": {
            "closest_to": "tumkur",
            "latitude": "12.3084901",
            "blogLinks": [
                "http://www.nivalink.com/destination/sakleshpur",
                "http://www.thrillophilia.com/blog/20-places-you-need-to-visit-in-india-with-your-best-friend/",
                "http://www.nivalink.com/destination/hassan",
                "http://visitingplacesofgreatindia.blogspot.com/2013/07/hassan-district-karnataka.html",
                "https://www.tripoto.com/places-to-visit/india/karnataka",
                "https://www.tripoto.com/weekend-getaways/from-sakleshpur",
                "http://www.nivalink.com/destination/chitradurga",
                "https://www.quora.com/What-are-the-best-weekend-road-trips-from-Bangalore",
                "https://en.wikipedia.org/wiki/Tourism_in_Karnataka",
                "https://en.wikipedia.org/wiki/Sakleshpur",
                "http://www.holidayiq.com/destinations/sakleshpur/",
                "http://www.mapsofindia.com/maps/karnataka/"
            ],
            "address": "Karnataka, Shalivahana Road, Nazarbad, Mysuru, Mysuru taluk, Mysuru district, Karnataka, 570001, India",
            "locType": "atm",
            "longitude": "76.6639936"
        },
        "holenarasipura": {
            "closest_to": "tumkur",
            "latitude": "12.7852158",
            "blogLinks": [
                "http://visitingplacesofgreatindia.blogspot.com/2013/07/hassan-district-karnataka.html"
            ],
            "address": "Holenarasipura, Hole Narasipura taluk, Hassan district, Karnataka, 573211, India",
            "locType": "town",
            "longitude": "76.2431266"
        },
        "sri chamarajendra zoological gardens": {
            "closest_to": "tumkur",
            "latitude": "12.3006384",
            "blogLinks": [
                "https://www.tripoto.com/places-to-visit/india/karnataka"
            ],
            "address": "Sri Chamarajendra Zoological Garden, Kozhikode - Kollegal Highway, Race Course, Mysuru, Mysuru taluk, Mysuru district, Karnataka, 570001, India",
            "locType": "zoo",
            "longitude": "76.6682662743162"
        },
        "tiptur": {
            "closest_to": "tumkur",
            "latitude": "13.2594418",
            "blogLinks": [
                "http://www.team-bhp.com/forum/route-travel-queries/42482-bangalore-shimoga-route-queries.html"
            ],
            "address": "Tiptur, Tipaturu taluk, Tumkur district, Karnataka, 572200, India",
            "locType": "town",
            "longitude": "76.4724264"
        },
        "mandya": {
            "closest_to": "tumkur",
            "latitude": "12.5217836",
            "blogLinks": [
                "https://en.wikipedia.org/wiki/Tourism_in_Karnataka",
                "https://www.tripoto.com/places-to-visit/india/karnataka",
                "https://www.tripoto.com/weekend-getaways/from-sakleshpur",
                "http://www.mapsofindia.com/maps/karnataka/"
            ],
            "address": "Mandya, Mandya taluk, Mandya district, Karnataka, 571401, India",
            "locType": "town",
            "longitude": "76.8937392"
        },
        "lalbagh botanical garden": {
            "closest_to": "tumkur",
            "latitude": "12.9489367",
            "blogLinks": [
                "https://www.tripoto.com/places-to-visit/india/karnataka"
            ],
            "address": "Lalbagh Botanical Gardens, Siddapura Road, Mavalli, Someshwaranagar, Bengaluru, Bangalore Urban, Karnataka, 560001, India",
            "locType": "attraction",
            "longitude": "77.5869868789796"
        },
        "palace gardens": {
            "closest_to": "tumkur",
            "latitude": "12.9985963",
            "blogLinks": [
                "https://www.tripoto.com/places-to-visit/india/karnataka"
            ],
            "address": "Bangalore Palace, Jayamahal Road, Jayamahal Extension, Jayamahal, Bengaluru, Bangalore Urban, Karnataka, 560001, India",
            "locType": "attraction",
            "longitude": "77.5920094892276"
        },
        "chola": {
            "closest_to": "tumkur",
            "latitude": "13.0023906",
            "blogLinks": [
                "https://en.wikipedia.org/wiki/Tourism_in_Karnataka"
            ],
            "address": "Chola Gold Loan, Bengaluru - Mangaluru Road, Ravindra Nagar, Santhe Pete, Hassan, Hasana taluk, Hassan district, Karnataka, 573201, India",
            "locType": "yes",
            "longitude": "76.098782"
        },
        "melukote": {
            "closest_to": "tumkur",
            "latitude": "12.6739352",
            "blogLinks": [
                "https://www.tripoto.com/places-to-visit/india/karnataka"
            ],
            "address": "Melukote, Pandavapura taluk, Mandya district, Karnataka, India",
            "locType": "village",
            "longitude": "76.6482937"
        },
        "east": {
            "closest_to": "tumkur",
            "latitude": "12.8504319",
            "blogLinks": [
                "https://en.wikipedia.org/wiki/Tourism_in_Karnataka"
            ],
            "address": "East, 43, Velankani Drive, Electronics City Phase 1, Doddathoguru, Bangalore Urban, Karnataka, 560100, India",
            "locType": "restaurant",
            "longitude": "77.6601401"
        },
        "sharadamba temple": {
            "closest_to": "tumkur",
            "latitude": "12.9321898",
            "blogLinks": [
                "https://www.tripoto.com/places-to-visit/india/karnataka"
            ],
            "address": "Sharadamba Temple, 7th Main Road, Yediyur, Thyagaraja Nagar, Bengaluru, Bangalore Urban, Karnataka, 560001, India",
            "locType": "place_of_worship",
            "longitude": "77.5656194"
        },
        "venugopalaswamy": {
            "closest_to": "tumkur",
            "latitude": "12.9592241",
            "blogLinks": [
                "https://www.tripoto.com/places-to-visit/india/karnataka"
            ],
            "address": "Venugopalaswamy Temple Street, Konena Agrahara, Vimanapura, Belure Ambedkar Nagar, Bangalore Urban, Karnataka, 560037, India",
            "locType": "living_street",
            "longitude": "77.6615183"
        },
        "hemavathi river": {
            "closest_to": "tumkur",
            "latitude": "12.8267596",
            "blogLinks": [
                "http://www.holidayiq.com/destinations/sakleshpur/",
                "https://en.wikipedia.org/wiki/Sakleshpur"
            ],
            "address": "Hemavathi Reservoir, Hasana taluk, Hassan district, Karnataka, India",
            "locType": "dam",
            "longitude": "76.0556931"
        },
        "bahubali": {
            "closest_to": "tumkur",
            "latitude": "12.8540505",
            "blogLinks": [
                "https://en.wikipedia.org/wiki/Tourism_in_Karnataka"
            ],
            "address": "Bahubali Statue, SH8, Shravanabelagola, Channarayapattana taluk, Hassan district, Karnataka, 573135, India",
            "locType": "place_of_worship",
            "longitude": "76.4846128"
        },
        "modern india": {
            "closest_to": "tumkur",
            "latitude": "12.9893108",
            "blogLinks": [
                "https://www.tripoto.com/places-to-visit/india/karnataka"
            ],
            "address": "National Gallery of Modern Arts (NGMA), Palace Road, Chakravarty Layout, Vasantnagar, Bengaluru, Bangalore Urban, Karnataka, 560001, India",
            "locType": "museum",
            "longitude": "77.5881178995539"
        },
        "kempuhole river": {
            "closest_to": "sakleshpur",
            "latitude": "12.841867",
            "blogLinks": [
                "https://en.wikipedia.org/wiki/Sakleshpur"
            ],
            "address": "Kempuhole Dam, Sakaleshapura taluk, Hassan district, Karnataka, India",
            "locType": "dam",
            "longitude": "75.6776374"
        },
        "arsikere": {
            "closest_to": "tumkur",
            "latitude": "13.313613",
            "blogLinks": [
                "http://visitingplacesofgreatindia.blogspot.com/2013/07/hassan-district-karnataka.html"
            ],
            "address": "Arsikere Junction, Subrahmanya Temple Road, Lakshmi Puram, Arasikere, Arasikere taluku, Hassan district, Karnataka, 573103, India",
            "locType": "station",
            "longitude": "76.2528992"
        },
        "nagarhole national park": {
            "closest_to": "sakleshpur",
            "latitude": "12.0600362",
            "blogLinks": [
                "https://en.wikipedia.org/wiki/Tourism_in_Karnataka"
            ],
            "address": "Nagarahole National Park, Virajpet taluk, Kodagu, Karnataka, India",
            "locType": "national_park",
            "longitude": "76.1537073415874"
        },
        "siddapur": {
            "closest_to": "sakleshpur",
            "latitude": "13.6626885",
            "blogLinks": [
                "https://www.tripoto.com/places-to-visit/india/karnataka"
            ],
            "address": "Siddapur, \u0c95\u0cc1\u0c82\u0ca6\u0cbe\u0caa\u0cc1\u0cb0 \u0ca4\u0cbe\u0cb2\u0cc2\u0c95\u0cc1, Udupi district, Karnataka, 576229, India",
            "locType": "village",
            "longitude": "74.911019"
        },
        "bangalore of karnataka": {
            "closest_to": "tumkur",
            "latitude": "12.9791198",
            "blogLinks": [
                "https://en.wikipedia.org/wiki/Sakleshpur",
                "http://visitingplacesofgreatindia.blogspot.com/2013/07/hassan-district-karnataka.html"
            ],
            "address": "Bengaluru, Bangalore Urban, Karnataka, 560001, India",
            "locType": "city",
            "longitude": "77.5912997"
        },
        "varanasi": {
            "closest_to": "tumkur",
            "latitude": "13.0304962",
            "blogLinks": [
                "https://www.tripoto.com/places-to-visit/india/karnataka"
            ],
            "address": "Varanasi, Bangalore Urban, Karnataka, India",
            "locType": "village",
            "longitude": "77.6860657"
        },
        "ombattu gudda": {
            "closest_to": "sakleshpur",
            "latitude": "12.9408479",
            "blogLinks": [
                "http://visitingplacesofgreatindia.blogspot.com/2013/07/hassan-district-karnataka.html"
            ],
            "address": "Ombaattu Gudde, Mudigere taluk, Chikkamagaluru district, Karnataka, India",
            "locType": "peak",
            "longitude": "75.5851409"
        },
        "iruppu falls": {
            "closest_to": "sakleshpur",
            "latitude": "11.9667954",
            "blogLinks": [
                "https://www.tripoto.com/places-to-visit/india/karnataka",
                "https://www.tripoto.com/weekend-getaways/from-sakleshpur"
            ],
            "address": "Iruppu Falls, SH89, Taila, Virajpet taluk, Kodagu, Karnataka, 571217, India",
            "locType": "attraction",
            "longitude": "75.9839484"
        },
        "dubare elephant camp": {
            "closest_to": "sakleshpur",
            "latitude": "12.3716865",
            "blogLinks": [
                "https://www.tripoto.com/weekend-getaways/from-sakleshpur"
            ],
            "address": "Dubare Elephant Camp, SH91, Dodda Bettageri, Somawarpet taluk, Kodagu, Karnataka, India",
            "locType": "attraction",
            "longitude": "75.9066719"
        },
        "udipi": {
            "closest_to": "tumkur",
            "latitude": "12.9530588",
            "blogLinks": [
                "http://www.nivalink.com/destination/sakleshpur",
                "http://www.nivalink.com/destination/chitradurga",
                "http://www.nivalink.com/destination/hassan"
            ],
            "address": "Udipi Park, 2nd Cross Road, Muniyappa Layout, Murugeshpalaya, Belure Ambedkar Nagar, Bangalore Urban, Karnataka, 560067, India",
            "locType": "restaurant",
            "longitude": "77.652888"
        },
        "bhadra": {
            "closest_to": "sakleshpur",
            "latitude": "13.4888356",
            "blogLinks": [
                "https://www.tripoto.com/places-to-visit/india/karnataka"
            ],
            "address": "Bhadra, Chikkamagaluru taluku, Chikkamagaluru district, Karnataka, India",
            "locType": "river",
            "longitude": "75.527118"
        },
        "dakshina kannada": {
            "closest_to": "sakleshpur",
            "latitude": "12.8114089",
            "blogLinks": [
                "http://visitingplacesofgreatindia.blogspot.com/2013/07/hassan-district-karnataka.html",
                "https://www.tripoto.com/weekend-getaways/from-sakleshpur",
                "https://en.wikipedia.org/wiki/Sakleshpur",
                "https://www.quora.com/What-are-the-best-weekend-road-trips-from-Bangalore",
                "https://en.wikipedia.org/wiki/Tourism_in_Karnataka",
                "http://www.holidayiq.com/destinations/sakleshpur/",
                "http://www.mapsofindia.com/maps/karnataka/"
            ],
            "address": "Dakshina Kannada, Karnataka, India",
            "locType": "administrative",
            "longitude": "75.1008028650794"
        },
        "goa karnataka": {
            "closest_to": "tumkur",
            "latitude": "12.9750047",
            "blogLinks": [
                "https://www.tripoto.com/places-to-visit/india/karnataka"
            ],
            "address": "Carnival De Goa, Bhaskaran Road, Gupta Layout, Halasuru, Bengaluru, Bangalore Urban, Karnataka, 560001, India",
            "locType": "restaurant",
            "longitude": "77.6200027"
        },
        "mysore city": {
            "closest_to": "tumkur",
            "latitude": "12.3051828",
            "blogLinks": [
                "https://www.tripoto.com/places-to-visit/india/karnataka"
            ],
            "address": "Mysuru, Mysuru taluk, Mysuru district, Karnataka, 570001, India",
            "locType": "city",
            "longitude": "76.6553609"
        },
        "chennakeshava": {
            "closest_to": "tumkur",
            "latitude": "13.3748908",
            "blogLinks": [
                "http://visitingplacesofgreatindia.blogspot.com/2013/07/hassan-district-karnataka.html"
            ],
            "address": "Chennakeshava Temple, NH73, Arakere, Arasikere taluku, Hassan district, Karnataka, 573112, India",
            "locType": "place_of_worship",
            "longitude": "76.1294164"
        },
        "magadi": {
            "closest_to": "tumkur",
            "latitude": "12.9567353",
            "blogLinks": [
                "https://www.quora.com/What-are-the-best-weekend-road-trips-from-Bangalore"
            ],
            "address": "Magadi, Magadi taluku, Ramanagara district, Karnataka, 562120, India",
            "locType": "town",
            "longitude": "77.2242281"
        },
        "ashoka road": {
            "closest_to": "tumkur",
            "latitude": "13.0033073",
            "blogLinks": [
                "http://www.holidayiq.com/destinations/sakleshpur/"
            ],
            "address": "Ashoka Road, Richards Town, St Thomastown, Bengaluru, Bangalore Urban, Karnataka, 560001, India",
            "locType": "residential",
            "longitude": "77.6198454"
        },
        "kumara parvatha": {
            "closest_to": "sakleshpur",
            "latitude": "12.6623315",
            "blogLinks": [
                "https://www.tripoto.com/places-to-visit/india/karnataka",
                "https://www.tripoto.com/weekend-getaways/from-sakleshpur"
            ],
            "address": "Kumara Parvatha, Somawarpet taluk, Kodagu, Karnataka, India",
            "locType": "peak",
            "longitude": "75.6865652"
        },
        "malayalam": {
            "closest_to": "tumkur",
            "latitude": "12.9985726",
            "blogLinks": [
                "http://www.thrillophilia.com/blog/20-places-you-need-to-visit-in-india-with-your-best-friend/"
            ],
            "address": "Lowry Adventist Malayalam Church, A Narayanapura Main Road, Darga Mohalla, Udaya Nagar, A Narayanapura, Bangalore Urban, Karnataka, 560016, India",
            "locType": "place_of_worship",
            "longitude": "77.6774283"
        },
        "manjusha museum": {
            "closest_to": "sakleshpur",
            "latitude": "12.95116975",
            "blogLinks": [
                "https://en.wikipedia.org/wiki/Tourism_in_Karnataka"
            ],
            "address": "Manjusha Museum, SH37, Dharmasthala, Beltangadi taluk, Dakshina Kannada, Karnataka, 574216, India",
            "locType": "museum",
            "longitude": "75.3821342838196"
        },
        "mallalli falls": {
            "closest_to": "sakleshpur",
            "latitude": "12.6813778",
            "blogLinks": [
                "https://www.tripoto.com/places-to-visit/india/karnataka",
                "https://www.tripoto.com/weekend-getaways/from-sakleshpur"
            ],
            "address": "Mallalli Falls, Somawarpet taluk, Kodagu, Karnataka, India",
            "locType": "waterfall",
            "longitude": "75.723663"
        },
        "hemavati": {
            "closest_to": "tumkur",
            "latitude": "12.8179996",
            "blogLinks": [
                "https://www.tripoto.com/places-to-visit/india/karnataka",
                "http://visitingplacesofgreatindia.blogspot.com/2013/07/hassan-district-karnataka.html"
            ],
            "address": "Hemavati, Hasana taluk, Hassan district, Karnataka, India",
            "locType": "river",
            "longitude": "76.0723187"
        },
        "kannada": {
            "closest_to": "sakleshpur",
            "latitude": "12.8114089",
            "blogLinks": [
                "https://www.quora.com/What-are-the-best-weekend-road-trips-from-Bangalore",
                "https://www.tripoto.com/places-to-visit/india/karnataka",
                "http://visitingplacesofgreatindia.blogspot.com/2013/07/hassan-district-karnataka.html"
            ],
            "address": "Dakshina Kannada, Karnataka, India",
            "locType": "administrative",
            "longitude": "75.1008028650794"
        },
        "singapore": {
            "closest_to": "tumkur",
            "latitude": "12.8861812",
            "blogLinks": [
                "https://www.yatra.com/india-tourism/tumkur/weather"
            ],
            "address": "Singapore Gardens, Vajrahalli, Bengaluru, Bangalore Urban, Karnataka, 560001, India",
            "locType": "neighbourhood",
            "longitude": "77.5483703"
        },
        "kalyani": {
            "closest_to": "tumkur",
            "latitude": "12.8406466",
            "blogLinks": [
                "https://en.wikipedia.org/wiki/Tourism_in_Karnataka",
                "https://www.tripoto.com/places-to-visit/india/karnataka"
            ],
            "address": "Kalyani, Neeladri Road, Electronics City Phase 1, Bettadasana Pura, Bangalore Urban, Karnataka, 560100, India",
            "locType": "water",
            "longitude": "77.6286090192686"
        },
        "ramanagar district": {
            "closest_to": "tumkur",
            "latitude": "12.649356",
            "blogLinks": [
                "https://www.tripoto.com/places-to-visit/india/karnataka"
            ],
            "address": "Ramanagar-Kanakapura Road, Avverahalli, Ramanagara taluk, Ramanagara district, Karnataka, 562159, India",
            "locType": "primary",
            "longitude": "77.3418018"
        },
        "outer ring road": {
            "closest_to": "tumkur",
            "latitude": "12.9210769",
            "blogLinks": [
                "https://www.tripoto.com/places-to-visit/india/karnataka"
            ],
            "address": "Outer Ring Road, Green Glen Layout, Iblur, Bengaluru, Bangalore Urban, Karnataka, 560001, India",
            "locType": "trunk",
            "longitude": "77.6632088"
        },
        "mumbai": {
            "closest_to": "tumkur",
            "latitude": "13.0002869",
            "blogLinks": [
                "http://www.thrillophilia.com/blog/20-places-you-need-to-visit-in-india-with-your-best-friend/",
                "https://www.tripoto.com/places-to-visit/india/karnataka",
                "http://www.nivalink.com/destination/chitradurga",
                "http://visitingplacesofgreatindia.blogspot.com/2013/07/hassan-district-karnataka.html"
            ],
            "address": "Mumbai Spice, 18/2, 10th Cross, Malleswaram, Vyalikaval, Malleswaram, Bengaluru, Bangalore Urban, Karnataka, 560003, India",
            "locType": "restaurant",
            "longitude": "77.5718472"
        },
        "manipal": {
            "closest_to": "sakleshpur",
            "latitude": "13.3519723",
            "blogLinks": [
                "https://en.wikipedia.org/wiki/Tourism_in_Karnataka"
            ],
            "address": "Manipal, Udupi taluku, Udupi district, Karnataka, India",
            "locType": "town",
            "longitude": "74.7870308"
        },
        "durga temple": {
            "closest_to": "tumkur",
            "latitude": "12.9057731",
            "blogLinks": [
                "https://www.tripoto.com/places-to-visit/india/karnataka"
            ],
            "address": "Durga Temple, 29th Main, Mahadeshwara Nagara, BTM Layout, Bengaluru, Bangalore Urban, Karnataka, 560001, India",
            "locType": "place_of_worship",
            "longitude": "77.6125928"
        },
        "sharavathi valley": {
            "closest_to": "tumkur",
            "latitude": "12.9464709",
            "blogLinks": [
                "https://www.tripoto.com/places-to-visit/india/karnataka"
            ],
            "address": "Sharavathi Block, National Games Village Road, Ambedkar Nagar, Ejipura, Bengaluru, Bangalore Urban, Karnataka, 560001, India",
            "locType": "yes",
            "longitude": "77.6216184337102"
        },
        "bombay": {
            "closest_to": "tumkur",
            "latitude": "12.9632318",
            "blogLinks": [
                "https://www.tripoto.com/places-to-visit/india/karnataka"
            ],
            "address": "Bombay tea hotel, Hosahalli Main Road, Rajajinagar 6th Block, Goripalya, Bengaluru, Bangalore Urban, Karnataka, 560001, India",
            "locType": "cafe",
            "longitude": "77.5500256"
        },
        "madikeri fort": {
            "closest_to": "sakleshpur",
            "latitude": "12.4203606",
            "blogLinks": [
                "https://www.tripoto.com/places-to-visit/india/karnataka",
                "https://www.tripoto.com/weekend-getaways/from-sakleshpur"
            ],
            "address": "Madikeri Museum, Fort Internal Road, Madikeri, Madikeri taluku, Kodagu, Karnataka, India",
            "locType": "museum",
            "longitude": "75.7392494"
        },
        "nagarahole national park": {
            "closest_to": "sakleshpur",
            "latitude": "12.0600362",
            "blogLinks": [
                "https://en.wikipedia.org/wiki/Tourism_in_Karnataka",
                "https://www.tripoto.com/places-to-visit/india/karnataka"
            ],
            "address": "Nagarahole National Park, Virajpet taluk, Kodagu, Karnataka, India",
            "locType": "national_park",
            "longitude": "76.1537073415874"
        },
        "silicon valley": {
            "closest_to": "tumkur",
            "latitude": "13.1650062",
            "blogLinks": [
                "https://www.tripoto.com/places-to-visit/india/karnataka"
            ],
            "address": "RK Estates : Silicon Valley Layout, Vidyanagar, Bengaluru, Bangalore Urban, Karnataka, 560001, India",
            "locType": "residential",
            "longitude": "77.6053133563105"
        },
        "' river varahi": {
            "closest_to": "sakleshpur",
            "latitude": "13.6582668",
            "blogLinks": [
                "https://en.wikipedia.org/wiki/Tourism_in_Karnataka"
            ],
            "address": "Varahi, \u0c95\u0cc1\u0c82\u0ca6\u0cbe\u0caa\u0cc1\u0cb0 \u0ca4\u0cbe\u0cb2\u0cc2\u0c95\u0cc1, Udupi district, Karnataka, India",
            "locType": "river",
            "longitude": "74.9489117"
        },
        "hemavathy river": {
            "closest_to": "tumkur",
            "latitude": "13.2293083",
            "blogLinks": [
                "http://visitingplacesofgreatindia.blogspot.com/2013/07/hassan-district-karnataka.html"
            ],
            "address": "T Subramanian Hemavathy Irrigation Canal, Tipaturu taluk, Tumkur district, Karnataka, India",
            "locType": "canal",
            "longitude": "76.5150009"
        },
        "kigga": {
            "closest_to": "sakleshpur",
            "latitude": "13.41691525",
            "blogLinks": [
                "https://www.tripoto.com/places-to-visit/india/karnataka"
            ],
            "address": "Kigga, Sringeri taluku, Chikkamagaluru district, Karnataka, 577139, India",
            "locType": "village",
            "longitude": "75.1903656777356"
        },
        "dattatreya temple": {
            "closest_to": "tumkur",
            "latitude": "12.92479825",
            "blogLinks": [
                "https://www.tripoto.com/places-to-visit/india/karnataka"
            ],
            "address": "Dattatreya Temple, 7th Main Road, Seven Hills Layout, Ittamadu, Bengaluru, Bangalore Urban, Karnataka, 560001, India",
            "locType": "place_of_worship",
            "longitude": "77.5401435953887"
        },
        "sharavathi river": {
            "closest_to": "tumkur",
            "latitude": "12.9464709",
            "blogLinks": [
                "https://www.tripoto.com/places-to-visit/india/karnataka"
            ],
            "address": "Sharavathi Block, National Games Village Road, Ambedkar Nagar, Ejipura, Bengaluru, Bangalore Urban, Karnataka, 560001, India",
            "locType": "yes",
            "longitude": "77.6216184337102"
        },
        "nugu": {
            "closest_to": "sakleshpur",
            "latitude": "11.8823658",
            "blogLinks": [
                "https://www.tripoto.com/places-to-visit/india/karnataka"
            ],
            "address": "Nugu, Heggadadevanakote taluk, Mysuru district, Karnataka, India",
            "locType": "river",
            "longitude": "76.4213276"
        },
        "narasipura": {
            "closest_to": "tumkur",
            "latitude": "13.6494023",
            "blogLinks": [
                "https://www.tripoto.com/places-to-visit/india/karnataka"
            ],
            "address": "Narasipura, Kaduru taluk, Chikkamagaluru district, Karnataka, India",
            "locType": "village",
            "longitude": "76.0371725"
        },
        "amruth sarovar lake": {
            "closest_to": "tumkur",
            "latitude": "13.3711828",
            "blogLinks": [
                "https://www.tripoto.com/places-to-visit/india/karnataka"
            ],
            "address": "Amruth Sarovar, Sultanapete, Chikkaballapura taluk, Chikkaballapura district, Karnataka, India",
            "locType": "reservoir",
            "longitude": "77.6809602980907"
        },
        "yeshwanthpur": {
            "closest_to": "tumkur",
            "latitude": "13.0159579",
            "blogLinks": [
                "http://www.holidayiq.com/destinations/sakleshpur/"
            ],
            "address": "Yeshwanthpur Yard market, Shankarnagar Main Road, Goragunte Palya, Nandini Layout, Bengaluru, Bangalore Urban, Karnataka, 560001, India",
            "locType": "marketplace",
            "longitude": "77.5451161845771"
        },
        "sakaleshpura": {
            "closest_to": "tumkur",
            "latitude": "12.9434349",
            "blogLinks": [
                "http://www.holidayiq.com/destinations/sakleshpur/",
                "https://en.wikipedia.org/wiki/Sakleshpur"
            ],
            "address": "Sakaleshpura, Sakaleshapura taluk, Hassan district, Karnataka, 573134, India",
            "locType": "town",
            "longitude": "75.7862318"
        },
        "kere lake park": {
            "closest_to": "tumkur",
            "latitude": "13.161625",
            "blogLinks": [
                "https://www.tripoto.com/places-to-visit/india/karnataka"
            ],
            "address": "Hesaraghatta Lake, Muttakuru, Bangalore Urban, Karnataka, India",
            "locType": "reservoir",
            "longitude": "77.4911458333333"
        },
        "nagarahole": {
            "closest_to": "sakleshpur",
            "latitude": "12.0229466",
            "blogLinks": [
                "https://en.wikipedia.org/wiki/Tourism_in_Karnataka",
                "https://www.tripoto.com/places-to-visit/india/karnataka"
            ],
            "address": "Nagarahole, Heggadadevanakote taluk, Mysuru district, Karnataka, India",
            "locType": "river",
            "longitude": "76.2286805"
        },
        "chandragupta maurya": {
            "closest_to": "tumkur",
            "latitude": "12.92084805",
            "blogLinks": [
                "https://www.tripoto.com/places-to-visit/india/karnataka"
            ],
            "address": "Chandragupta Maurya playground, 11 Main (Sri Aurobindo Marg), Jayanagar 4th Block, Jayanagar, Bengaluru, Bangalore Urban, Karnataka, 560001, India",
            "locType": "pitch",
            "longitude": "77.585340318101"
        },
        "northern karnataka": {
            "closest_to": "tumkur",
            "latitude": "12.9257442",
            "blogLinks": [
                "https://www.tripoto.com/places-to-visit/india/karnataka"
            ],
            "address": "Northern Operating  Services Pvt Ltd, RMZ Ecospace, Internal Rd, RMZ Ecospace, Bellandur, Doddakannelli, Bangalore Urban, Karnataka, 560037, India",
            "locType": "company",
            "longitude": "77.6804678"
        },
        "nisargadhama": {
            "closest_to": "sakleshpur",
            "latitude": "12.4416008",
            "blogLinks": [
                "https://www.tripoto.com/places-to-visit/india/karnataka"
            ],
            "address": "Kaveri Nisargadhama, NH275, 7th Hosakote, Somawarpet taluk, Kodagu, Karnataka, India",
            "locType": "park",
            "longitude": "75.93356075"
        },
        "chandragupta": {
            "closest_to": "tumkur",
            "latitude": "12.3103038",
            "blogLinks": [
                "http://visitingplacesofgreatindia.blogspot.com/2013/07/hassan-district-karnataka.html"
            ],
            "address": "Chandragupta Road, Mandi Mohalla, Mysuru, Mysuru taluk, Mysuru district, Karnataka, 570001, India",
            "locType": "secondary",
            "longitude": "76.6575533"
        },
        "kudremukh": {
            "closest_to": "sakleshpur",
            "latitude": "13.2144007",
            "blogLinks": [
                "https://www.tripoto.com/places-to-visit/india/karnataka"
            ],
            "address": "Kudremukha, Mudigere taluk, Chikkamagaluru district, Karnataka, India",
            "locType": "village",
            "longitude": "75.2523304"
        },
        "kodagu": {
            "closest_to": "sakleshpur",
            "latitude": "12.38117345",
            "blogLinks": [
                "http://visitingplacesofgreatindia.blogspot.com/2013/07/hassan-district-karnataka.html",
                "https://www.tripoto.com/places-to-visit/india/karnataka",
                "https://www.tripoto.com/weekend-getaways/from-sakleshpur",
                "https://www.quora.com/What-are-the-best-weekend-road-trips-from-Bangalore",
                "https://en.wikipedia.org/wiki/Tourism_in_Karnataka",
                "http://www.mapsofindia.com/maps/karnataka/"
            ],
            "address": "Kodagu, Karnataka, India",
            "locType": "administrative",
            "longitude": "75.6677235950852"
        },
        "kamat": {
            "closest_to": "tumkur",
            "latitude": "12.9491655",
            "blogLinks": [
                "https://www.tripoto.com/places-to-visit/india/karnataka"
            ],
            "address": "Kamat, National High School Road, Mavalli, VV Puram, Bengaluru, Bangalore Urban, Karnataka, 560001, India",
            "locType": "restaurant",
            "longitude": "77.5798273"
        },
        "sakaleshapura": {
            "closest_to": "sakleshpur",
            "latitude": "12.8549792",
            "blogLinks": [
                "https://en.wikipedia.org/wiki/Sakleshpur",
                "http://visitingplacesofgreatindia.blogspot.com/2013/07/hassan-district-karnataka.html"
            ],
            "address": "Sakaleshapura taluk, Hassan district, Karnataka, India",
            "locType": "administrative",
            "longitude": "75.7266693539484"
        },
        "hassan": {
            "closest_to": "tumkur",
            "latitude": "13.0070817",
            "blogLinks": [
                "https://en.wikipedia.org/wiki/Tourism_in_Karnataka",
                "https://www.quora.com/What-are-the-best-weekend-road-trips-from-Bangalore",
                "http://www.holidayiq.com/destinations/sakleshpur/",
                "http://visitingplacesofgreatindia.blogspot.com/2013/07/hassan-district-karnataka.html"
            ],
            "address": "Hassan, Hasana taluk, Hassan district, Karnataka, 573201, India",
            "locType": "town",
            "longitude": "76.0992703"
        },
        "mysore district": {
            "closest_to": "tumkur",
            "latitude": "12.3051828",
            "blogLinks": [
                "https://en.wikipedia.org/wiki/Tourism_in_Karnataka",
                "https://www.tripoto.com/places-to-visit/india/karnataka",
                "http://visitingplacesofgreatindia.blogspot.com/2013/07/hassan-district-karnataka.html"
            ],
            "address": "Mysuru, Mysuru taluk, Mysuru district, Karnataka, 570001, India",
            "locType": "city",
            "longitude": "76.6553609"
        },
        "anantapur district": {
            "closest_to": "tumkur",
            "latitude": "13.7972948",
            "blogLinks": [
                "https://www.quora.com/What-are-the-best-weekend-road-trips-from-Bangalore"
            ],
            "address": "RTO Karnataka, Srinagar - Kanyakumari Highway, Paragodu, Bagepalli taluk, Chikkaballapura district, Karnataka, 561207, India",
            "locType": "yes",
            "longitude": "77.7596024"
        },
        "madikeri": {
            "closest_to": "sakleshpur",
            "latitude": "12.4204003",
            "blogLinks": [
                "https://www.tripoto.com/places-to-visit/india/karnataka"
            ],
            "address": "Madikeri, Madikeri taluku, Kodagu, Karnataka, India",
            "locType": "town",
            "longitude": "75.740031"
        },
        "railway station": {
            "closest_to": "tumkur",
            "latitude": "13.5029417",
            "blogLinks": [
                "https://www.tripoto.com/weekend-getaways/from-sakleshpur"
            ],
            "address": "Railway Station, Gauribidanuru taluk, Chikkaballapura district, Karnataka, India",
            "locType": "village",
            "longitude": "77.515738"
        },
        "england": {
            "closest_to": "tumkur",
            "latitude": "12.90120185",
            "blogLinks": [
                "https://www.tripoto.com/places-to-visit/india/karnataka"
            ],
            "address": "Peter England Factory, Bommanahalli, Bengaluru, Bangalore Urban, Karnataka, 560001, India",
            "locType": "industrial",
            "longitude": "77.6219969678622"
        },
        "kumara": {
            "closest_to": "sakleshpur",
            "latitude": "12.6623315",
            "blogLinks": [
                "http://www.holidayiq.com/destinations/sakleshpur/"
            ],
            "address": "Kumara Parvatha, Somawarpet taluk, Kodagu, Karnataka, India",
            "locType": "peak",
            "longitude": "75.6865652"
        },
        "kundapura": {
            "closest_to": "sakleshpur",
            "latitude": "13.6250993",
            "blogLinks": [
                "http://www.nivalink.com/destination/sakleshpur",
                "http://www.nivalink.com/destination/chitradurga",
                "http://www.nivalink.com/destination/hassan"
            ],
            "address": "Kundapura, \u0c95\u0cc1\u0c82\u0ca6\u0cbe\u0caa\u0cc1\u0cb0 \u0ca4\u0cbe\u0cb2\u0cc2\u0c95\u0cc1, Udupi district, Karnataka, 576200, India",
            "locType": "town",
            "longitude": "74.6915722"
        },
        "karnatka": {
            "closest_to": "tumkur",
            "latitude": "12.9500847",
            "blogLinks": [
                "https://www.tripoto.com/places-to-visit/india/karnataka"
            ],
            "address": "Karnatka Rajya Kaigarika Sahakari Bank, Bull Temple Road, Mavalli, Chamarajapete, Bengaluru, Bangalore Urban, Karnataka, 560001, India",
            "locType": "bank",
            "longitude": "77.5679508"
        },
        "talakaveri": {
            "closest_to": "sakleshpur",
            "latitude": "12.3858456",
            "blogLinks": [
                "https://www.tripoto.com/places-to-visit/india/karnataka"
            ],
            "address": "Talakaveri, Madikeri taluku, Kodagu, Karnataka, India",
            "locType": "hamlet",
            "longitude": "75.4930074"
        },
        "madurai": {
            "closest_to": "tumkur",
            "latitude": "12.9185419",
            "blogLinks": [
                "https://www.tripoto.com/weekend-getaways/from-sakleshpur"
            ],
            "address": "Madurai Idly Shop, 5th Main Road, Teachers Colony, HSR Layout, Bengaluru, Bangalore Urban, Karnataka, 560001, India",
            "locType": "restaurant",
            "longitude": "77.6320535"
        },
        "shimoga": {
            "closest_to": "sakleshpur",
            "latitude": "13.9311723",
            "blogLinks": [
                "https://en.wikipedia.org/wiki/Tourism_in_Karnataka"
            ],
            "address": "Shivamogga, Shivamogga taluku, Shimoga district, Karnataka, 577200, India",
            "locType": "city",
            "longitude": "75.569737"
        },
        "arkavati river": {
            "closest_to": "tumkur",
            "latitude": "12.6444026",
            "blogLinks": [
                "https://www.tripoto.com/places-to-visit/india/karnataka"
            ],
            "address": "Arkavati, Kanakapura taluk, Ramanagara district, Karnataka, India",
            "locType": "river",
            "longitude": "77.3595883"
        },