{
    "sringeri": {
        "lat": "13.4261724",
        "importance": 0.5,
        "osm_type": "node",
        "class": "place",
        "boundingbox": [
            "13.3861724",
            "13.4661724",
            "75.2153718",
            "75.2953718"
        ],
        "icon": "https://nominatim.openstreetmap.org/images/mapicons/poi_place_town.p.20.png",
        "osm_id": "1422424829",
        "licence": "Data \u00a9 OpenStreetMap contributors, ODbL 1.0. http://www.openstreetmap.org/copyright",
        "lon": "75.2553718",
        "place_id": "15363578",
        "display_name": "Sringeri, Sringeri taluku, Chikkamagaluru district, Karnataka, 577592, India",
        "type": "town"
    },
    "shimoga": {
        "lat": "13.9311723",
        "importance": 0.55,
        "osm_type": "node",
        "class": "place",
        "boundingbox": [
            "13.7711723",
            "14.0911723",
            "75.409737",
            "75.729737"
        ],
        "icon": "https://nominatim.openstreetmap.org/images/mapicons/poi_place_city.p.20.png",
        "osm_id": "245625473",
        "licence": "Data \u00a9 OpenStreetMap contributors, ODbL 1.0. http://www.openstreetmap.org/copyright",
        "lon": "75.569737",
        "place_id": "639702",
        "display_name": "Shivamogga, Shivamogga taluku, Shimoga district, Karnataka, 577200, India",
        "type": "city"
    },
    "mentions": {
        "kundapura": {
            "closest_to": "sringeri",
            "latitude": "13.6250993",
            "blogLinks": [
                "http://wikitravel.org/en/Shringeri",
                "http://www.nivalink.com/destination/shimoga",
                "http://www.nivalink.com/destination/sringeri"
            ],
            "address": "Kundapura, \u0c95\u0cc1\u0c82\u0ca6\u0cbe\u0caa\u0cc1\u0cb0 \u0ca4\u0cbe\u0cb2\u0cc2\u0c95\u0cc1, Udupi district, Karnataka, 576200, India",
            "locType": "town",
            "longitude": "74.6915722"
        },
        "humcha": {
            "closest_to": "sringeri",
            "latitude": "13.862013",
            "blogLinks": [
                "http://www.nivalink.com/destination/shimoga"
            ],
            "address": "Humcha Main Road, Huncha, Hosanagara taluk, Shimoga district, Karnataka, India",
            "locType": "secondary",
            "longitude": "75.2098487"
        },
        "karkala": {
            "closest_to": "sringeri",
            "latitude": "13.2112826",
            "blogLinks": [
                "https://en.wikipedia.org/wiki/Sringeri"
            ],
            "address": "Karkala, Karkala taluk, Udupi district, Karnataka, 574104, India",
            "locType": "town",
            "longitude": "74.9959586"
        },
        "chikmagalur": {
            "closest_to": "sringeri",
            "latitude": "13.5",
            "blogLinks": [
                "http://www.mapsofindia.com/karnataka/travel-to-sringeri.html"
            ],
            "address": "Chikmagalur, Chikkamagaluru district, Karnataka, India",
            "locType": "county",
            "longitude": "75.5"
        },
        "shimoga district": {
            "closest_to": "shimoga",
            "latitude": "14.0558284",
            "blogLinks": [
                "https://www.tripoto.com/travel-guide/agumbe/places-to-visit"
            ],
            "address": "Shimoga district, Karnataka, India",
            "locType": "administrative",
            "longitude": "75.1312533993886"
        },
        "sorab": {
            "closest_to": "shimoga",
            "latitude": "14.2779168",
            "blogLinks": [
                "http://www.holidayiq.com/Shimoga-Sightseeing-748.html"
            ],
            "address": "Sorab Ulavi Rd, Ulavi, Soraba taluk, Shimoga district, Karnataka, 577434, India",
            "locType": "secondary",
            "longitude": "75.1114212"
        },
        "dharmasthala": {
            "closest_to": "sringeri",
            "latitude": "12.9519571",
            "blogLinks": [
                "https://rameshjs.wordpress.com/2009/02/09/visit-to-kukke-dharmasthala-sringeri-temples/"
            ],
            "address": "Dharmasthala, Beltangadi taluk, Dakshina Kannada, Karnataka, 574216, India",
            "locType": "village",
            "longitude": "75.3813122"
        },
        "kadur": {
            "closest_to": "sringeri",
            "latitude": "13.3283654",
            "blogLinks": [
                "http://wikitravel.org/en/Shringeri",
                "https://en.wikipedia.org/wiki/Sringeri"
            ],
            "address": "Mudigere-Kadur Road, Basavannahalli, Chikkamagaluru, Chikkamagaluru taluku, Chikkamagaluru district, Karnataka, 577101, India",
            "locType": "trunk",
            "longitude": "75.7820095"
        },
        "shankaranarayana": {
            "closest_to": "sringeri",
            "latitude": "13.6058955",
            "blogLinks": [
                "http://travel.india.com/agumbe/"
            ],
            "address": "Shankaranarayana, \u0c95\u0cc1\u0c82\u0ca6\u0cbe\u0caa\u0cc1\u0cb0 \u0ca4\u0cbe\u0cb2\u0cc2\u0c95\u0cc1, Udupi district, Karnataka, 576227, India",
            "locType": "village",
            "longitude": "74.8600862"
        },
        "hosanagar": {
            "closest_to": "sringeri",
            "latitude": "13.9166601",
            "blogLinks": [
                "https://www.tripadvisor.in/ShowTopic-g297627-i2498-k3449059-Udipi_Kollur_Shimoga_Sringeri_Horanadu_Dharmasthala-Karnataka.html"
            ],
            "address": "Hosanagar Santhe Market, Nehru Road, Kaluru, Hosanagara taluk, Shimoga district, Karnataka, 577418, India",
            "locType": "marketplace",
            "longitude": "75.0631116"
        },
        "shimoga district of karnataka": {
            "closest_to": "shimoga",
            "latitude": "14.0558284",
            "blogLinks": [
                "http://www.holidayiq.com/Shimoga-Sightseeing-748.html"
            ],
            "address": "Shimoga district, Karnataka, India",
            "locType": "administrative",
            "longitude": "75.1312533993886"
        },
        "sri vidyashankara temple": {
            "closest_to": "sringeri",
            "latitude": "13.41567005",
            "blogLinks": [
                "http://www.godakshin.com/?q=travel-guides/sringeri-sightseeing-173.html"
            ],
            "address": "Sri Vidyashankara Swamy Temple, Sri Vidyateertha Setu, Sringeri, Sringeri taluku, Chikkamagaluru district, Karnataka, 577592, India",
            "locType": "place_of_worship",
            "longitude": "75.2514472909836"
        },
        "kigga village": {
            "closest_to": "sringeri",
            "latitude": "13.41691525",
            "blogLinks": [
                "http://wikitravel.org/en/Shringeri"
            ],
            "address": "Kigga, Sringeri taluku, Chikkamagaluru district, Karnataka, 577139, India",
            "locType": "village",
            "longitude": "75.1903656777356"
        },
        "sagar road": {
            "closest_to": "shimoga",
            "latitude": "14.0904271",
            "blogLinks": [
                "http://www.holidayiq.com/Shimoga-Sightseeing-748.html"
            ],
            "address": "Sagar Road, Anandapura, Sagara taluk, Shimoga district, Karnataka, 577412, India",
            "locType": "trunk",
            "longitude": "75.2002048"
        },
        "sagar town": {
            "closest_to": "shimoga",
            "latitude": "14.1666594",
            "blogLinks": [
                "http://wikitravel.org/en/Shimoga"
            ],
            "address": "Sagara, Sagara taluk, Shimoga district, Karnataka, 577400, India",
            "locType": "town",
            "longitude": "75.0262551"
        },
        "bhadravathi": {
            "closest_to": "shimoga",
            "latitude": "13.8474574",
            "blogLinks": [
                "http://wikitravel.org/en/Shimoga"
            ],
            "address": "Bhadravathi, Bhadravati taluk, Shimoga district, Karnataka, 577300, India",
            "locType": "town",
            "longitude": "75.7030138"
        },
        "sringeri": {
            "closest_to": "sringeri",
            "latitude": "13.4261724",
            "blogLinks": [
                "https://www.tripoto.com/travel-guide/agumbe",
                "http://www.mapsofindia.com/karnataka/travel-to-sringeri.html",
                "http://www.godakshin.com/?q=travel-guides/sringeri-sightseeing-173.html",
                "http://wikitravel.org/en/Shringeri",
                "http://www.holidayiq.com/Shimoga-Sightseeing-748.html",
                "https://en.wikipedia.org/wiki/Sringeri"
            ],
            "address": "Sringeri, Sringeri taluku, Chikkamagaluru district, Karnataka, 577592, India",
            "locType": "town",
            "longitude": "75.2553718"
        },
        "bhadra river": {
            "closest_to": "sringeri",
            "latitude": "13.4888356",
            "blogLinks": [
                "http://www.nivalink.com/destination/shimoga"
            ],
            "address": "Bhadra, Chikkamagaluru taluku, Chikkamagaluru district, Karnataka, India",
            "locType": "river",
            "longitude": "75.527118"
        },
        "horanadu": {
            "closest_to": "sringeri",
            "latitude": "13.2761199",
            "blogLinks": [
                "http://www.mapsofindia.com/karnataka/travel-to-sringeri.html"
            ],
            "address": "Horanadu, Mudigere taluk, Chikkamagaluru district, Karnataka, 577181, India",
            "locType": "town",
            "longitude": "75.3445161"
        },
        "sagara": {
            "closest_to": "shimoga",
            "latitude": "14.1666594",
            "blogLinks": [
                "http://www.holidayiq.com/Shimoga-Sightseeing-748.html"
            ],
            "address": "Sagara, Sagara taluk, Shimoga district, Karnataka, 577400, India",
            "locType": "town",
            "longitude": "75.0262551"
        },
        "river tunga": {
            "closest_to": "sringeri",
            "latitude": "13.6632221",
            "blogLinks": [
                "http://www.holidayiq.com/Shimoga-Sightseeing-748.html"
            ],
            "address": "Tunga, Tirthahalli taluk, Shimoga district, Karnataka, India",
            "locType": "river",
            "longitude": "75.3221835"
        },
        "thirthahalli road": {
            "closest_to": "sringeri",
            "latitude": "13.3476314",
            "blogLinks": [
                "http://wikitravel.org/en/Shimoga"
            ],
            "address": "Malpe - Manipal Road, Indrali, Manipal, Udupi taluku, Udupi district, Karnataka, 576 104, India",
            "locType": "trunk",
            "longitude": "74.7829657"
        },
        "koppa": {
            "closest_to": "sringeri",
            "latitude": "13.533207",
            "blogLinks": [
                "http://wikitravel.org/en/Shringeri"
            ],
            "address": "Koppa, Koppa taluk, Chikkamagaluru district, Karnataka, India",
            "locType": "town",
            "longitude": "75.3633986"
        },
        "sagar": {
            "closest_to": "shimoga",
            "latitude": "14.1666594",
            "blogLinks": [
                "http://wikitravel.org/en/Shimoga"
            ],
            "address": "Sagara, Sagara taluk, Shimoga district, Karnataka, 577400, India",
            "locType": "town",
            "longitude": "75.0262551"
        },
        "tunga": {
            "closest_to": "sringeri",
            "latitude": "13.6632221",
            "blogLinks": [
                "https://en.wikipedia.org/wiki/Sringeri",
                "http://www.nivalink.com/destination/shimoga"
            ],
            "address": "Tunga, Tirthahalli taluk, Shimoga district, Karnataka, India",
            "locType": "river",
            "longitude": "75.3221835"
        },
        "netravati": {
            "closest_to": "sringeri",
            "latitude": "12.8537655",
            "blogLinks": [
                "https://en.wikipedia.org/wiki/Sringeri"
            ],
            "address": "Netravati, Bantwal taluk, Dakshina Kannada, Karnataka, India",
            "locType": "river",
            "longitude": "75.1562182"
        },
        "sagar taluk": {
            "closest_to": "shimoga",
            "latitude": "14.1666594",
            "blogLinks": [
                "http://wikitravel.org/en/Shimoga"
            ],
            "address": "Sagara, Sagara taluk, Shimoga district, Karnataka, 577400, India",
            "locType": "town",
            "longitude": "75.0262551"
        },
        "hosanagara": {
            "closest_to": "sringeri",
            "latitude": "13.916789",
            "blogLinks": [
                "http://travel.india.com/agumbe/",
                "https://www.tripadvisor.in/ShowTopic-g297627-i2498-k3449059-Udipi_Kollur_Shimoga_Sringeri_Horanadu_Dharmasthala-Karnataka.html"
            ],
            "address": "Hosanagara, Hosanagara taluk, Shimoga district, Karnataka, 577418, India",
            "locType": "town",
            "longitude": "75.0657952"
        },
        "nittur": {
            "closest_to": "shimoga",
            "latitude": "14.3579814",
            "blogLinks": [
                "http://wikitravel.org/en/Shimoga"
            ],
            "address": "Malebennur Nittur Road, Nitturu, Harihara taluku, Davanagere district, Karnataka, 577530, India",
            "locType": "tertiary",
            "longitude": "75.7595937"
        },
        "hebri": {
            "closest_to": "sringeri",
            "latitude": "13.4586986",
            "blogLinks": [
                "https://en.wikipedia.org/wiki/Sringeri"
            ],
            "address": "Hebri, Karkala taluk, Udupi district, Karnataka, India",
            "locType": "village",
            "longitude": "74.9911872"
        },
        "nagara": {
            "closest_to": "sringeri",
            "latitude": "13.8236828",
            "blogLinks": [
                "http://wikitravel.org/en/Shimoga"
            ],
            "address": "Nagara, Hosanagara taluk, Shimoga district, Karnataka, India",
            "locType": "village",
            "longitude": "75.0328554"
        },
        "koodli": {
            "closest_to": "sringeri",
            "latitude": "13.4868433",
            "blogLinks": [
                "http://www.nivalink.com/destination/shimoga"
            ],
            "address": "Koodli Road, Yadtadi, Udupi taluku, Udupi district, Karnataka, India",
            "locType": "tertiary",
            "longitude": "74.7671"
        },
        "agumbe rainforest research station": {
            "closest_to": "sringeri",
            "latitude": "13.51811715",
            "blogLinks": [
                "https://www.tripoto.com/travel-guide/agumbe/places-to-visit",
                "https://www.tripoto.com/travel-guide/agumbe"
            ],
            "address": "Agumbe Rainforest Research Station (ARRS), Agumbe Road, Guddekeri, Tirthahalli taluk, Shimoga district, Karnataka, 577411, India",
            "locType": "Research",
            "longitude": "75.088690168594"
        },
        "kundapur": {
            "closest_to": "sringeri",
            "latitude": "13.6343509",
            "blogLinks": [
                "http://travel.india.com/agumbe/"
            ],
            "address": "United Basel mission church Higher Primary School, Kundapur, Chikkansal Road, Vaderahobali, Kundapura, \u0c95\u0cc1\u0c82\u0ca6\u0cbe\u0caa\u0cc1\u0cb0 \u0ca4\u0cbe\u0cb2\u0cc2\u0c95\u0cc1, Udupi district, Karnataka, 576200, India",
            "locType": "school",
            "longitude": "74.6906749"
        },
        "annapoorneshwari temple": {
            "closest_to": "sringeri",
            "latitude": "12.97910715",
            "blogLinks": [
                "http://www.mapsofindia.com/karnataka/travel-to-sringeri.html"
            ],
            "address": "Sri Ambika Annapoorneshwari Temple, SH101, Sunkadakatte, Mangaluru taluk, Dakshina Kannada, Karnataka, India",
            "locType": "place_of_worship",
            "longitude": "74.9006001"
        },
        "kalaseshwara temple": {
            "closest_to": "sringeri",
            "latitude": "13.23228505",
            "blogLinks": [
                "http://www.nivalink.com/destination/sringeri",
                "http://www.godakshin.com/?q=travel-guides/sringeri-sightseeing-173.html",
                "http://www.nivalink.com/destination/shimoga"
            ],
            "address": "Kalaseshwara Temple, SH66, Kalasa, Mudigere taluk, Chikkamagaluru district, Karnataka, 577124, India",
            "locType": "place_of_worship",
            "longitude": "75.363446975"
        },
        "birur": {
            "closest_to": "shimoga",
            "latitude": "13.5928214",
            "blogLinks": [
                "http://wikitravel.org/en/Shringeri"
            ],
            "address": "Birur Junction, NH69, Byagadehalli, Kaduru taluk, Chikkamagaluru district, Karnataka, 577548, India",
            "locType": "station",
            "longitude": "75.9731786"
        },
        "hariharapura": {
            "closest_to": "sringeri",
            "latitude": "13.5203047",
            "blogLinks": [
                "http://www.godakshin.com/?q=travel-guides/sringeri-sightseeing-173.html"
            ],
            "address": "Hariharapura, Koppa taluk, Chikkamagaluru district, Karnataka, 577120, India",
            "locType": "village",
            "longitude": "75.3016877"
        },
        "kigga": {
            "closest_to": "sringeri",
            "latitude": "13.41691525",
            "blogLinks": [
                "http://wikitravel.org/en/Shringeri",
                "https://en.wikipedia.org/wiki/Sringeri",
                "http://www.mapsofindia.com/karnataka/travel-to-sringeri.html"
            ],
            "address": "Kigga, Sringeri taluku, Chikkamagaluru district, Karnataka, 577139, India",
            "locType": "village",
            "longitude": "75.1903656777356"
        },
        "agumbe": {
            "closest_to": "sringeri",
            "latitude": "13.5094998",
            "blogLinks": [
                "https://www.tripoto.com/travel-guide/agumbe/places-to-visit",
                "https://www.tripoto.com/travel-guide/agumbe"
            ],
            "address": "Agumbe, Tirthahalli taluk, Shimoga district, Karnataka, 577411, India",
            "locType": "village",
            "longitude": "75.0965525"
        },
        "kundadri": {
            "closest_to": "sringeri",
            "latitude": "13.5580148",
            "blogLinks": [
                "https://www.tripoto.com/travel-guide/agumbe/places-to-visit",
                "https://www.tripoto.com/travel-guide/agumbe"
            ],
            "address": "Kundadri, Tirthahalli taluk, Shimoga district, Karnataka, India",
            "locType": "peak",
            "longitude": "75.1689994"
        },
        "tunga river": {
            "closest_to": "sringeri",
            "latitude": "13.6632221",
            "blogLinks": [
                "http://www.mapsofindia.com/karnataka/travel-to-sringeri.html",
                "http://www.nivalink.com/destination/shimoga"
            ],
            "address": "Tunga, Tirthahalli taluk, Shimoga district, Karnataka, India",
            "locType": "river",
            "longitude": "75.3221835"
        }
    }
}